kindergarten_id,district_id,name,address,postal_code,latitude,longitude,neighborhood,district,operator,capacity,source,created_at,updated_at
1,11012012,Bunte Klänge Kindergarten,"Graf-Haeseler-Straße 23, 13403 Berlin",13403,52.5699596,13.3138632,Reinickendorf,Reinickendorf,Unknown,Unknown,openstreetmap,18/08/2025 11:28,18/08/2025 11:28
2,11002002,Nestwärme Kita,Unknown,Unknown,52.5015358,13.4333992,Kreuzberg,Friedrichshain-Kreuzberg,Unknown,Unknown,openstreetmap,18/08/2025 11:28,18/08/2025 11:28
3,11007007,Kita Fehlerstraße 2,"Fehlerstraße 2, 12161 Berlin",12161,52.4767411,13.3258251,Friedenau,Tempelhof-Schöneberg,Unknown,Unknown,openstreetmap,18/08/2025 11:28,18/08/2025 11:28
4,11007007,Ganztagsbetreuung der Fläming-Grundschule,"Rheinstraße 54, 12161 Berlin",12161,52.4685223,13.3325044,Friedenau,Tempelhof-Schöneberg,Nachbarschaftsheim Schöneberg e.V.,Unknown,openstreetmap,18/08/2025 11:28,18/08/2025 11:28
5,11001001,kidsweb.de Kindertagesbetreuung,Unknown,Unknown,52.5398837,13.3496243,Wedding,Mitte,Unknown,Unknown,openstreetmap,18/08/2025 11:28,18/08/2025 11:28
6,11001001,EKG - An der Apostelkirche 1,"Kurfürstenstraße 139, 10785 Berlin",10785,52.5006833,13.3587022,Schöneberg,Mitte,Unknown,Unknown,openstreetmap,18/08/2025 11:28,18/08/2025 11:28
7,11012012,EKG - Alt-Wittenau 64,"Alt-Wittenau 64, 13437 Berlin",13437,52.5916324,13.3258382,Wittenau,Reinickendorf,Unknown,Unknown,openstreetmap,18/08/2025 11:28,18/08/2025 11:28
8,11012012,EKG - An der Mäckeritzbrücke 4,Unknown,Unknown,52.5504682,13.2698094,Tegel,Reinickendorf,Unknown,Unknown,openstreetmap,18/08/2025 11:28,18/08/2025 11:28
9,11012012,EKG - Berliner Straße 120,Unknown,Unknown,52.617587,13.3155199,Hermsdorf,Reinickendorf,Unknown,Unknown,openstreetmap,18/08/2025 11:28,18/08/2025 11:28
10,11006006,EKG - Ellwanger Straße 9-11,Unknown,Unknown,52.4473892,13.3571434,Steglitz,Steglitz-Zehlendorf,Unknown,Unknown,openstreetmap,18/08/2025 11:28,18/08/2025 11:28
11,11004004,EKG - Detmolder Straße 17,Unknown,Unknown,52.4791322,13.3211029,Wilmersdorf,Charlottenburg-Wilmersdorf,Unknown,Unknown,openstreetmap,18/08/2025 11:28,18/08/2025 11:28
12,11007007,EKG - Friedenstraße 20,Unknown,Unknown,52.4389996,13.3866799,Mariendorf,Tempelhof-Schöneberg,Unknown,Unknown,openstreetmap,18/08/2025 11:28,18/08/2025 11:28
13,11007007,Ev. Teilzeit-Kita Goltzstraße,"Goltzstraße 33, 12307 Berlin",12307,52.3853393,13.4057689,Lichtenrade,Tempelhof-Schöneberg,Unknown,28,openstreetmap,18/08/2025 11:28,18/08/2025 11:28
14,11012012,EKG - Gemeindezentrum Schillerhöhe,Unknown,Unknown,52.5602005,13.3607718,Reinickendorf,Reinickendorf,Unknown,Unknown,openstreetmap,18/08/2025 11:28,18/08/2025 11:28
15,11004004,Kita der Evangelischen Kirchengemeinde Am Lietzensee,"Herbartstraße 4, 14057 Berlin",14057,52.504493,13.2870406,Charlottenburg,Charlottenburg-Wilmersdorf,Unknown,50,openstreetmap,18/08/2025 11:28,18/08/2025 11:28
16,11006006,Lemmis Kreativ-Kita,"Gravelottestraße 10, 12167 Berlin",12167,52.447636,13.3274376,Steglitz,Steglitz-Zehlendorf,Kreativ-Kitas Berlin Süd gUG,Unknown,openstreetmap,18/08/2025 11:28,18/08/2025 11:28
17,11007007,EKG - Kaiserin-Augusta-Straße 23,"Kaiserin-Augusta-Straße 23, 12103 Berlin",12103,52.4600379,13.3784317,Tempelhof,Tempelhof-Schöneberg,Evangelische Kirchengemeinde Alt-Tempelhof,Unknown,openstreetmap,18/08/2025 11:28,18/08/2025 11:28
18,11005005,Miniclub,"Kladower Damm 369, 14089 Berlin",14089,52.453963,13.144791,Kladow,Spandau,Unknown,Unknown,openstreetmap,18/08/2025 11:28,18/08/2025 11:28
19,11005005,Eltern-Kind-Gruppe,"Jaczostraße 54, 13595 Berlin",13595,52.5118671,13.1858413,Wilhelmstadt,Spandau,Evangelische Weinbergkirchengemeinde,Unknown,openstreetmap,18/08/2025 11:28,18/08/2025 11:28
20,11008008,EKG - Martin-Luther-King-Weg 6,Unknown,Unknown,52.4226447,13.4505383,Buckow,Neukölln,Unknown,Unknown,openstreetmap,18/08/2025 11:28,18/08/2025 11:28
21,11004004,Kindergarten Trinitatis,"Leibnizstraße 79, 10625 Berlin",10625,52.5082915,13.3139551,Charlottenburg,Charlottenburg-Wilmersdorf,Ev. Trinitatis-Kirchengemeinde Berlin-Charlottenburg,Unknown,openstreetmap,18/08/2025 11:28,18/08/2025 11:28
22,11006006,Teilzeit-KiTa Martin-Niemöller-Haus,"Pacelliallee 61, 14195 Berlin",14195,52.4594287,13.286726,Dahlem,Steglitz-Zehlendorf,Evangelische Kirchengemeinde Dahlem,18,openstreetmap,18/08/2025 11:28,18/08/2025 11:28
23,11006006,EKG - Matterhornstraße 37,Unknown,Unknown,52.4376136,13.2192643,Schlachtensee,Steglitz-Zehlendorf,Unknown,Unknown,openstreetmap,18/08/2025 11:28,18/08/2025 11:28
24,11004004,EKG - Nassauische Straße 66,Unknown,Unknown,52.4939543,13.3268807,,Charlottenburg-Wilmersdorf,Unknown,Unknown,openstreetmap,18/08/2025 11:28,18/08/2025 11:28
25,11005005,EKG - Schwanter Weg 3,Unknown,Unknown,52.55894,13.1822088,Hakenfelde,Spandau,Unknown,Unknown,openstreetmap,18/08/2025 11:28,18/08/2025 11:28
26,11005005,EKG - Schuckertdamm 336-338,Unknown,Unknown,52.5414858,13.267403,Siemensstadt,Spandau,Unknown,Unknown,openstreetmap,18/08/2025 11:28,18/08/2025 11:28
27,11006006,Eltern-Kind-Gruppe Matthäus,"Schloßstraße 44C, 12165 Berlin",12165,52.4561079,13.3186112,Steglitz,Steglitz-Zehlendorf,Unknown,Unknown,openstreetmap,18/08/2025 11:28,18/08/2025 11:28
28,11007007,EKG - Rackebüller Weg 64,Rackebüller Weg 64,Unknown,52.4053643,13.4022689,Lichtenrade,Tempelhof-Schöneberg,Unknown,Unknown,openstreetmap,18/08/2025 11:28,18/08/2025 11:28
29,11005005,Kita der Evangelischen Kirchengemeinde Am Groß-Glienicker See,"Waldallee 3, 14089 Berlin",14089,52.4653362,13.1275935,Kladow,Spandau,Evangelische Kirchengemeinde Am Groß-Glienicker See,Unknown,openstreetmap,18/08/2025 11:28,18/08/2025 11:28
30,11007007,EKT - Abrakadabra e.V.,"Motzstraße 63, 10777 Berlin",10777,52.4947329,13.3392604,Schöneberg,Tempelhof-Schöneberg,Unknown,Unknown,openstreetmap,18/08/2025 11:28,18/08/2025 11:28
31,11001001,Kinderladen Ali Baba,"Waldstraße 15, 10551 Berlin",10551,52.5299838,13.3315829,Moabit,Mitte,Kinderladen Ali Baba e.V.,Unknown,openstreetmap,18/08/2025 11:28,18/08/2025 11:28
32,11008008,"Ali Baba und seine Räuber ""Löwenzahn""","Kranoldstraße 1, 12051 Berlin",12051,52.4663348,13.4363771,Neukölln,Neukölln,Kinderladen Ali Baba und seine Räuber e.V.,Unknown,openstreetmap,18/08/2025 11:28,18/08/2025 11:28
33,11006006,EKT - Ahörnchen e.V.,Unknown,Unknown,52.4603819,13.3204746,Steglitz,Steglitz-Zehlendorf,Unknown,Unknown,openstreetmap,18/08/2025 11:28,18/08/2025 11:28
34,11007007,Kinderladen Affentheater,"Merseburger Straße 5, 10823 Berlin",10823,52.4878741,13.3526806,Schöneberg,Tempelhof-Schöneberg,Affentheater e.V.,Unknown,openstreetmap,18/08/2025 11:28,18/08/2025 11:28
35,11001001,Arche Moabit,"Huttenstraße 31, 10553 Berlin",10553,52.529794,13.3156844,Moabit,Mitte,Arche Moabit e.V.,Unknown,openstreetmap,18/08/2025 11:28,18/08/2025 11:28
36,11007007,Kinderladen Atze + Co.,"Wilhelmshöher Straße 9, 12161 Berlin",12161,52.4726664,13.3246757,Friedenau,Tempelhof-Schöneberg,Atze + Co. e.V.,Unknown,openstreetmap,18/08/2025 11:28,18/08/2025 11:28
37,11008008,Altenbraker Kinderladen,Unknown,Unknown,52.4713145,13.4318601,Neukölln,Neukölln,Unknown,Unknown,openstreetmap,18/08/2025 11:28,18/08/2025 11:28
38,11008008,Feldmäuse an der Hasenheide,"Lichtenrader Straße 11, 12049 Berlin",12049,52.4770404,13.419956,Neukölln,Neukölln,Kinderladen an der Hasenheide e.V.,Unknown,openstreetmap,18/08/2025 11:28,18/08/2025 11:28
39,11006006,Kinderladen Blumenladen,"Moltkestraße 47, 12203 Berlin",12203,52.4459867,13.3079431,Lichterfelde,Steglitz-Zehlendorf,EKT-Blumenladen e.V.,Unknown,openstreetmap,18/08/2025 11:28,18/08/2025 11:28
40,11004004,Kita Bollerwagen,"Sophie-Charlotten-Straße 83b, 14059 Berlin",14059,52.5141335,13.2895477,Charlottenburg,Charlottenburg-Wilmersdorf,Kita Bollerwagen e.V.,Unknown,openstreetmap,18/08/2025 11:28,18/08/2025 11:28
41,11002002,EKT - Brausepulver e.V.,"Urbanstraße 6, 10961 Berlin",10961,52.4939862,13.4015118,Kreuzberg,Friedrichshain-Kreuzberg,Unknown,Unknown,openstreetmap,18/08/2025 11:28,18/08/2025 11:28
42,11002002,EKT - Bunte Mischung e.V.,"Böckhstraße 47-48, 10967 Berlin",10967,52.4942784,13.4172573,Kreuzberg,Friedrichshain-Kreuzberg,Unknown,Unknown,openstreetmap,18/08/2025 11:28,18/08/2025 11:28
43,11008008,"Kinderladen ""Lieblingsmenschen""","Nogatstraße 24, 12051 Berlin",12051,52.4693894,13.4316805,Neukölln,Neukölln,Unknown,Unknown,openstreetmap,18/08/2025 11:28,18/08/2025 11:28
44,11007007,Kinderladen Berliner Malbüro,"Mainauer Straße 6, 12161 Berlin",12161,52.4758505,13.3258095,Friedenau,Tempelhof-Schöneberg,EKT Berliner Malbüro e.V.,Unknown,openstreetmap,18/08/2025 11:28,18/08/2025 11:28
45,11003003,Kita Billabong,"Greifenhagener Straße 14, 10437 Berlin",10437,52.5466679,13.4152842,Prenzlauer Berg,Pankow,Billabong 02 e.V.,Unknown,openstreetmap,18/08/2025 11:28,18/08/2025 11:28
46,11012012,EKT - Das EI,Unknown,Unknown,52.575228,13.3545645,Reinickendorf,Reinickendorf,Unknown,Unknown,openstreetmap,18/08/2025 11:28,18/08/2025 11:28
47,11002002,EKT - Combo e.V.,10965 Berlin,10965,52.4874788,13.3936034,Kreuzberg,Friedrichshain-Kreuzberg,Unknown,Unknown,openstreetmap,18/08/2025 11:28,18/08/2025 11:28
48,11002002,EKT - Der kleine Horrorladen e.V.,Unknown,Unknown,52.4941875,13.4189042,,Friedrichshain-Kreuzberg,Unknown,Unknown,openstreetmap,18/08/2025 11:28,18/08/2025 11:28
49,11011011,EKT - Das tapfere Schneiderlein,Unknown,Unknown,52.4883261,13.5243187,Karlshorst,Lichtenberg,Unknown,Unknown,openstreetmap,18/08/2025 11:28,18/08/2025 11:28
50,11001001,Cocorico et Co,"Kluckstraße 29, 10785 Berlin",10785,52.5027488,13.3614793,Tiergarten,Mitte,Cocorico et Co e.V.,Unknown,openstreetmap,18/08/2025 11:28,18/08/2025 11:28
51,11004004,CIP Kita Theo Tintenklecks,"Mierendorffstraße 21, 10589 Berlin",10589,52.5238536,13.302174,Charlottenburg,Charlottenburg-Wilmersdorf,Unknown,Unknown,openstreetmap,18/08/2025 11:28,18/08/2025 11:28
52,11004004,Sonnenblume,"Christstraße 42, 14059 Berlin",14059,52.5167272,13.2932159,Charlottenburg,Charlottenburg-Wilmersdorf,Unknown,Unknown,openstreetmap,18/08/2025 11:28,18/08/2025 11:28
53,11005005,EKT - Die Knöpfe,Unknown,Unknown,52.5557638,13.204318,Hakenfelde,Spandau,Unknown,Unknown,openstreetmap,18/08/2025 11:28,18/08/2025 11:28
54,11008008,Die Kinkies,"Weisestraße 4, 12049 Berlin",12049,52.4796947,13.4230255,Neukölln,Neukölln,EKT Die Kinkies e.V.,Unknown,openstreetmap,18/08/2025 11:28,18/08/2025 11:28
55,11002002,Kinderladen Monumentenbande,"Monumentenstraße 16, 10965 Berlin",10965,52.4876781,13.3742344,Kreuzberg,Friedrichshain-Kreuzberg,Kinderladen Monumentenbande e.V.,Unknown,openstreetmap,18/08/2025 11:28,18/08/2025 11:28
56,11006006,EKT - Die Maulwürfe,Unknown,Unknown,52.4173,13.3225,Lichterfelde,Steglitz-Zehlendorf,Unknown,Unknown,openstreetmap,18/08/2025 11:28,18/08/2025 11:28
57,11007007,Kita Tulpen,Unknown,Unknown,52.4856076,13.3636921,Schöneberg,Tempelhof-Schöneberg,Selbsthilfeprojekt für Frauen e.V.,Unknown,openstreetmap,18/08/2025 11:28,18/08/2025 11:28
58,11004004,Kinderladen Die Lauser,"Koblenzer Straße 7, 10715 Berlin",10715,52.4801079,13.3214015,Wilmersdorf,Charlottenburg-Wilmersdorf,Kinderladen Die Lauser e.V.,Unknown,openstreetmap,18/08/2025 11:28,18/08/2025 11:28
59,11001001,Kita SilberStern,"Stettiner Straße 56, 13357 Berlin",13357,52.5527052,13.3846057,Gesundbrunnen,Mitte,SEHstern e. V.,Unknown,openstreetmap,18/08/2025 11:28,18/08/2025 11:28
60,11012012,Die Igelkinder,"Am Bärensprung 36, 13503 Berlin",13503,52.6106394,13.2474774,Heiligensee,Reinickendorf,EKT Die Igelkinder e.V.,Unknown,openstreetmap,18/08/2025 11:28,18/08/2025 11:28
61,11008008,Kinderladen Igelkinder,"Sandsteinweg 25A, 12349 Berlin",12349,52.4172709,13.4016881,Buckow,Neukölln,TÄKS e.V.,Unknown,openstreetmap,18/08/2025 11:28,18/08/2025 11:28
62,11009009,EKT - Die Grünspechte e.V.,Unknown,Unknown,52.4624775,13.5884247,Köpenick,Treptow-Köpenick,Unknown,15,openstreetmap,18/08/2025 11:28,18/08/2025 11:28
63,11003003,Domino,"Lychener Straße 21, 10437 Berlin",10437,52.5423844,13.4158361,Prenzlauer Berg,Pankow,Deutsch-Französiche Kita Domino e.V.,Unknown,openstreetmap,18/08/2025 11:28,18/08/2025 11:28
64,11007007,Kita 'Wilde 13',"Fritz-Reuter-Straße 8, 10827 Berlin",10827,52.4803423,13.348152,Schöneberg,Tempelhof-Schöneberg,TÄKS e.V.,Unknown,openstreetmap,18/08/2025 11:28,18/08/2025 11:28
65,11005005,EKT - Die Seeburg e.V.,Unknown,Unknown,52.5261266,13.1805079,Wilhelmstadt,Spandau,Unknown,Unknown,openstreetmap,18/08/2025 11:28,18/08/2025 11:28
66,11007007,Schülerladen Minipfiff,Unknown,Unknown,52.4902508,13.3517878,Schöneberg,Tempelhof-Schöneberg,Unknown,Unknown,openstreetmap,18/08/2025 11:28,18/08/2025 11:28
67,11007007,Kita Rosen,"Albertstraße 14-18, 10827 Berlin",10827,52.4839742,13.3537357,Schöneberg,Tempelhof-Schöneberg,SHP e.V.,Unknown,openstreetmap,18/08/2025 11:28,18/08/2025 11:28
68,11001001,EKT - Die Ministerne e.V.,"Sternstraße 9, 13359 Berlin",13359,52.5650507,13.3898943,Gesundbrunnen,Mitte,Unknown,Unknown,openstreetmap,18/08/2025 11:28,18/08/2025 11:28
69,11003003,Pankis,"Heinrich-Böll-Straße 1, 13156 Berlin",13156,52.5876141,13.4027318,Niederschönhausen,Pankow,Die Pankis gGmbH,Unknown,openstreetmap,18/08/2025 11:28,18/08/2025 11:28
70,11003003,EKT - Erdnuckel e.V.,"Choriner Straße 30, 10435 Berlin",10435,52.5357939,13.4099167,Prenzlauer Berg,Pankow,Unknown,Unknown,openstreetmap,18/08/2025 11:28,18/08/2025 11:28
71,11001001,EKT Eisbär,"Sparrstraße 20, 13353 Berlin",13353,52.5422522,13.3594564,Wedding,Mitte,Verein zur Förderung integrativer Erziehung e.V.,Unknown,openstreetmap,18/08/2025 11:28,18/08/2025 11:28
72,11003003,Elfenland,"Pasteurstraße 15, 10407 Berlin",10407,52.5336213,13.433538,Prenzlauer Berg,Pankow,Elfenland e.V.,Unknown,openstreetmap,18/08/2025 11:28,18/08/2025 11:28
73,11002002,Deutsch-Türkischer Kinderklub,"Nostitzstraße 6, 10961 Berlin",10961,52.4933173,13.3908463,Kreuzberg,Friedrichshain-Kreuzberg,EKT - Elterninitiative Deutsch-Türkischer Kinderklub e.V.,Unknown,openstreetmap,18/08/2025 11:28,18/08/2025 11:28
74,11011011,Kita „Sonnenhof“,"Archenholdstraße 72, 10315 Berlin",10315,52.5037708,13.5007695,Rummelsburg,Lichtenberg,Kindervereinigung Berlin,Unknown,openstreetmap,18/08/2025 11:28,18/08/2025 11:28
75,11011011,Kita „Erlenhof“,"Kraetkestraße 18, 10315 Berlin",10315,52.5045355,13.5076773,Friedrichsfelde,Lichtenberg,Unknown,Unknown,openstreetmap,18/08/2025 11:28,18/08/2025 11:28
76,11004004,Kinderladen Eichhörnchen,"Harbigstraße 14, 14055 Berlin",14055,52.5032947,13.2637921,Westend,Charlottenburg-Wilmersdorf,Eikita Eichhörnchen e.V.,18,openstreetmap,18/08/2025 11:28,18/08/2025 11:28
77,11004004,Kinderladen Eichkatzweg,"Eichkatzweg 11, 14055 Berlin",14055,52.4957971,13.2661489,Westend,Charlottenburg-Wilmersdorf,EKT Eichkatzweg 11 e.V.,Unknown,openstreetmap,18/08/2025 11:28,18/08/2025 11:28
78,11005005,EKT - Dreiecke und Kreise e.V.,Unknown,Unknown,52.5477809,13.208227,Spandau,Spandau,Unknown,Unknown,openstreetmap,18/08/2025 11:28,18/08/2025 11:28
79,11004004,EKT - Droysen-Mäuse e.V.,Unknown,Unknown,52.5010503,13.3022633,Charlottenburg,Charlottenburg-Wilmersdorf,Unknown,Unknown,openstreetmap,18/08/2025 11:28,18/08/2025 11:28
80,11001001,Integrationskinderladen Drunter & Drüber,"Stromstraße 58, 10551 Berlin",10551,52.5275438,13.3429994,Moabit,Mitte,EKT - Heilpädagogischer Integrationskinderladen Drunter & Drüber e.V.,Unknown,openstreetmap,18/08/2025 11:28,18/08/2025 11:28
81,11004004,Drunter und Drüber,"Neufertstraße 12, 14059 Berlin",14059,52.5176797,13.2942317,,Charlottenburg-Wilmersdorf,Drunter und Drüber e.V.,Unknown,openstreetmap,18/08/2025 11:28,18/08/2025 11:28
82,11001001,Kila Frecher Spatz,"Elberfelder Straße 18, 10555 Berlin",10555,52.5216126,13.3356677,Moabit,Mitte,Frecher Spatz e.V.,Unknown,openstreetmap,18/08/2025 11:28,18/08/2025 11:28
83,11005005,EKT - Förderverein christlicher Kindererziehung e.V.,Unknown,Unknown,52.5164659,13.1952586,Wilhelmstadt,Spandau,Unknown,Unknown,openstreetmap,18/08/2025 11:28,18/08/2025 11:28
84,11004004,Kinderladen Flitzpiepen,"Holtzendorffstraße 14, 14057 Berlin",14057,52.5049186,13.2948594,Charlottenburg,Charlottenburg-Wilmersdorf,Kinderladen Flitzpiepen e. V.,Unknown,openstreetmap,18/08/2025 11:28,18/08/2025 11:28
85,11001001,Katz&Kedi Kinderladen,"Jagowstraße 28, 10555 Berlin",10555,52.5234054,13.3338166,Moabit,Mitte,Verein Frecher Spatz e.V.,Unknown,openstreetmap,18/08/2025 11:28,18/08/2025 11:28
86,11004004,EKT - Firlefanz e.V.,Unknown,Unknown,52.505181,13.2993874,Charlottenburg,Charlottenburg-Wilmersdorf,Unknown,Unknown,openstreetmap,18/08/2025 11:28,18/08/2025 11:28
87,11007007,Kindertagesstätte Fidibus,Unknown,Unknown,52.4929437,13.3518427,Schöneberg,Tempelhof-Schöneberg,Unknown,Unknown,openstreetmap,18/08/2025 11:28,18/08/2025 11:28
88,11004004,EKT - Georg-Wilhelm-Kindergruppe e.V.,"Joachim-Friedrich-Straße 48, 10711 Berlin",10711,52.496684,13.2957982,Halensee,Charlottenburg-Wilmersdorf,Unknown,Unknown,openstreetmap,18/08/2025 11:28,18/08/2025 11:28
89,11003003,Kinderladen Garuda,"Kreuzstraße 5, 13187 Berlin",13187,52.5687747,13.3978691,Pankow,Pankow,Garuda e.V.,Unknown,openstreetmap,18/08/2025 11:28,18/08/2025 11:28
90,11004004,Kinderladen Charlottenburg,"Galvanistraße 14, 10587 Berlin",10587,52.5190368,13.3158255,Charlottenburg,Charlottenburg-Wilmersdorf,EKT Galvanistaße 14 e.V.,Unknown,openstreetmap,18/08/2025 11:28,18/08/2025 11:28
91,11009009,Der Friedrichshagener Kinderladen,"Drachholzstraße 2, 12587 Berlin",12587,52.4527716,13.6266929,Friedrichshagen,Treptow-Köpenick,Der Friedrichshagener Kinderladen e.V.,Unknown,openstreetmap,18/08/2025 11:28,18/08/2025 11:28
92,11008008,EKT - Hasenreiter e.V.,"Herrfurthplatz 4, 12049 Berlin",12049,52.4775212,13.4215214,Neukölln,Neukölln,Unknown,Unknown,openstreetmap,18/08/2025 11:28,18/08/2025 11:28
93,11004004,Kita Canicas,"Friedbergstraße 41, 14057 Berlin",14057,52.5036346,13.2922663,Charlottenburg,Charlottenburg-Wilmersdorf,canicas e. V,Unknown,openstreetmap,18/08/2025 11:28,18/08/2025 11:28
94,11002002,EKT Herzlichtgarten e.V.,"Hasenheide 51, 10967 Berlin",10967,52.489024,13.4105247,Kreuzberg,Friedrichshain-Kreuzberg,Unknown,Unknown,openstreetmap,18/08/2025 11:28,18/08/2025 11:28
95,11012012,Schubarts Lieblingskinder,"Schubartstraße 44, 13509 Berlin",13509,52.5838052,13.3035453,Borsigwalde,Reinickendorf,Lieblingskinder gemeinnützige UG,Unknown,openstreetmap,18/08/2025 11:28,18/08/2025 11:28
96,11006006,EKT - Hort der Rudolf-Steiner-Schule e.V.,Unknown,Unknown,52.4560187,13.2746532,Dahlem,Steglitz-Zehlendorf,Unknown,Unknown,openstreetmap,18/08/2025 11:28,18/08/2025 11:28
97,11004004,EKT - Hoppel-Poppel,"Galvanistraße 15, 10587 Berlin",10587,52.5187405,13.315822,Charlottenburg,Charlottenburg-Wilmersdorf,EKT - Hoppel-Poppel e.V.,Unknown,openstreetmap,18/08/2025 11:28,18/08/2025 11:28
98,11002002,EKT - Hollerbusch e.V.,"Reichenberger Straße 99, 10999 Berlin",10999,52.4932341,13.4389039,Kreuzberg,Friedrichshain-Kreuzberg,Unknown,Unknown,openstreetmap,18/08/2025 11:28,18/08/2025 11:28
99,11012012,EKT - Hokus Pokus e.V.,Unknown,Unknown,52.5860307,13.2803308,Tegel,Reinickendorf,Unknown,Unknown,openstreetmap,18/08/2025 11:28,18/08/2025 11:28
100,11003003,EKT - Grashüpfer e.V.,Unknown,Unknown,52.5462692,13.4103826,Prenzlauer Berg,Pankow,Unknown,Unknown,openstreetmap,18/08/2025 11:28,18/08/2025 11:28
101,11007007,Kinderladen Großstadtpflänzchen,"Cranachstraße 39/40, 12157 Berlin",12157,52.4643766,13.34284,Schöneberg,Tempelhof-Schöneberg,EKT Großstadtpflänzchen e.V.,Unknown,openstreetmap,18/08/2025 11:28,18/08/2025 11:28
102,11002002,Kinderladen Guten Tag Kinder,"Fürbringerstraße 27, 10961 Berlin",10961,52.493261,13.3958986,Kreuzberg,Friedrichshain-Kreuzberg,Guten Tag Kinder e.V.,Unknown,openstreetmap,18/08/2025 11:28,18/08/2025 11:28
103,11006006,Kindergarten Happy Kids,"Gritznerstraße 33, 12163 Berlin",12163,52.4633618,13.3158886,Steglitz,Steglitz-Zehlendorf,Happy Kids gGmbH,Unknown,openstreetmap,18/08/2025 11:28,18/08/2025 11:28
104,11004004,EKT - Grünes Nashorn e.V.,Unknown,Unknown,52.5134717,13.2803332,Westend,Charlottenburg-Wilmersdorf,Unknown,Unknown,openstreetmap,18/08/2025 11:28,18/08/2025 11:28
105,11002002,EKT - Känguruh e.V.,"Urbanstraße 6, 10961 Berlin",10961,52.4939637,13.4016768,Kreuzberg,Friedrichshain-Kreuzberg,Unknown,Unknown,openstreetmap,18/08/2025 11:28,18/08/2025 11:28
106,11002002,Kinderladen Kalle Kirschkern,"Fidicinstraße 32, 10965 Berlin",10965,52.4869227,13.3914611,Kreuzberg,Friedrichshain-Kreuzberg,Kirschkern e.V.,Unknown,openstreetmap,18/08/2025 11:28,18/08/2025 11:28
107,11004004,EKT - Kantis Kinder-Klub e.V.,Unknown,Unknown,52.4703256,13.2926302,Schmargendorf,Charlottenburg-Wilmersdorf,Unknown,Unknown,openstreetmap,18/08/2025 11:28,18/08/2025 11:28
108,11004004,Kita Karamell,"Gierkezeile 42, 10585 Berlin",10585,52.5177009,13.3025462,Charlottenburg,Charlottenburg-Wilmersdorf,EKT - Karamell e.V.,23,openstreetmap,18/08/2025 11:28,18/08/2025 11:28
109,11004004,EKT - Kartoffelladen e.V.,Unknown,Unknown,52.5134536,13.2929372,Charlottenburg,Charlottenburg-Wilmersdorf,Unknown,Unknown,openstreetmap,18/08/2025 11:28,18/08/2025 11:28
110,11002002,Katzbachpiraten,"Katzbachstraße 19, 10965 Berlin",10965,52.4870863,13.3760192,Kreuzberg,Friedrichshain-Kreuzberg,Katzbachpiraten e.V.,Unknown,openstreetmap,18/08/2025 11:28,18/08/2025 11:28
111,11012012,EKT - Hort im Märkischen Viertel e.V.,Unknown,Unknown,52.6001576,13.3649076,Märkisches Viertel,Reinickendorf,Unknown,Unknown,openstreetmap,18/08/2025 11:28,18/08/2025 11:28
112,11001001,EKT - Jo Jo e.V.,"Schwedenstraße 3a, 13357 Berlin",13357,52.5550696,13.37608,Gesundbrunnen,Mitte,Unknown,Unknown,openstreetmap,18/08/2025 11:28,18/08/2025 11:28
113,11004004,Kita Cheburashka,"Mindener Straße 11, 10589 Berlin",10589,52.5253589,13.2988279,Charlottenburg,Charlottenburg-Wilmersdorf,Cheburashka gGmbH,Unknown,openstreetmap,18/08/2025 11:28,18/08/2025 11:28
114,11007007,Kita Ebersstraße,"Ebersstraße 68, 10827 Berlin",10827,52.4792962,13.3502442,Schöneberg,Tempelhof-Schöneberg,Nachbarschaftsheim Schöneberg,Unknown,openstreetmap,18/08/2025 11:28,18/08/2025 11:28
115,11007007,Kita Lauterstraße 30,"Lauterstraße 30, 12159 Berlin",12159,52.4744996,13.3355502,Friedenau,Tempelhof-Schöneberg,Nachbarschaftsheim Schöneberg e.V.,Unknown,openstreetmap,18/08/2025 11:28,18/08/2025 11:28
116,11006006,Kinderladen Kasymir,"Menckenstraße 1, 12169 Berlin",12169,52.4583781,13.3315085,Steglitz,Steglitz-Zehlendorf,Kasymir e.V.,Unknown,openstreetmap,18/08/2025 11:28,18/08/2025 11:28
117,11006006,EKT - Kinderhaus Schönow e.V.,Unknown,Unknown,52.413267,13.2609157,Zehlendorf,Steglitz-Zehlendorf,Unknown,Unknown,openstreetmap,18/08/2025 11:28,18/08/2025 11:28
118,11005005,EKT - Kinderhaus Gruberzeile e.V.,Unknown,Unknown,52.5476783,13.2049266,Spandau,Spandau,Unknown,Unknown,openstreetmap,18/08/2025 11:28,18/08/2025 11:28
119,11001001,Kita Kindersorpresa,"Schwedter Straße 29, 10435 Berlin",10435,52.536391,13.406703,Prenzlauer Berg,Mitte,Kita Kindersorpresa e.V.,Unknown,openstreetmap,18/08/2025 11:28,18/08/2025 11:28
120,11004004,KiBest Die Kita,"Nehringstraße 16A, 14059 Berlin",14059,52.5138401,13.2945968,Charlottenburg,Charlottenburg-Wilmersdorf,Kinderbegegnungsstätte e.V.,Unknown,openstreetmap,18/08/2025 11:28,18/08/2025 11:28
121,11002002,Kinder aus Kreuzberg,Unknown,Unknown,52.5004737,13.4294707,Kreuzberg,Friedrichshain-Kreuzberg,EKT Kinder aus Kreuzberg e.V.,Unknown,openstreetmap,18/08/2025 11:28,18/08/2025 11:28
122,11004004,EKT - Kinderladen Purzelbaum e.V.,Unknown,Unknown,52.510792,13.3136549,Charlottenburg,Charlottenburg-Wilmersdorf,Unknown,Unknown,openstreetmap,18/08/2025 11:28,18/08/2025 11:28
123,11004004,Kindergruppe Hasensprung,"Koenigsallee 35, 14193 Berlin",14193,52.4872433,13.2710587,Grunewald,Charlottenburg-Wilmersdorf,Kindergruppe Hasensprung e. V.,Unknown,openstreetmap,18/08/2025 11:28,18/08/2025 11:28
124,11004004,Kinderladen Mainzelmännchen,"Mainzer Straße 25, 10715 Berlin",10715,52.4800607,13.3228931,Wilmersdorf,Charlottenburg-Wilmersdorf,Kinderladen Mainzelmännchen e.V.,Unknown,openstreetmap,18/08/2025 11:28,18/08/2025 11:28
125,11004004,EKT - Kindergarten am Schloß Charlottenburg,"Eosanderstraße 13, 10587 Berlin",10587,52.5204769,13.3018566,Charlottenburg,Charlottenburg-Wilmersdorf,Unknown,Unknown,openstreetmap,18/08/2025 11:28,18/08/2025 11:28
126,11002002,Kinderladen Kinderbüro,"Scharnweberstraße 33, 10247 Berlin",10247,52.5129861,13.4624114,Friedrichshain,Friedrichshain-Kreuzberg,Kinderbüro e.V.,Unknown,openstreetmap,18/08/2025 11:28,18/08/2025 11:28
127,11004004,Kinderland,"Wilhelmsaue 18, 10715 Berlin",10715,52.485661,13.3242685,Wilmersdorf,Charlottenburg-Wilmersdorf,EKT - Kinderland e.V.,Unknown,openstreetmap,18/08/2025 11:28,18/08/2025 11:28
128,11007007,Kinderspielkreis Alboinplatz,"Alboinstraße 113, 12105 Berlin",12105,52.4581963,13.3698397,Tempelhof,Tempelhof-Schöneberg,Kinderspielkreis Alboinplatz e. V.,Unknown,openstreetmap,18/08/2025 11:28,18/08/2025 11:28
129,11007007,"Kinderladen ""Villa Kunterbunt""","Kurfürstenstraße 114, 12105 Berlin",12105,52.4458057,13.3680752,Mariendorf,Tempelhof-Schöneberg,Unknown,Unknown,openstreetmap,18/08/2025 11:28,18/08/2025 11:28
130,11006006,Kinderladen Zweitausendfüssler,"Thorwaldsenstraße 29, 12157 Berlin",12157,52.4615738,13.3443659,Steglitz,Steglitz-Zehlendorf,Kinderladen Zweitausendfüssler e.V.,Unknown,openstreetmap,18/08/2025 11:28,18/08/2025 11:28
131,11007007,EKT - Kinderwelt e.V.,Unknown,Unknown,52.4081911,13.3555633,Marienfelde,Tempelhof-Schöneberg,Unknown,Unknown,openstreetmap,18/08/2025 11:28,18/08/2025 11:28
132,11001001,Kinderladen Badehaus,"Wilsnacker Straße 62, 10559 Berlin",10559,52.527324,13.3513713,Moabit,Mitte,Kinderladen Badehaus e.V.,Unknown,openstreetmap,18/08/2025 11:28,18/08/2025 11:28
133,11002002,EKT - Kinderladen Bande e.V.,"Oranienstraße 202, 10999 Berlin",10999,52.4996751,13.4246836,Kreuzberg,Friedrichshain-Kreuzberg,Unknown,Unknown,openstreetmap,18/08/2025 11:28,18/08/2025 11:28
134,11007007,Kinderladen Feuerkäfer,"Frankenstraße 15, 10781 Berlin",10781,52.4933014,13.3527944,Schöneberg,Tempelhof-Schöneberg,Unknown,Unknown,openstreetmap,18/08/2025 11:28,18/08/2025 11:28
135,11004004,EKT - Kinderladen - was sonst e.V.,"Friedbergstraße 5, 14057 Berlin",14057,52.5045821,13.297567,Charlottenburg,Charlottenburg-Wilmersdorf,Unknown,Unknown,openstreetmap,18/08/2025 11:28,18/08/2025 11:28
136,11002002,Kinderladen Luftabong,"Yorckstraße 88H, 10965 Berlin",10965,52.4924853,13.3862655,Kreuzberg,Friedrichshain-Kreuzberg,Kinderladen-Luftabong e.V,Unknown,openstreetmap,18/08/2025 11:28,18/08/2025 11:28
137,11002002,EKT – Kinderladen Muko e.V.,Unknown,Unknown,52.5004598,13.4337605,Kreuzberg,Friedrichshain-Kreuzberg,Unknown,Unknown,openstreetmap,18/08/2025 11:28,18/08/2025 11:28
138,11008008,Kinderladen Pimpinella,"Kranoldstraße 9, 12051 Berlin",12051,52.4660128,13.4334278,Neukölln,Neukölln,Pimpinella e.V.,Unknown,openstreetmap,18/08/2025 11:28,18/08/2025 11:28
139,11002002,Kinderladen Sol,"Dirschauer Straße 13, 10245 Berlin",10245,52.5082762,13.4570377,Friedrichshain,Friedrichshain-Kreuzberg,Sol e.V.,Unknown,openstreetmap,18/08/2025 11:28,18/08/2025 11:28
140,11004004,Kinderladen Goethestraße,"Goethestraße 13, 10623 Berlin",10623,52.509069,13.3187152,Charlottenburg,Charlottenburg-Wilmersdorf,Kinderladen Goethestraße e.V.,Unknown,openstreetmap,18/08/2025 11:28,18/08/2025 11:28
141,11005005,EKT - Kinderladen Immerfrech e.V.,Unknown,Unknown,52.5351799,13.2706888,Siemensstadt,Spandau,Unknown,Unknown,openstreetmap,18/08/2025 11:28,18/08/2025 11:28
142,11004004,EKT - Knuddelmonster e.V./Helene-Keller-Schule,Unknown,Unknown,52.4990742,13.2623584,Westend,Charlottenburg-Wilmersdorf,Unknown,Unknown,openstreetmap,18/08/2025 11:28,18/08/2025 11:28
143,11008008,Kleiner Fratz,"Weisestraße 28, 12049 Berlin",12049,52.4741033,13.4247486,Neukölln,Neukölln,Unknown,Unknown,openstreetmap,18/08/2025 11:28,18/08/2025 11:28
144,11007007,Kinderladen Konfetti,"Gleditschstraße 40, 10781 Berlin",10781,52.4931256,13.3549256,Schöneberg,Tempelhof-Schöneberg,Eltern-Initiativ-Kindertagesstätte Konfetti e.V.,Unknown,openstreetmap,18/08/2025 11:28,18/08/2025 11:28
145,11002002,Kinderladen Knulp,"Jahnstraße 4, 10967 Berlin",10967,52.488962,13.4193256,Kreuzberg,Friedrichshain-Kreuzberg,Kinderladen Knulp e.V.,Unknown,openstreetmap,18/08/2025 11:28,18/08/2025 11:28
146,11004004,Kleine Panther,"Aachener Straße 43, 10713 Berlin",10713,52.4821056,13.3187851,Wilmersdorf,Charlottenburg-Wilmersdorf,Kleine Panther e.V.,Unknown,openstreetmap,18/08/2025 11:28,18/08/2025 11:28
147,11001001,Kleine Himmelswolke,"Türkenstraße 5, 13349 Berlin",13349,52.553932,13.3485096,Wedding,Mitte,Kleine Himmelswolke e.V.,Unknown,openstreetmap,18/08/2025 11:28,18/08/2025 11:28
148,11003003,EKT - Kleiner Fratz e.V.,"Triftstraße 27B, 13127 Berlin",13127,52.6123847,13.4300645,Französisch Buchholz,Pankow,Unknown,Unknown,openstreetmap,18/08/2025 11:28,18/08/2025 11:28
149,11007007,Kleine Ungeheuer,"Vorbergstraße 2, 10823 Berlin",10823,52.4888867,13.357571,Schöneberg,Tempelhof-Schöneberg,EKT - Kleine Ungeheuer e.V.,Unknown,openstreetmap,18/08/2025 11:28,18/08/2025 11:28
150,11001001,Kleckerburg,"Kirchstraße 22, 10557 Berlin",10557,52.5236836,13.3494722,Moabit,Mitte,EIKITA Kleckerburg e.V.,Unknown,openstreetmap,18/08/2025 11:28,18/08/2025 11:28
151,11002002,Kinderladen Klara Kirschkern,"Nostitzstraße 25, 10961 Berlin",10961,52.4900288,13.3899857,Kreuzberg,Friedrichshain-Kreuzberg,Kirschkern e.V.,Unknown,openstreetmap,18/08/2025 11:28,18/08/2025 11:28
152,11001001,Kinderladen Klapperkiste,"Soldiner Straße 33, 13359 Berlin",13359,52.5594199,13.3842856,Gesundbrunnen,Mitte,EKT Klapperkiste e.V.,Unknown,openstreetmap,18/08/2025 11:28,18/08/2025 11:28
153,11007007,EKT - Kita-Verein Lichtenrade Ost e.V.,Unknown,Unknown,52.3943929,13.4191773,Lichtenrade,Tempelhof-Schöneberg,Unknown,Unknown,openstreetmap,18/08/2025 11:28,18/08/2025 11:28
154,11008008,EKT - Kita Karlsgartenstraße e.V.,"Schillerpromenade 29, 12049 Berlin",12049,52.4749504,13.4231777,Neukölln,Neukölln,Unknown,Unknown,openstreetmap,18/08/2025 11:28,18/08/2025 11:28
155,11009009,EKT - Kita am Karpfenteich /Clara Petudio e.V.,Unknown,Unknown,52.4834596,13.4693681,Plänterwald,Treptow-Köpenick,Unknown,Unknown,openstreetmap,18/08/2025 11:28,18/08/2025 11:28
156,11007007,EKT - Kitaverein Mücke e.V.,Unknown,Unknown,52.4491,13.3818,Mariendorf,Tempelhof-Schöneberg,Unknown,Unknown,openstreetmap,18/08/2025 11:28,18/08/2025 11:28
157,11007007,Lichtenrader Dreckspatzen,"Lintruper Straße 57, 12305 Berlin",12305,52.4086097,13.4028819,Lichtenrade,Tempelhof-Schöneberg,Lichtenrader Dreckspatzen e.V.,Unknown,openstreetmap,18/08/2025 11:28,18/08/2025 11:28
158,11007007,Kinderladen Lilo Leopard,"Gotenstraße 71, 10829 Berlin",10829,52.4828936,13.3604337,Schöneberg,Tempelhof-Schöneberg,Kinderladen Lilo Leopard e.V.,Unknown,openstreetmap,18/08/2025 11:28,18/08/2025 11:28
159,11008008,EKT - Lima e.V.,"Weichselstraße 38, 12045 Berlin",12045,52.4883983,13.4381518,Neukölln,Neukölln,Unknown,Unknown,openstreetmap,18/08/2025 11:28,18/08/2025 11:28
160,11002002,EKT – Lindenblüte e.V.,"Forster Straße 56, 10999 Berlin",10999,52.4959343,13.4343173,Kreuzberg,Friedrichshain-Kreuzberg,EKT – Lindenblüte e.V.,Unknown,openstreetmap,18/08/2025 11:28,18/08/2025 11:28
161,11008008,Loupiot e.V.,"Fuldastraße 37, 12045 Berlin",12045,52.4861289,13.4386908,Neukölln,Neukölln,Unknown,Unknown,openstreetmap,18/08/2025 11:28,18/08/2025 11:28
162,11002002,Kita Löwenhöhle,Unknown,Unknown,52.4973665,13.4445658,Kreuzberg,Friedrichshain-Kreuzberg,EKT Löwenhöhle e.V.,Unknown,openstreetmap,18/08/2025 11:28,18/08/2025 11:28
163,11004004,EKT - Luftikus,Unknown,Unknown,52.5463279,13.3183448,Charlottenburg-Nord,Charlottenburg-Wilmersdorf,Unknown,Unknown,openstreetmap,18/08/2025 11:28,18/08/2025 11:28
164,11006006,EKT - Kuschelburg e.V.,"Kniephofstraße 7, 12157 Berlin",12157,52.4600164,13.3325365,Steglitz,Steglitz-Zehlendorf,Unknown,Unknown,openstreetmap,18/08/2025 11:28,18/08/2025 11:28
165,11007007,L'Angolino,"Ansbacher Straße 41, 10777 Berlin",10777,52.4988898,13.3406294,Schöneberg,Tempelhof-Schöneberg,L'Angolino e.V.,Unknown,openstreetmap,18/08/2025 11:28,18/08/2025 11:28
166,11006006,EKT - Lankwitzer Spielkiste e.V.,Unknown,Unknown,52.43606,13.34994,Lankwitz,Steglitz-Zehlendorf,Unknown,Unknown,openstreetmap,18/08/2025 11:28,18/08/2025 11:28
167,11002002,Leierkasten,"Muskauer Straße 43, 10997 Berlin",10997,52.5020274,13.4295554,Kreuzberg,Friedrichshain-Kreuzberg,EKT Leierkasten e.V.,Unknown,openstreetmap,18/08/2025 11:28,18/08/2025 11:28
168,11002002,EKT - Krümelmonster e.V.,Unknown,Unknown,52.4901945,13.3795205,Kreuzberg,Friedrichshain-Kreuzberg,Unknown,Unknown,openstreetmap,18/08/2025 11:28,18/08/2025 11:28
169,11006006,Kinderladen Kulleberga,"Altmarkstraße 26, 12169 Berlin",12169,52.4594611,13.342167,Steglitz,Steglitz-Zehlendorf,Kulleberga e.V.,Unknown,openstreetmap,18/08/2025 11:28,18/08/2025 11:28
170,11002002,EKT - Kulturschlüssel e.V.,10965 Berlin,10965,52.4872582,13.3940627,Kreuzberg,Friedrichshain-Kreuzberg,Unknown,Unknown,openstreetmap,18/08/2025 11:28,18/08/2025 11:28
171,11008008,EKT - Kurdistan Kultur- und Hilfeverein e.V.,Unknown,Unknown,52.4699402,13.4379177,Neukölln,Neukölln,Unknown,Unknown,openstreetmap,18/08/2025 11:28,18/08/2025 11:28
172,11003003,Secret Garden,"Saarbrücker Straße 15, 10405 Berlin",10405,52.5310544,13.4130557,Prenzlauer Berg,Pankow,Krausnick-Eck e.V.,Unknown,openstreetmap,18/08/2025 11:28,18/08/2025 11:28
173,11003003,EKT - Krikelkrakel e.V.,Unknown,Unknown,52.5715051,13.4102114,Pankow,Pankow,Unknown,Unknown,openstreetmap,18/08/2025 11:28,18/08/2025 11:28
174,11002002,EKT - Kröwalda e.V.,Unknown,Unknown,52.50161,13.43453,Kreuzberg,Friedrichshain-Kreuzberg,Unknown,Unknown,openstreetmap,18/08/2025 11:28,18/08/2025 11:28
175,11002002,EKT - Krötenpfuhl e.V.,"Heimstraße 7, 10965 Berlin",10965,52.487574,13.396599,Kreuzberg,Friedrichshain-Kreuzberg,Unknown,Unknown,openstreetmap,18/08/2025 11:28,18/08/2025 11:28
176,11001001,EKT - Krümelbande e.V.,Unknown,Unknown,52.54657,13.34794,Wedding,Mitte,Unknown,Unknown,openstreetmap,18/08/2025 11:28,18/08/2025 11:28
177,11005005,Kinderladen Krowelstraße,"Krowelstraße 33, 13581 Berlin",13581,52.5256222,13.1980422,Wilhelmstadt,Spandau,Krowelstraße e.V.,Unknown,openstreetmap,18/08/2025 11:28,18/08/2025 11:28
178,11001001,Montessori Kinderhaus-Kolibris,"Sparrstraße 26, 13353 Berlin",13353,52.5414235,13.360182,Wedding,Mitte,eventus-BILDUNG gGmbH,Unknown,openstreetmap,18/08/2025 11:28,18/08/2025 11:28
179,11006006,Montessori Gemeinschaftshaus e.V.,"Clayallee 92, 14195 Berlin",14195,52.4596277,13.2755161,Dahlem,Steglitz-Zehlendorf,Unknown,Unknown,openstreetmap,18/08/2025 11:28,18/08/2025 11:28
180,11003003,EKT - Mittenmang e.V.,"Christinenstraße 30, 10119 Berlin",10119,52.5324336,13.4098838,Prenzlauer Berg,Pankow,Eltern-Initiativ-Kindertagesstätte (EKT) Mittenmang e.V.,Unknown,openstreetmap,18/08/2025 11:28,18/08/2025 11:28
181,11004004,Kinderladen Felix,"Wexstraße 20, 10715 Berlin",10715,52.4790537,13.3338963,Wilmersdorf,Charlottenburg-Wilmersdorf,Eikita Felix e.V.,Unknown,openstreetmap,18/08/2025 11:28,18/08/2025 11:28
182,11008008,EKT - Minihausen e.V.,"Mareschstraße 18, 12055 Berlin",12055,52.4741524,13.4512378,Neukölln,Neukölln,Unknown,Unknown,openstreetmap,18/08/2025 11:28,18/08/2025 11:28
183,11002002,Schülerladen Milli Vanilli,"Fidicinstraße 19, 10965 Berlin",10965,52.4865731,13.392661,Kreuzberg,Friedrichshain-Kreuzberg,Kooperationsverbund Reinhardswald Grundschule e.V.,Unknown,openstreetmap,18/08/2025 11:28,18/08/2025 11:28
184,11008008,Kinderhort Gropiusstadt,"Lipschitzallee 38, 12353 Berlin",12353,52.427498,13.4668977,Gropiusstadt,Neukölln,Kinderhort Gropiusstadt der Mieterinitiative HWS-Gropiusstadt e.V.,Unknown,openstreetmap,18/08/2025 11:28,18/08/2025 11:28
185,11012012,EKT - Maxizwerge e.V.,Unknown,Unknown,52.6339047,13.2862307,Frohnau,Reinickendorf,Unknown,Unknown,openstreetmap,18/08/2025 11:28,18/08/2025 11:28
186,11007007,Schülerladen Maulwurf e.V.,"Albrechtstraße 123, 12099 Berlin",12099,52.4606002,13.3855887,Tempelhof,Tempelhof-Schöneberg,Unknown,Unknown,openstreetmap,18/08/2025 11:28,18/08/2025 11:28
187,11007007,EKT - Marienfelde e.V.,Unknown,Unknown,52.4070145,13.3492203,Marienfelde,Tempelhof-Schöneberg,Unknown,Unknown,openstreetmap,18/08/2025 11:28,18/08/2025 11:28
188,11007007,Kita Märchenwald,"Burgemeisterstraße 30, 12103 Berlin",12103,52.4579685,13.374465,Tempelhof,Tempelhof-Schöneberg,Verein zur Errichtung und Betreibung von EKTs e.V.,Unknown,openstreetmap,18/08/2025 11:28,18/08/2025 11:28
189,11004004,EKT - Mappagei e.V.,"Dernburgstraße 57, 14057 Berlin",14057,52.5058571,13.283573,Charlottenburg,Charlottenburg-Wilmersdorf,Unknown,Unknown,openstreetmap,18/08/2025 11:28,18/08/2025 11:28
190,11001001,Kinderladen Maluch,"Stephanstraße 17, 10559 Berlin",10559,52.5343031,13.3497287,Moabit,Mitte,Verein zur Förderung und Integration polnischer Kinder in der Berliner Gesellschaft e.V.,Unknown,openstreetmap,18/08/2025 11:28,18/08/2025 11:28
191,11004004,Kindertagesstätte Maikäfer,"Fraunhoferstraße 26, 10587 Berlin",10587,52.5155757,13.3184127,Charlottenburg,Charlottenburg-Wilmersdorf,Kindertagesstätte Maikäfer e.V.,Unknown,openstreetmap,18/08/2025 11:28,18/08/2025 11:28
192,11008008,Mafalda e.V.,Unknown,Unknown,52.4749536,13.4259728,Neukölln,Neukölln,Unknown,Unknown,openstreetmap,18/08/2025 11:28,18/08/2025 11:28
193,11002002,EKT - Macht nix e.V.,Unknown,Unknown,52.4888476,13.3747626,Kreuzberg,Friedrichshain-Kreuzberg,Unknown,Unknown,openstreetmap,18/08/2025 11:28,18/08/2025 11:28
194,11001001,Kinderladen Perle,"Wilsnacker Straße 14, 10559 Berlin",10559,52.5277135,13.3516737,Moabit,Mitte,Kinderladen Perle e.V.,Unknown,openstreetmap,18/08/2025 11:28,18/08/2025 11:28
195,11007007,Kinderladen Pillepoppen,"Alt-Lichtenrade 100, 12309 Berlin",12309,52.3928109,13.4102691,Lichtenrade,Tempelhof-Schöneberg,Pillepoppen e.V.,Unknown,openstreetmap,18/08/2025 11:28,18/08/2025 11:28
196,11004004,EKT - Paretz e.V.,Unknown,Unknown,52.5030644,13.3040456,Charlottenburg,Charlottenburg-Wilmersdorf,Unknown,Unknown,openstreetmap,18/08/2025 11:28,18/08/2025 11:28
197,11004004,Paul und Klärchen,"Mainzer Straße 26a, 10715 Berlin",10715,52.4800565,13.3222391,Wilmersdorf,Charlottenburg-Wilmersdorf,Paul und Klärchen e.V.,Unknown,openstreetmap,18/08/2025 11:28,18/08/2025 11:28
198,11001001,Kinderladen Berliner Stadtmäuse,Unknown,Unknown,52.5511523,13.3400271,Wedding,Mitte,EKT Berliner Stadtmäuse e.V.,Unknown,openstreetmap,18/08/2025 11:28,18/08/2025 11:28
199,11001001,Kita Pädagogisches Zentrum Bissingzeile,"Bissingzeile 5, 10785 Berlin",10785,52.5042624,13.3682563,Tiergarten,Mitte,Kita Pädagogisches Zentrum Bissingzeile e.V.,Unknown,openstreetmap,18/08/2025 11:28,18/08/2025 11:28
200,11001001,"Kinderladen Panther, Tiger & Co.","Lübecker Straße 13, 10559 Berlin",10559,52.5285785,13.3455369,Moabit,Mitte,"EKT Panther, Tiger & Co. e.V.",Unknown,openstreetmap,18/08/2025 11:28,18/08/2025 11:28
201,11002002,Kinderladen „Die Optimisten“,"Grimmstraße 1A, 10967 Berlin",10967,52.4945776,13.4142671,Kreuzberg,Friedrichshain-Kreuzberg,EKT „Die Optimisten“ e. V.,Unknown,openstreetmap,18/08/2025 11:28,18/08/2025 11:28
202,11008008,EKT - Orgelpfeifen e.V.,Unknown,Unknown,52.4804885,13.4464583,Neukölln,Neukölln,Unknown,Unknown,openstreetmap,18/08/2025 11:28,18/08/2025 11:28
203,11003003,Obst und Gemüse,"Christburger Straße 41, 10405 Berlin",10405,52.5362904,13.4259284,Prenzlauer Berg,Pankow,EKT Obst und Gemüse e. V.,Unknown,openstreetmap,18/08/2025 11:28,18/08/2025 11:28
204,11007007,Kinderladen Onnimanni,"Kärntener Straße 11, 10827 Berlin",10827,52.4786997,13.3474589,Schöneberg,Tempelhof-Schöneberg,Eltern-Initiativ-Kindertagesstätte Onnimanni e.V.,Unknown,openstreetmap,18/08/2025 11:28,18/08/2025 11:28
205,11004004,Aventura Nikolsburg,"Nikolsburger Straße 6-7, 10717 Berlin",10717,52.492978,13.3280397,Wilmersdorf,Charlottenburg-Wilmersdorf,Unknown,Unknown,openstreetmap,18/08/2025 11:28,18/08/2025 11:28
206,11008008,EKT - Neuzeitlich-christliche Initiative e.V.,Unknown,Unknown,52.4787428,13.4228579,Neukölln,Neukölln,Unknown,Unknown,openstreetmap,18/08/2025 11:28,18/08/2025 11:28
207,11007007,Kinderladen Nusskasper,"Merseburger Straße 4, 10823 Berlin",10823,52.4877162,13.3527017,Schöneberg,Tempelhof-Schöneberg,Nusskasper e.V.,Unknown,openstreetmap,18/08/2025 11:28,18/08/2025 11:28
208,11007007,EKT Nina,Unknown,Unknown,52.4920921,13.3542154,Schöneberg,Tempelhof-Schöneberg,Unknown,Unknown,openstreetmap,18/08/2025 11:28,18/08/2025 11:28
209,11002002,Kinderladen Nasreddin,"Großbeerenstraße 94, 10963 Berlin",10963,52.5003041,13.3860819,Kreuzberg,Friedrichshain-Kreuzberg,Nasreddin e.V.,Unknown,openstreetmap,18/08/2025 11:28,18/08/2025 11:28
210,11002002,EKT Nervensägen,"Katzbachstraße 11, 10965 Berlin",10965,52.488934,13.3764346,Kreuzberg,Friedrichshain-Kreuzberg,EKT - Nervensägen e.V.,Unknown,openstreetmap,18/08/2025 11:28,18/08/2025 11:28
211,11002002,EKT Muskauer Straße 30,Unknown,Unknown,52.5032019,13.4259374,Kreuzberg,Friedrichshain-Kreuzberg,EKT Muskauer Straße 30 e.V.,Unknown,openstreetmap,18/08/2025 11:28,18/08/2025 11:28
212,11004004,Kinderladen Narrenfreiheit,Unknown,Unknown,52.489874,13.3261811,Wilmersdorf,Charlottenburg-Wilmersdorf,Kinderladen Narrenfreiheit e.V.,Unknown,openstreetmap,18/08/2025 11:28,18/08/2025 11:28
213,11004004,EKT - Roter Boller e.V.,"Rönnestraße 3, 14057 Berlin",14057,52.5042306,13.2981796,Charlottenburg,Charlottenburg-Wilmersdorf,Unknown,Unknown,openstreetmap,18/08/2025 11:28,18/08/2025 11:28
214,11006006,Kinderladen Rotkappe,"Horst-Kohl-Straße 12, 12157 Berlin",12157,52.4615377,13.3437482,Steglitz,Steglitz-Zehlendorf,EKT Rotkappe e.V.,Unknown,openstreetmap,18/08/2025 11:28,18/08/2025 11:28
215,11001001,Kinderladen Rosa Kirschkern,"Bochumer Straße 2, 10555 Berlin",10555,52.5246744,13.3376384,Moabit,Mitte,Kirschkern e.V.,Unknown,openstreetmap,18/08/2025 11:28,18/08/2025 11:28
216,11007007,Wolkenkinder,"Konradinstraße 15/17, 12105 Berlin",12105,52.4544559,13.3767537,Tempelhof,Tempelhof-Schöneberg,Unknown,Unknown,openstreetmap,18/08/2025 11:28,18/08/2025 11:28
217,11001001,Kinderladen Sagaland,"Quitzowstraße 125, 10559 Berlin",10559,52.5348268,13.3487059,Moabit,Mitte,EKT Sagaland e.V.,Unknown,openstreetmap,18/08/2025 11:28,18/08/2025 11:28
218,11002002,EKT – Schippe und Eimer e.V.,Unknown,Unknown,52.5004607,13.4336002,Kreuzberg,Friedrichshain-Kreuzberg,Unknown,Unknown,openstreetmap,18/08/2025 11:28,18/08/2025 11:28
219,11005005,EKT - Saatwinkler Küken e.V.,Unknown,Unknown,52.5479449,13.2627895,Siemensstadt,Spandau,Unknown,Unknown,openstreetmap,18/08/2025 11:28,18/08/2025 11:28
220,11012012,EKT - Saftladen e.V.,Unknown,Unknown,52.5711889,13.3758193,Reinickendorf,Reinickendorf,Unknown,Unknown,openstreetmap,18/08/2025 11:28,18/08/2025 11:28
221,11007007,Kinderladen Rübezahl,"Feurigstraße 53, 10827 Berlin",10827,52.4834682,13.3544751,Schöneberg,Tempelhof-Schöneberg,Elterninitiativkindertagesstätte Rübezahl e.V.,Unknown,openstreetmap,18/08/2025 11:28,18/08/2025 11:28
222,11012012,Kinderladen - Rummel-Bummel e.V.,Unknown,Unknown,52.5690797,13.3785028,Reinickendorf,Reinickendorf,Unknown,Unknown,openstreetmap,18/08/2025 11:28,18/08/2025 11:28
223,11002002,Kinderladen Rübezahl,"Falckensteinstraße 20, 10997 Berlin",10997,52.4971815,13.4407846,Kreuzberg,Friedrichshain-Kreuzberg,Rübezahl e.V.,Unknown,openstreetmap,18/08/2025 11:28,18/08/2025 11:28
224,11007007,Schmunzelmonster,"Friedrich-Wilhelm-Straße 87, 12099 Berlin",12099,52.4578285,13.3858837,Tempelhof,Tempelhof-Schöneberg,Unknown,Unknown,openstreetmap,18/08/2025 11:28,18/08/2025 11:28
225,11007007,Schülerladen Schmuddelkinder,Unknown,Unknown,52.48764,13.3613528,Schöneberg,Tempelhof-Schöneberg,Unknown,Unknown,openstreetmap,18/08/2025 11:28,18/08/2025 11:28
226,11012012,Kinderladen Schlumpfoase,"Lübarser Straße 13, 13435 Berlin",13435,52.6002708,13.3328659,Wittenau,Reinickendorf,Kinderladen Schlumpfoase e.V.,Unknown,openstreetmap,18/08/2025 11:28,18/08/2025 11:28
227,11004004,EKT - Schlange 99 e.V.,Unknown,Unknown,52.4773576,13.3084895,Wilmersdorf,Charlottenburg-Wilmersdorf,Unknown,Unknown,openstreetmap,18/08/2025 11:28,18/08/2025 11:28
228,11006006,EKT Schlachtensee,"Wasgenstraße 75, 14129 Berlin",14129,52.4288001,13.2160615,Schlachtensee,Steglitz-Zehlendorf,EKT Schlachtensee e.V.,Unknown,openstreetmap,18/08/2025 11:28,18/08/2025 11:28
229,11006006,Kita Holsteinische Straße,"Holsteinische Straße 30, 12161 Berlin",12161,52.466434,13.3345537,Friedenau,Steglitz-Zehlendorf,Nachbarschaftsheim Schöneberg e.V.,Unknown,openstreetmap,18/08/2025 11:28,18/08/2025 11:28
230,11007007,Kinderladen Mäusebande,"Sieglindestraße 4, 12159 Berlin",12159,52.4766114,13.3291425,Friedenau,Tempelhof-Schöneberg,EKT - Schöneberger Eltern-Initiativ-Kita e.V.,Unknown,openstreetmap,18/08/2025 11:28,18/08/2025 11:28
231,11002002,Kinderladen Schokokids,"Naunynstraße 72, 10997 Berlin",10997,52.5012573,13.4229041,Kreuzberg,Friedrichshain-Kreuzberg,Frauenzentrum Schokoladenfabrik e.V.,Unknown,openstreetmap,18/08/2025 11:28,18/08/2025 11:28
232,11002002,EKT - Pittiplatsch e.V.,Unknown,Unknown,52.4933135,13.4198187,Kreuzberg,Friedrichshain-Kreuzberg,Unknown,Unknown,openstreetmap,18/08/2025 11:28,18/08/2025 11:28
233,11002002,EKT Plutonia,Unknown,Unknown,52.4952945,13.4449023,Kreuzberg,Friedrichshain-Kreuzberg,EKT – Plutonia e.V.,Unknown,openstreetmap,18/08/2025 11:28,18/08/2025 11:28
234,11004004,Kinderladen Prinz-Güntzel,Unknown,Unknown,52.4904836,13.333279,Wilmersdorf,Charlottenburg-Wilmersdorf,EKT - Prinz Güntzel e.V.,Unknown,openstreetmap,18/08/2025 11:28,18/08/2025 11:28
235,11008008,Kinderladen Puzzle,"Niemetzstraße 11, 12055 Berlin",12055,52.4729071,13.4505217,Neukölln,Neukölln,Unknown,Unknown,openstreetmap,18/08/2025 11:28,18/08/2025 11:28
236,11001001,EKT - Pinocchio e.V.,Unknown,Unknown,52.5475549,13.3513751,Wedding,Mitte,Unknown,Unknown,openstreetmap,18/08/2025 11:28,18/08/2025 11:28
237,11001001,Kinderladen Pippi Langstrumpf,"Krausnickstraße 3A, 10115 Berlin",10115,52.5249606,13.3964096,Mitte,Mitte,Pippi Langstrumpf e.V.,Unknown,openstreetmap,18/08/2025 11:28,18/08/2025 11:28
238,11008008,Kita Pumuckel,"Warthestraße 56, 12051 Berlin",12051,52.4696362,13.4247795,Neukölln,Neukölln,Verein zur Errichtung und Betreibung von EKTs e.V.,Unknown,openstreetmap,18/08/2025 11:28,18/08/2025 11:28
239,11004004,Kinderladen Pünktchen,"Alt-Lietzow 7, 10587 Berlin",10587,52.5182902,13.3076454,Charlottenburg,Charlottenburg-Wilmersdorf,Elterninitiativ KiTa Pünktchen e.V.,Unknown,openstreetmap,18/08/2025 11:28,18/08/2025 11:28
240,11004004,EKT - Pünktchen und Anton e.V.,Unknown,Unknown,52.4870953,13.2983802,Schmargendorf,Charlottenburg-Wilmersdorf,Unknown,Unknown,openstreetmap,18/08/2025 11:28,18/08/2025 11:28
241,11002002,Räuberhöhle,"Planufer 92, 10967 Berlin",10967,52.4951598,13.4170741,Kreuzberg,Friedrichshain-Kreuzberg,EKT - Räuberhöhle e.V.,Unknown,openstreetmap,18/08/2025 11:28,18/08/2025 11:28
242,11006006,Kinderladen Pusteblume,"Sedanstraße 7, 12167 Berlin",12167,52.450114,13.3338764,Steglitz,Steglitz-Zehlendorf,Elterninitiativ-Kindertagesstätte Pusteblume e.V.,Unknown,openstreetmap,18/08/2025 11:28,18/08/2025 11:28
243,11004004,EKT - Randale e.V.,Unknown,Unknown,52.5087759,13.3163335,Charlottenburg,Charlottenburg-Wilmersdorf,Unknown,Unknown,openstreetmap,18/08/2025 11:28,18/08/2025 11:28
244,11003003,EKT - Quasselstrippe e.V.,"Oderberger Straße 50, 10435 Berlin",10435,52.5387193,13.408538,Prenzlauer Berg,Pankow,Unknown,Unknown,openstreetmap,18/08/2025 11:28,18/08/2025 11:28
245,11006006,Ringelbande e.V.,"Schmidt-Ott-Straße 4, 12165 Berlin",12165,52.4580628,13.3129269,Steglitz,Steglitz-Zehlendorf,Unknown,Unknown,openstreetmap,18/08/2025 11:28,18/08/2025 11:28
246,11004004,Kinderladen Rönne 18,"Rönnestraße 18, 14057 Berlin",14057,52.5032734,13.2935252,Charlottenburg,Charlottenburg-Wilmersdorf,Unknown,Unknown,openstreetmap,18/08/2025 11:28,18/08/2025 11:28
247,11008008,Kita Rixdorfer Rüpel,"Berthelsdorfer Straße 11, 12043 Berlin",12043,52.4784781,13.4404565,Neukölln,Neukölln,Orte für Kinder gGmbH,Unknown,openstreetmap,18/08/2025 11:28,18/08/2025 11:28
248,11001001,Kinderladen Regenbogen,"Calvinstraße 13, 10557 Berlin",10557,52.5216508,13.3511712,Moabit,Mitte,EKT Regenbogen e.V.,Unknown,openstreetmap,18/08/2025 11:28,18/08/2025 11:28
249,11006006,EKT - Steglitzer Eierpamper e.V.,Unknown,Unknown,52.4656969,13.3205045,Steglitz,Steglitz-Zehlendorf,Unknown,Unknown,openstreetmap,18/08/2025 11:28,18/08/2025 11:28
250,11005005,EKT - Sternenkinder e.V.,Unknown,Unknown,52.5251743,13.195696,Wilhelmstadt,Spandau,Unknown,Unknown,openstreetmap,18/08/2025 11:28,18/08/2025 11:28
251,11001001,Kinderladen Stoppelhopser,Unknown,Unknown,52.5351107,13.351584,Moabit,Mitte,Stoppelhopser e.V.,Unknown,openstreetmap,18/08/2025 11:28,18/08/2025 11:28
252,11002002,EKT - Tentakel e.V.,Unknown,Unknown,52.4945181,13.4295606,Kreuzberg,Friedrichshain-Kreuzberg,Unknown,Unknown,openstreetmap,18/08/2025 11:28,18/08/2025 11:28
253,11001001,Eikita Tausendfüßler,"Amsterdamer Straße 12, 13347 Berlin",13347,52.5513548,13.3573022,Wedding,Mitte,EIKITA Tausendfüssler e.V.,Unknown,openstreetmap,18/08/2025 11:28,18/08/2025 11:28
254,11007007,EKT - Tigerente/Förderkr.f.Musik-u.Bewegungserz.v.Kindern e.V.,Unknown,Unknown,52.4502938,13.3682165,Tempelhof,Tempelhof-Schöneberg,Unknown,Unknown,openstreetmap,18/08/2025 11:28,18/08/2025 11:28
255,11002002,Kinderladen Tigerente,"Bergmannstraße 12, 10961 Berlin",10961,52.4891644,13.3906351,Kreuzberg,Friedrichshain-Kreuzberg,Unknown,Unknown,openstreetmap,18/08/2025 11:28,18/08/2025 11:28
256,11003003,EKT - Theaterspiel-Kita Capriola e.V.,Unknown,Unknown,52.5310433,13.4343263,Prenzlauer Berg,Pankow,Unknown,Unknown,openstreetmap,18/08/2025 11:28,18/08/2025 11:28
257,11003003,EKT - Timpetu e.V.,"Treskowstraße 5, 13156 Berlin",13156,52.5816079,13.3979488,Niederschönhausen,Pankow,Unknown,Unknown,openstreetmap,18/08/2025 11:28,18/08/2025 11:28
258,11004004,Kinderladen Trolle,"Nikolsburger Straße 8, 10717 Berlin",10717,52.4940721,13.3281265,Wilmersdorf,Charlottenburg-Wilmersdorf,Kinderladen Trolle e.V.,Unknown,openstreetmap,18/08/2025 11:28,18/08/2025 11:28
259,11005005,EKT - Traumzauberbaum e.V.,Unknown,Unknown,52.5247296,13.1935637,Wilhelmstadt,Spandau,Unknown,Unknown,openstreetmap,18/08/2025 11:28,18/08/2025 11:28
260,11007007,Kinderladen Trotzköpfchen,"Hedwigstraße 12, 12159 Berlin",12159,52.4715548,13.338723,Schöneberg,Tempelhof-Schöneberg,Trotzköpfchen e.V.,Unknown,openstreetmap,18/08/2025 11:28,18/08/2025 11:28
261,11007007,EKT - Schülerladen Pimpanella e.V.,"Didostraße 1, 12109 Berlin",12109,52.4469164,13.3988428,Mariendorf,Tempelhof-Schöneberg,Unknown,Unknown,openstreetmap,18/08/2025 11:28,18/08/2025 11:28
262,11002002,Schülerladen Trau Dich,Eisenbahnstraße 13,Unknown,52.5029443,13.433427,Kreuzberg,Friedrichshain-Kreuzberg,Trau Dich e.V.,Unknown,openstreetmap,18/08/2025 11:28,18/08/2025 11:28
263,11007007,Kinderladen mima,"Sieglindestraße 8, 12159 Berlin",12159,52.4765521,13.3296215,Friedenau,Tempelhof-Schöneberg,Kita mima gGmbH,Unknown,openstreetmap,18/08/2025 11:28,18/08/2025 11:28
264,11001001,Kinderladen Sonnenblume,Fehmarner Straße 14,Unknown,52.5397916,13.3503882,Wedding,Mitte,Unknown,Unknown,openstreetmap,18/08/2025 11:28,18/08/2025 11:28
265,11007007,Sonnengarten,"Friedrich-Wilhelm-Straße 89, 12099 Berlin",12099,52.4577258,13.3864949,Tempelhof,Tempelhof-Schöneberg,Unknown,18,openstreetmap,18/08/2025 11:28,18/08/2025 11:28
266,11004004,EKT Sonnenkinder e.V.,"Gierkezeile 42, 10585 Berlin",10585,52.517864,13.3028494,Charlottenburg,Charlottenburg-Wilmersdorf,EKT Sonnenkinder e.V.,12,openstreetmap,18/08/2025 11:28,18/08/2025 11:28
267,11005005,EKT - Spandauer Schwalbennest e.V.,Unknown,Unknown,52.545118,13.1440526,Staaken,Spandau,Unknown,Unknown,openstreetmap,18/08/2025 11:28,18/08/2025 11:28
268,11007007,EKT - Spatzennest e.V.,Unknown,Unknown,52.4136709,13.3609857,Marienfelde,Tempelhof-Schöneberg,Unknown,Unknown,openstreetmap,18/08/2025 11:28,18/08/2025 11:28
269,11001001,EKT Sparrbande,"Sparrstraße 21, 13353 Berlin",13353,52.5421208,13.3595322,Wedding,Mitte,EKT Sparrbande e.V.,Unknown,openstreetmap,18/08/2025 11:28,18/08/2025 11:28
270,11004004,EKT - Spielschloß e.V.,Unknown,Unknown,52.5183067,13.2981724,Charlottenburg,Charlottenburg-Wilmersdorf,Unknown,Unknown,openstreetmap,18/08/2025 11:28,18/08/2025 11:28
271,11002002,EKT - Spreepiraten e.V.,Unknown,Unknown,52.4921833,13.4175738,Kreuzberg,Friedrichshain-Kreuzberg,Unknown,Unknown,openstreetmap,18/08/2025 11:28,18/08/2025 11:28
272,11005005,EKT - Spreebande e.V.,Unknown,Unknown,52.5453329,13.202496,Spandau,Spandau,Unknown,Unknown,openstreetmap,18/08/2025 11:28,18/08/2025 11:28
273,11002002,Springteufel Kinder- und Schülerladen,"Mittenwalder Straße 47, 10961 Berlin",10961,52.4923275,13.3971887,Kreuzberg,Friedrichshain-Kreuzberg,Springteufel e.V.,Unknown,openstreetmap,18/08/2025 11:28,18/08/2025 11:28
274,11001001,Stadtkinder,"Grüntaler Straße 8, 13357 Berlin",13357,52.5517268,13.386433,Gesundbrunnen,Mitte,Stadtkinder e.V.,Unknown,openstreetmap,18/08/2025 11:28,18/08/2025 11:28
275,11001001,EKT - Stadtkinder e.V.,Unknown,Unknown,52.5522378,13.3871336,Gesundbrunnen,Mitte,Unknown,Unknown,openstreetmap,18/08/2025 11:28,18/08/2025 11:28
276,11004004,Wilde Hilde,"Hildegardstraße 13, 10715 Berlin",10715,52.4819669,13.3241107,Wilmersdorf,Charlottenburg-Wilmersdorf,Wilde Hilde e.V.,Unknown,openstreetmap,18/08/2025 11:28,18/08/2025 11:28
277,11002002,Wild Poppies,"Fidicinstraße 23, 10965 Berlin",10965,52.4864882,13.393706,Kreuzberg,Friedrichshain-Kreuzberg,"Integrations-Kinderladen ""Wildblume"" e.V.",Unknown,openstreetmap,18/08/2025 11:28,18/08/2025 11:28
278,11002002,Wildblume I,"Heimstraße 16, 10965 Berlin",10965,52.4873181,13.3970648,Kreuzberg,Friedrichshain-Kreuzberg,Integrations-Kinderladen 'Wildblume' e.V,Unknown,openstreetmap,18/08/2025 11:28,18/08/2025 11:28
279,11004004,EKT - Wielandstraße 13 e.V.,"Wielandstraße , 10629 Berlin",10629,52.5038047,13.3152735,Charlottenburg,Charlottenburg-Wilmersdorf,Unknown,Unknown,openstreetmap,18/08/2025 11:28,18/08/2025 11:28
280,11002002,EKT Whistcastle of Eternia,Unknown,Unknown,52.4954374,13.4444225,Kreuzberg,Friedrichshain-Kreuzberg,EKT – Whistcastle of Eternia e.V.,Unknown,openstreetmap,18/08/2025 11:28,18/08/2025 11:28
281,11008008,Waldorfkindergarten Lindenbaum,Unknown,Unknown,52.4695262,13.4327669,Neukölln,Neukölln,Unknown,Unknown,openstreetmap,18/08/2025 11:28,18/08/2025 11:28
282,11007007,Kinderladen Zappzarapp,"Ebersstraße 12, 10827 Berlin",10827,52.4830846,13.3558198,Schöneberg,Tempelhof-Schöneberg,Eikita Zappzarapp e.V.,Unknown,openstreetmap,18/08/2025 11:28,18/08/2025 11:28
283,11008008,Kita Die Schlümpfe,"Nogatstraße 40, 12051 Berlin",12051,52.4695044,13.4343566,Neukölln,Neukölln,LebensWelt-Kindertagesstätten Yuvam,Unknown,openstreetmap,18/08/2025 11:28,18/08/2025 11:28
284,11007007,Kinderladen Wolkenhopper,"Schützenstraße 14, 12105 Berlin",12105,52.4472255,13.3744168,Mariendorf,Tempelhof-Schöneberg,Unknown,Unknown,openstreetmap,18/08/2025 11:28,18/08/2025 11:28
285,11002002,Kita Wohnhof,"Markgrafenstraße 8, 10969 Berlin",10969,52.5044627,13.3954053,Kreuzberg,Friedrichshain-Kreuzberg,Wohnhof e.V.,14,openstreetmap,18/08/2025 11:28,18/08/2025 11:28
286,11004004,Wir um vier,"Ringbahnstraße 13, 10711 Berlin",10711,52.4980486,13.2888939,Halensee,Charlottenburg-Wilmersdorf,Wir um vier e.V.,Unknown,openstreetmap,18/08/2025 11:28,18/08/2025 11:28
287,11004004,Wilde Hummeln,"Mehlitzstraße 8, 10715 Berlin",10715,52.4860252,13.3263414,Wilmersdorf,Charlottenburg-Wilmersdorf,"EKT ""Wilde Hummeln"" e.V.",Unknown,openstreetmap,18/08/2025 11:28,18/08/2025 11:28
288,11002002,Kinder einer Erde,"Lübbener Straße 26, 10997 Berlin",10997,52.4987298,13.4365057,Kreuzberg,Friedrichshain-Kreuzberg,Kinder einer Erde e.V.,Unknown,openstreetmap,18/08/2025 11:28,18/08/2025 11:28
289,11008008,Kita Arielle,"Emser Straße 20, 12051 Berlin",12051,52.4692555,13.4360542,Neukölln,Neukölln,Verein zur Förderung multikultureller Generationen e.V.,Unknown,openstreetmap,18/08/2025 11:28,18/08/2025 11:28
290,11001001,EKT Pustebär,"Sparrstraße 19, 13353 Berlin",13353,52.5424189,13.3592994,Wedding,Mitte,Verein zur Förderung integrativer Erziehung e.V.,Unknown,openstreetmap,18/08/2025 11:28,18/08/2025 11:28
291,11007007,Friedenauer Kinder,"Hertelstraße 1, 12161 Berlin",12161,52.468925,13.3235549,Friedenau,Tempelhof-Schöneberg,Friedenauer Kinder e.V.,Unknown,openstreetmap,18/08/2025 11:28,18/08/2025 11:28
292,11006006,Kita Bruja,"Dorotheenstraße 3, 14109 Berlin",14109,52.3979214,13.1456997,Wannsee,Steglitz-Zehlendorf,Eika Bruja e. V.,Unknown,openstreetmap,18/08/2025 11:28,18/08/2025 11:28
293,11004004,Kinderladen Maikäfer,"Brandenburgische Straße 75, 10713 Berlin",10713,52.4878332,13.3173146,Wilmersdorf,Charlottenburg-Wilmersdorf,Kinderladen Maikäfer e.V.,Unknown,openstreetmap,18/08/2025 11:28,18/08/2025 11:28
294,11001001,EKT Kinderladen Spatzenkinder,"Bastianstraße 18, 13357 Berlin",13357,52.5504466,13.3807666,Gesundbrunnen,Mitte,Unsere Zukunft e.V.,Unknown,openstreetmap,18/08/2025 11:28,18/08/2025 11:28
295,11002002,Veda Lila Kindergarten e.V.,"Arndtstraße 42, 10965 Berlin",10965,52.4880442,13.396037,Kreuzberg,Friedrichshain-Kreuzberg,Unknown,Unknown,openstreetmap,18/08/2025 11:28,18/08/2025 11:28
296,11001001,Kinderladen Tüte Mücken,"Togostraße 78, 13351 Berlin",13351,52.5492705,13.3471038,Wedding,Mitte,Tüte Mücken e.V.,Unknown,openstreetmap,18/08/2025 11:28,18/08/2025 11:28
297,11001001,Waldorfkindergarten Wedding,"Swinemünder Straße 65, 13355 Berlin",13355,52.5476735,13.3937293,Gesundbrunnen,Mitte,Waldorfkindergarten Wedding e.V.,Unknown,openstreetmap,18/08/2025 11:28,18/08/2025 11:28
298,11007007,Kita Gulliver,"Friedrich-Wilhelm-Straße 21, 12103 Berlin",12103,52.4585831,13.3819893,Tempelhof,Tempelhof-Schöneberg,Kita Gulliver e.V.,Unknown,openstreetmap,18/08/2025 11:28,18/08/2025 11:28
299,11007007,Kindergarten am Haselstrauch,Unknown,Unknown,52.4866374,13.3625416,Schöneberg,Tempelhof-Schöneberg,Verein zur Förderung vorschulischer Erziehung e.V.,Unknown,openstreetmap,18/08/2025 11:28,18/08/2025 11:28
300,11003003,Villa Kunterbunt,"Dunckerstraße 21, 10437 Berlin",10437,52.5439646,13.4223983,Prenzlauer Berg,Pankow,Unknown,Unknown,openstreetmap,18/08/2025 11:28,18/08/2025 11:28
301,11001001,Umka,"Leipziger Straße 47, 10117 Berlin",10117,52.5101285,13.3977595,Mitte,Mitte,MITRA bilinguale Kindergärten gGmbH,Unknown,openstreetmap,18/08/2025 11:28,18/08/2025 11:28
302,11003003,Pustekuchen,"Sonnenburger Straße 57, 10437 Berlin",10437,52.5466252,13.4070836,Prenzlauer Berg,Pankow,Integrationskita Pustekuchen e.V.,Unknown,openstreetmap,18/08/2025 11:28,18/08/2025 11:28
303,11004004,Kita Beerenkinder,"Johann-Georg-Straße 26, 10709 Berlin",10709,52.4957073,13.2988172,Halensee,Charlottenburg-Wilmersdorf,Unknown,Unknown,openstreetmap,18/08/2025 11:28,18/08/2025 11:28
304,11004004,Sport-Club Charlottenburg Hort Halemweg,"Halemweg 34, 13627 Berlin",13627,52.5393057,13.2872104,Charlottenburg-Nord,Charlottenburg-Wilmersdorf,Sport-Club Charlottenburg e.V.,Unknown,openstreetmap,18/08/2025 11:28,18/08/2025 11:28
305,11004004,Kinder- und Schülerladen Halensee e.V.,"Rönnestraße 5, 14057 Berlin",14057,52.504091,13.2975945,Charlottenburg,Charlottenburg-Wilmersdorf,Unknown,Unknown,openstreetmap,18/08/2025 11:28,18/08/2025 11:28
306,11002002,Kath.Kita bei St.Clemens/Kita d.Kath.Kirchengem.St.Bonifatius,Unknown,Unknown,52.5032456,13.3853385,Kreuzberg,Friedrichshain-Kreuzberg,Unknown,Unknown,openstreetmap,18/08/2025 11:28,18/08/2025 11:28
307,11002002,Hort der Freien Waldorfschule Kreuzberg e.V.,"Ritterstraße 78, 10969 Berlin",10969,52.5004345,13.4139054,Kreuzberg,Friedrichshain-Kreuzberg,Unknown,Unknown,openstreetmap,18/08/2025 11:28,18/08/2025 11:28
308,11001001,Hort der Evangelische Schule Berlin-Mitte,Unknown,Unknown,52.5228886,13.4062279,Mitte,Mitte,Unknown,Unknown,openstreetmap,18/08/2025 11:28,18/08/2025 11:28
309,11004004,Kita Rominter Allee,"Rominter Allee 2, 14052 Berlin",14052,52.5175883,13.2488688,Westend,Charlottenburg-Wilmersdorf,Unknown,Unknown,openstreetmap,18/08/2025 11:28,18/08/2025 11:28
310,11008008,Kinderladen Lach und Krach,Unknown,Unknown,52.4821774,13.4303005,Neukölln,Neukölln,Lach und Krach e.V.,Unknown,openstreetmap,18/08/2025 11:28,18/08/2025 11:28
311,11007007,Kinderladen Stadtmäuse,"Ebersstraße 18, 10827 Berlin",10827,52.4815643,13.3538066,Schöneberg,Tempelhof-Schöneberg,Integrationskinderladen Stadtmäuse e.V.,Unknown,openstreetmap,18/08/2025 11:28,18/08/2025 11:28
312,11003003,Tütata - Kinderladen Prenzlauer Berg e.V.,Unknown,Unknown,52.5403477,13.4062473,Prenzlauer Berg,Pankow,Unknown,Unknown,openstreetmap,18/08/2025 11:28,18/08/2025 11:28
313,11001001,Kinder- und Schülerladen Olle Burg,"Waldstraße 42, 10551 Berlin",10551,52.5305594,13.3310802,Moabit,Mitte,Olle Burg e.V.,Unknown,openstreetmap,18/08/2025 11:28,18/08/2025 11:28
314,11007007,Kita Volltreffer,"Fregestraße 13-14, 12159 Berlin",12159,52.4698408,13.3369397,Friedenau,Tempelhof-Schöneberg,Die Heilsarmee in Deutschland,Unknown,openstreetmap,18/08/2025 11:28,18/08/2025 11:28
315,11006006,EKT Zwölf Knirpse,"Lissabonallee 6, 14129 Berlin",14129,52.4282606,13.2240205,Nikolassee,Steglitz-Zehlendorf,Zwölf Knirpse e.V.,Unknown,openstreetmap,18/08/2025 11:28,18/08/2025 11:28
316,11006006,Kinderladen Zwergstatt,"Gritznerstraße 67, 12163 Berlin",12163,52.4610583,13.3138415,Steglitz,Steglitz-Zehlendorf,Zwergstatt e.V.,Unknown,openstreetmap,18/08/2025 11:28,18/08/2025 11:28
317,11011011,EKT - Die Kappe,"Müritzstraße 20, 10318 Berlin",10318,52.4829171,13.5149,Karlshorst,Lichtenberg,Unknown,Unknown,openstreetmap,18/08/2025 11:28,18/08/2025 11:28
318,11008008,Kleine Fische Kinderladen,"Schöneweider Straße 20, 12055 Berlin",12055,52.4719031,13.4441474,Neukölln,Neukölln,Kleinkindpädagogik e.V.,Unknown,openstreetmap,18/08/2025 11:28,18/08/2025 11:28
319,11002002,EKT - Zinnober e.V.,"Hagelberger Straße 52, 10965 Berlin",10965,52.4912569,13.3851365,Kreuzberg,Friedrichshain-Kreuzberg,Unknown,Unknown,openstreetmap,18/08/2025 11:28,18/08/2025 11:28
320,11002002,EKT - Zehnfach und Simpel e.V.,Unknown,Unknown,52.492355,13.4148301,Kreuzberg,Friedrichshain-Kreuzberg,Unknown,Unknown,openstreetmap,18/08/2025 11:28,18/08/2025 11:28
321,11008008,EKT - Zottelbär e.V.,Unknown,Unknown,52.4856392,13.4331938,Neukölln,Neukölln,Unknown,Unknown,openstreetmap,18/08/2025 11:28,18/08/2025 11:28
322,11002002,EKT - Zippel und Zappel e.V.,"Heimstraße 15, 10965 Berlin",10965,52.4871497,13.3969007,Kreuzberg,Friedrichshain-Kreuzberg,Unknown,Unknown,openstreetmap,18/08/2025 11:28,18/08/2025 11:28
323,11007007,Zwergenland e.V.,"Viktoriastraße 1, 12105 Berlin",12105,52.4547959,13.3835388,Tempelhof,Tempelhof-Schöneberg,Unknown,Unknown,openstreetmap,18/08/2025 11:28,18/08/2025 11:28
324,11007007,Zwergenland,"Werderstraße 17, 12105 Berlin",12105,52.4553307,13.3811134,Tempelhof,Tempelhof-Schöneberg,Zwergenland e.V.,Unknown,openstreetmap,18/08/2025 11:28,18/08/2025 11:28
325,11007007,Traumfänger,"Sponholzstraße 26, 12159 Berlin",12159,52.4704014,13.3400716,Schöneberg,Tempelhof-Schöneberg,Unknown,Unknown,openstreetmap,18/08/2025 11:28,18/08/2025 11:28
326,11002002,EKT -Yildiz Kirschkern e.V.,Unknown,Unknown,52.4891235,13.4093495,Kreuzberg,Friedrichshain-Kreuzberg,Unknown,Unknown,openstreetmap,18/08/2025 11:28,18/08/2025 11:28
327,11007007,Waldorfkindergarten Friedenau,"Sieglindestraße 1, 12159 Berlin",12159,52.4770016,13.3298436,Friedenau,Tempelhof-Schöneberg,Elterninitiative für Waldorfpädagogik in Schöneberg e.V.,Unknown,openstreetmap,18/08/2025 11:28,18/08/2025 11:28
328,11007007,Waldorfkindergarten Elfenreigen,"Lauterstraße 26, 12159 Berlin",12159,52.4737734,13.335543,Friedenau,Tempelhof-Schöneberg,Waldorfkindergarten Elfenreigen e.V.,Unknown,openstreetmap,18/08/2025 11:28,18/08/2025 11:28
329,11002002,Kita der Ev. Kirchengem. Bartholomäus,Unknown,Unknown,52.5276101,13.4249849,Friedrichshain,Friedrichshain-Kreuzberg,Unknown,Unknown,openstreetmap,18/08/2025 11:28,18/08/2025 11:28
330,11007007,Kita der Ev. Kirchengem. Berlin-Mariendorf,"Rathausstraße 28, 12105 Berlin",12105,52.4445766,13.3793872,Mariendorf,Tempelhof-Schöneberg,Unknown,Unknown,openstreetmap,18/08/2025 11:28,18/08/2025 11:28
331,11007007,Evangelische Kita Apostel-Paulus,"Klixstraße 2, 10823 Berlin",10823,52.4892431,13.3509335,Schöneberg,Tempelhof-Schöneberg,Unknown,Unknown,openstreetmap,18/08/2025 11:28,18/08/2025 11:28
332,11006006,Kita der Ev. Kirchengem. Dahlem,Unknown,Unknown,52.4579772,13.2863541,Dahlem,Steglitz-Zehlendorf,Unknown,Unknown,openstreetmap,18/08/2025 11:28,18/08/2025 11:28
333,11004004,Kita der Ev. Kirchengem. Charlottenburg-Nord,Unknown,Unknown,52.5396321,13.3000007,Charlottenburg-Nord,Charlottenburg-Wilmersdorf,Unknown,Unknown,openstreetmap,18/08/2025 11:28,18/08/2025 11:28
334,11003003,Kita der Ev. Kirchengem. Alt-Pankow,"Breite Straße 38, 13187 Berlin",13187,52.5702102,13.4087324,Pankow,Pankow,Unknown,Unknown,openstreetmap,18/08/2025 11:28,18/08/2025 11:28
335,11007007,Evangelische Kita Alt-Schöneberg,"Dominicusstraße 21a, 10823 Berlin",10823,52.4828001,13.3480297,Schöneberg,Tempelhof-Schöneberg,Evangelische Kirchengemeinde Alt-Schöneberg,Unknown,openstreetmap,18/08/2025 11:28,18/08/2025 11:28
336,11012012,Kita der Ev. Kirchengem. Alt-Wittenau,Unknown,Unknown,52.5802312,13.3360667,Wittenau,Reinickendorf,Unknown,Unknown,openstreetmap,18/08/2025 11:28,18/08/2025 11:28
337,11012012,Kita der Ev. Kirchengem. Alt-Wittenau,Unknown,Unknown,52.59146,13.325795,Wittenau,Reinickendorf,Unknown,Unknown,openstreetmap,18/08/2025 11:28,18/08/2025 11:28
338,11011011,Evangelische Kita Wartenberg,Unknown,Unknown,52.5827273,13.5288082,Wartenberg,Lichtenberg,Unknown,Unknown,openstreetmap,18/08/2025 11:28,18/08/2025 11:28
339,11001001,Evangelische Otto-Kita,"Ottostraße 16, 10555 Berlin",10555,52.5259841,13.3359898,Moabit,Mitte,Evangelischer Kirchenkreisverband für Kindertageseinrichtungen Berlin Mitte-Nord,Unknown,openstreetmap,18/08/2025 11:28,18/08/2025 11:28
340,11012012,Kita der Ev. Felsen-Kirchengem.,"Titiseestraße 7, 13469 Berlin",13469,52.6086653,13.3358531,Waidmannslust,Reinickendorf,Unknown,Unknown,openstreetmap,18/08/2025 11:28,18/08/2025 11:28
341,11012012,Dorfkindergarten,"Alt-Heiligensee 47, 13503 Berlin",13503,52.607725,13.2139684,Heiligensee,Reinickendorf,Evangelische Kirchengemeinde Berlin-Heiligensee,Unknown,openstreetmap,18/08/2025 11:28,18/08/2025 11:28
342,11009009,Kita / St. Josefsstift,Unknown,Unknown,52.4541866,13.5723295,Köpenick,Treptow-Köpenick,Unknown,Unknown,openstreetmap,18/08/2025 11:28,18/08/2025 11:28
343,11001001,Kita Birkelinchen,"Birkenstraße 60, 10559 Berlin",10559,52.5308661,13.3460918,Moabit,Mitte,Evangelische Kirchengemeinde Heilige-Geist,Unknown,openstreetmap,18/08/2025 11:28,18/08/2025 11:28
344,11003003,Evang. Kindertagesstätte Arche,"Schönhauser Allee 104, 10439 Berlin",10439,52.5527462,13.4138512,Prenzlauer Berg,Pankow,Unknown,Unknown,openstreetmap,18/08/2025 11:28,18/08/2025 11:28
345,11008008,Kita Berliner Spatzen,Unknown,Unknown,52.47,13.428608,Neukölln,Neukölln,Berliner Spatzen gGmbH,Unknown,openstreetmap,18/08/2025 11:28,18/08/2025 11:28
346,11004004,Asilo Italiano,"Badensche Straße 29, 10715 Berlin",10715,52.4861326,13.3276676,Wilmersdorf,Charlottenburg-Wilmersdorf,Arbeitskr. Prakt. Pädagogik e.V.,Unknown,openstreetmap,18/08/2025 11:28,18/08/2025 11:28
347,11006006,Kita der Paulus-Gemeinde,"Hindenburgdamm 101, 12203 Berlin",12203,52.4389195,13.3155344,Lichterfelde,Steglitz-Zehlendorf,Ev. Paulus-Kirchengemeinde Lichterfelde,Unknown,openstreetmap,18/08/2025 11:28,18/08/2025 11:28
348,11007007,Kita Philippus,"Stierstraße 18, 12159 Berlin",12159,52.474448,13.3366551,Friedenau,Tempelhof-Schöneberg,Evangelische Philippus-Nathanael-Kirchengemeinde,Unknown,openstreetmap,18/08/2025 11:28,18/08/2025 11:28
349,11001001,Reformations-Kita,"Wiclefstraße 31, 10551 Berlin",10551,52.5312608,13.3300667,Moabit,Mitte,Reformations-Campus e.V.,Unknown,openstreetmap,18/08/2025 11:28,18/08/2025 11:28
350,11012012,Kita der Ev. Kirchengem. Lübars,Unknown,Unknown,52.6156746,13.3426839,Lübars,Reinickendorf,Unknown,Unknown,openstreetmap,18/08/2025 11:28,18/08/2025 11:28
351,11004004,Luisenkindergarten,"Gierkeplatz 2, 10585 Berlin",10585,52.5167157,13.3030578,Charlottenburg,Charlottenburg-Wilmersdorf,Kitaverband Mitte-West,60,openstreetmap,18/08/2025 11:28,18/08/2025 11:28
352,11006006,Kita der Ev. Kirchengem. Markus,Unknown,Unknown,52.449074,13.3411421,Steglitz,Steglitz-Zehlendorf,Unknown,Unknown,openstreetmap,18/08/2025 11:28,18/08/2025 11:28
353,11002002,Evangelische Kita Melanchthon,"Planufer 84, 10967 Berlin",10967,52.4947663,13.413643,Kreuzberg,Friedrichshain-Kreuzberg,Evangelischer Kirchenkreisverband für Kindertageseinrichtungen Berlin Mitte-Nord,Unknown,openstreetmap,18/08/2025 11:28,18/08/2025 11:28
354,11007007,Evangelische Kindertagesstätte Nathanael,"Grazer Platz 4, 12157 Berlin",12157,52.4666472,13.3450557,Schöneberg,Tempelhof-Schöneberg,Unknown,Unknown,openstreetmap,18/08/2025 11:28,18/08/2025 11:28
355,11008008,Evangelische Halbtagskita Neu-Buckow,"Marienfelder Chaussee 66-72, 12349 Berlin",12349,52.4182628,13.4158833,Buckow,Neukölln,Unknown,Unknown,openstreetmap,18/08/2025 11:28,18/08/2025 11:28
356,11004004,Hochmeister-Kindertagesstätte,"Paulsborner Straße 86, 10709 Berlin",10709,52.496128,13.3038344,Wilmersdorf,Charlottenburg-Wilmersdorf,Förderverein für die Kita der Hochmeister-Kirchengemeinde in Berlin-Wilmersdorf e.V.,Unknown,openstreetmap,18/08/2025 11:28,18/08/2025 11:28
357,11003003,Kita Immanuel,"Immanuelkirchstraße 1a, 10405 Berlin",10405,52.5327456,13.4218885,Prenzlauer Berg,Pankow,Kirchengemeinde Immanuel,Unknown,openstreetmap,18/08/2025 11:28,18/08/2025 11:28
358,11005005,Kita der Ev. Kirchengem. Klosterfelde,"Seegefelder Straße 116, 13583 Berlin",13583,52.5392285,13.1820843,Falkenhagener Feld,Spandau,Unknown,Unknown,openstreetmap,18/08/2025 11:28,18/08/2025 11:28
359,11001001,Kinderhaus Kapernaum,"Seestraße 35, 13353 Berlin",13353,52.5487528,13.3496377,Wedding,Mitte,Evangelischer Kirchenkreisverband für Kindertageseinrichtungen Berlin Mitte-Nord,Unknown,openstreetmap,18/08/2025 11:28,18/08/2025 11:28
360,11004004,Kita der Ev. Kirchengem. Kaiser-Wilhelm-Gedächtnis,Unknown,Unknown,52.4995774,13.3337526,Wilmersdorf,Charlottenburg-Wilmersdorf,Unknown,Unknown,openstreetmap,18/08/2025 11:28,18/08/2025 11:28
361,11001001,Evangelische Kita Kornelius,"Dubliner Straße 29, 13349 Berlin",13349,52.5592909,13.3437803,Wedding,Mitte,Evangelischer Kirchenkreisverband für Kindertageseinrichtungen Berlin Mitte-Nord,Unknown,openstreetmap,18/08/2025 11:28,18/08/2025 11:28
362,11012012,Kita der Ev. Kirchengem. Konradshöhe-Tegelort,Unknown,Unknown,52.5709893,13.2315355,Konradshöhe,Reinickendorf,Unknown,Unknown,openstreetmap,18/08/2025 11:28,18/08/2025 11:28
363,11003003,Evangelische Kita Elias,"Göhrener Straße 11, 10437 Berlin",10437,52.5407066,13.4205564,Prenzlauer Berg,Pankow,Evangelischer Kirchenkreisverband für Kindertageseinrichtungen Berlin Mitte-Nord,Unknown,openstreetmap,18/08/2025 11:28,18/08/2025 11:28
364,11002002,Evangelische Kita Emmaus-Ölberg,"Lausitzer Straße 29-30, 10999 Berlin",10999,52.4949312,13.426954,Kreuzberg,Friedrichshain-Kreuzberg,Evangelischer Kirchenkreisverband für Kindertageseinrichtungen Berlin Mitte-Nord,Unknown,openstreetmap,18/08/2025 11:28,18/08/2025 11:28
365,11006006,Kita der Ev. Kirchengem. Dreifaltigkeit,Unknown,Unknown,52.4354558,13.3455205,Lankwitz,Steglitz-Zehlendorf,Unknown,Unknown,openstreetmap,18/08/2025 11:28,18/08/2025 11:28
366,11012012,Evangeliums-Kita,"Hausotterplatz 3, 13409 Berlin",13409,52.5698344,13.3759001,Reinickendorf,Reinickendorf,Evangelische Evangeliums-Kirchengemeinde zu Reinickendorf,Unknown,openstreetmap,18/08/2025 11:28,18/08/2025 11:28
367,11004004,Kita der Evangelischen Kirchengemeinde Epiphanien,"Knobelsdorffstraße 74, 14059 Berlin",14059,52.5132519,13.2841015,Westend,Charlottenburg-Wilmersdorf,Unknown,Unknown,openstreetmap,18/08/2025 11:28,18/08/2025 11:28
368,11001001,Evangelische Kita Erlöser,"Wikingerufer 9, 10555 Berlin",10555,52.52208,13.3303639,Moabit,Mitte,Evangelischer Kirchenkreisverband für Kindertageseinrichtungen Berlin Mitte-Nord,Unknown,openstreetmap,18/08/2025 11:28,18/08/2025 11:28
369,11002002,Evangelische Kita Galiläa,"Rigaer Straße 9, 10247 Berlin",10247,52.5178252,13.4561539,Friedrichshain,Friedrichshain-Kreuzberg,Evangelischer Kirchenkreisverband für Kindertageseinrichtungen Berlin Mitte-Nord,Unknown,openstreetmap,18/08/2025 11:28,18/08/2025 11:28
370,11004004,Kita der Kath. Kirchengem. St. Albertus-Magnus,"Johann-Georg-Straße 8, 10709 Berlin",10709,52.4968433,13.2979963,Halensee,Charlottenburg-Wilmersdorf,Unknown,Unknown,openstreetmap,18/08/2025 11:28,18/08/2025 11:28
371,11003003,Kita Herz Jesu,"Schönhauser Allee 182, 10119 Berlin",10119,52.5304628,13.4100667,Prenzlauer Berg,Pankow,Kirchengemeinde Herz Jesu,40,openstreetmap,18/08/2025 11:28,18/08/2025 11:28
372,11007007,Kita der Kath. Kirchengem. Maria Frieden,"Kaiserstraße 29, 12105 Berlin",12105,52.4449611,13.384456,Mariendorf,Tempelhof-Schöneberg,Unknown,Unknown,openstreetmap,18/08/2025 11:28,18/08/2025 11:28
373,11003003,Kita der Kath. Kirchengem. Corpus Christi,Unknown,Unknown,52.5279034,13.4487198,Prenzlauer Berg,Pankow,Unknown,Unknown,openstreetmap,18/08/2025 11:28,18/08/2025 11:28
374,11006006,Rosenkranz-Kita,"Kieler Straße 10, 12163 Berlin",12163,52.4586989,13.3244139,Steglitz,Steglitz-Zehlendorf,Kindertagesstätte Rosenkranz-Basilika in Berlin-Steglitz e.V.,Unknown,openstreetmap,18/08/2025 11:28,18/08/2025 11:28
375,11012012,Schatzinsel,"Gorkistraße 127, 13509 Berlin",13509,52.5919246,13.3019057,Tegel,Reinickendorf,Unknown,Unknown,openstreetmap,18/08/2025 11:28,18/08/2025 11:28
376,11001001,Evangelische Kita Zion,"Griebenowstraße 16, 10435 Berlin",10435,52.5354367,13.4050757,Mitte,Mitte,Evangelischer Kirchenkreisverband für Kindertageseinrichtungen Berlin Mitte-Nord,Unknown,openstreetmap,18/08/2025 11:28,18/08/2025 11:28
377,11011011,Evangelische Kindertagesstätte,Unknown,Unknown,52.5151576,13.4915948,Lichtenberg,Lichtenberg,Evangelische Kirchengemeinde Alt-Lichtenberg,Unknown,openstreetmap,18/08/2025 11:28,18/08/2025 11:28
378,11003003,Evangelische Kita Martin Luther,"Pradelstraße 11, 13187 Berlin",13187,52.5646604,13.3961992,Pankow,Pankow,Evangelischer Kirchenkreisverband für Kindertageseinrichtungen Berlin Mitte-Nord,Unknown,openstreetmap,18/08/2025 11:28,18/08/2025 11:28
379,11003003,Evangelische Kita Wilhelmsruh,"Goethestraße 1, 13158 Berlin",13158,52.5878139,13.3677113,Wilhelmsruh,Pankow,Evangelischer Kirchenkreisverband für Kindertageseinrichtungen Berlin Mitte-Nord,Unknown,openstreetmap,18/08/2025 11:28,18/08/2025 11:28
380,11003003,Kita der Evangelischen Kirchengemeinde Weißensee,Unknown,Unknown,52.5524356,13.4496617,Weißensee,Pankow,Unknown,Unknown,openstreetmap,18/08/2025 11:28,18/08/2025 11:28
381,11005005,Kita der Ev. Kirchengem. Weihnacht-Haselhorst,"Haselhorster Damm 58, 13599 Berlin",13599,52.5473577,13.2369402,Haselhorst,Spandau,Unknown,Unknown,openstreetmap,18/08/2025 11:28,18/08/2025 11:28
382,11011011,Evangelische Kita Arche Noah,"Malchower Weg 44, 13053 Berlin",13053,52.5537165,13.5035781,Alt-Hohenschönhausen,Lichtenberg,Evangelischer Kirchenkreisverband für Kindertageseinrichtungen Berlin Mitte-Nord,Unknown,openstreetmap,18/08/2025 11:28,18/08/2025 11:28
383,11006006,Stephanus-Kita,"Mühlenstraße 47, 14167 Berlin",14167,52.4310655,13.2753279,Zehlendorf,Steglitz-Zehlendorf,Evangelische Stephanus-Kirchengemeinde Berlin-Zehlendorf,Unknown,openstreetmap,18/08/2025 11:28,18/08/2025 11:28
384,11002002,Kita der Ev. Kirchengem. St. Simeon,Unknown,Unknown,52.5003229,13.4071278,Kreuzberg,Friedrichshain-Kreuzberg,Unknown,Unknown,openstreetmap,18/08/2025 11:28,18/08/2025 11:28
385,11005005,Kita und Hort Petrus,"Grunewaldstraße 7, 13597 Berlin",13597,52.5308962,13.2050903,Spandau,Spandau,Evangelische Kirchengemeinde der St. Nikolai Gemeinde Spandau,75,openstreetmap,18/08/2025 11:28,18/08/2025 11:28
386,11001001,Kita der Ev. Kirchengem. St. Johannis,Unknown,Unknown,52.5252764,13.3492859,Moabit,Mitte,Unknown,Unknown,openstreetmap,18/08/2025 11:28,18/08/2025 11:28
387,11006006,Kita der Ev. Kirchengem. Schönow-Buschgraben,Unknown,Unknown,52.4132052,13.2599522,Zehlendorf,Steglitz-Zehlendorf,Unknown,Unknown,openstreetmap,18/08/2025 11:28,18/08/2025 11:28
388,11009009,Kita der Ev. Kirchengem. Schmöckwitz,"Alt-Schmöckwitz 1, 12527 Berlin",12527,52.3752343,13.6490326,Schmöckwitz,Treptow-Köpenick,Unknown,Unknown,openstreetmap,18/08/2025 11:28,18/08/2025 11:28
389,11002002,Evangelische Kita Samariter,"Samariterstraße 27, 10247 Berlin",10247,52.5186128,13.4659715,Friedrichshain,Friedrichshain-Kreuzberg,Evangelischer Kirchenkreisverband für Kindertageseinrichtungen Berlin Mitte-Nord,Unknown,openstreetmap,18/08/2025 11:28,18/08/2025 11:28
390,11008008,Kita des Ev. Kirchenkreises Neukölln,Unknown,Unknown,52.4744247,13.4194953,Neukölln,Neukölln,Unknown,Unknown,openstreetmap,18/08/2025 11:28,18/08/2025 11:28
391,11008008,Kita des Ev. Kirchenkreises Neukölln,Unknown,Unknown,52.42269,13.45053,Buckow,Neukölln,Unknown,Unknown,openstreetmap,18/08/2025 11:28,18/08/2025 11:28
392,11001001,Kita des Auswärtigen Amtes,Unknown,Unknown,52.5138796,13.3951899,Mitte,Mitte,Unknown,Unknown,openstreetmap,18/08/2025 11:28,18/08/2025 11:28
393,11001001,Kita der Lukas-Gemeinde e.V.,"Kurfürstenstraße 133, 10785 Berlin",10785,52.5016062,13.3548795,Schöneberg,Mitte,Unknown,Unknown,openstreetmap,18/08/2025 11:28,18/08/2025 11:28
394,11004004,Svenska Victoriaförsamlingens förskola,Unknown,Unknown,52.4876371,13.3292399,Wilmersdorf,Charlottenburg-Wilmersdorf,Schwedische Victoriagemeinde e.V.,Unknown,openstreetmap,18/08/2025 11:28,18/08/2025 11:28
395,11005005,Kita Vogelnest,"Galenstraße 27, 13597 Berlin",13597,52.5383463,13.1958678,Spandau,Spandau,Unknown,Unknown,openstreetmap,18/08/2025 11:28,18/08/2025 11:28
396,11012012,Katholische Kindertagesstätte St. Rita,"General-Woyna-Straße 54, 13403 Berlin",13403,52.5700096,13.3148693,Reinickendorf,Reinickendorf,Caritasverband,Unknown,openstreetmap,18/08/2025 11:28,18/08/2025 11:28
397,11006006,Kita der Kath. Kirchengem.V.d. Auferstehung Christi,Unknown,Unknown,52.4342476,13.3626812,Lankwitz,Steglitz-Zehlendorf,Unknown,Unknown,openstreetmap,18/08/2025 11:28,18/08/2025 11:28
398,11004004,Kita der Landesbank Berlin,Unknown,Unknown,52.4928293,13.3333228,Wilmersdorf,Charlottenburg-Wilmersdorf,Unknown,Unknown,openstreetmap,18/08/2025 11:28,18/08/2025 11:28
399,11007007,Kita der Kath. Kirchengem. St. Matthias,"Goltzstraße 29, 10781 Berlin",10781,52.495705,13.3538116,Schöneberg,Tempelhof-Schöneberg,Unknown,Unknown,openstreetmap,18/08/2025 11:28,18/08/2025 11:28
400,11008008,Kita der Kath. Kirchengem. St. Richard,"Schudomastraße 15, 12055 Berlin",12055,52.4733294,13.4513272,Neukölln,Neukölln,Katholische Kirchengemeinde St. Richard,Unknown,openstreetmap,18/08/2025 11:28,18/08/2025 11:28
401,11012012,Kita der Kath. Kirchengem. St. Nikolaus,Unknown,Unknown,52.5910948,13.3302082,Wittenau,Reinickendorf,Unknown,Unknown,openstreetmap,18/08/2025 11:28,18/08/2025 11:28
402,11007007,Kita St. Norbert,"Dominicusstraße 19 a, 10823 Berlin",10823,52.4826405,13.3472233,Schöneberg,Tempelhof-Schöneberg,Katholische Kirchengemeinde St. Norbert,Unknown,openstreetmap,18/08/2025 11:28,18/08/2025 11:28
403,11001001,Kita St. Laurentius,"Bandelstraße 41, 10559 Berlin",10559,52.5271357,13.3497034,Moabit,Mitte,Katholische Pfarrgemeinde St.Laurentius Berlin-Mitte,Unknown,openstreetmap,18/08/2025 11:28,18/08/2025 11:28
404,11004004,Kindertagesstätte Sankt Kamillus,"Klausenerplatz 13, 14059 Berlin",14059,52.5176755,13.2911362,Charlottenburg,Charlottenburg-Wilmersdorf,Katholische Kirchengemeinde Sankt Kamillus,Unknown,openstreetmap,18/08/2025 11:28,18/08/2025 11:28
405,11005005,Kindertagesstätte St. Markus,Unknown,Unknown,52.5492675,13.164417,Falkenhagener Feld,Spandau,Kindertagesstätte St. Markus e.V.,Unknown,openstreetmap,18/08/2025 11:28,18/08/2025 11:28
406,11004004,Kita St. Ludwig,"Ludwigkirchplatz 10, 10719 Berlin",10719,52.4969908,13.3215536,Wilmersdorf,Charlottenburg-Wilmersdorf,Kirchengemeinde St. Ludwig,Unknown,openstreetmap,18/08/2025 11:28,18/08/2025 11:28
407,11012012,Kita St. Marien,"Klemkestraße 5, 13409 Berlin",13409,52.5744341,13.3603713,Reinickendorf,Reinickendorf,Unknown,Unknown,openstreetmap,18/08/2025 11:28,18/08/2025 11:28
408,11007007,Katholische Kindertagesstätte St. Elisabeth,"Kolonnenstraße 40, 10829 Berlin",10829,52.4853255,13.3655809,Schöneberg,Tempelhof-Schöneberg,Katholische Kirchengemeinde St. Matthias,Unknown,openstreetmap,18/08/2025 11:28,18/08/2025 11:28
409,11003003,Kita der Kath. Kirchengem. St. Josef,Unknown,Unknown,52.5509194,13.4469553,Weißensee,Pankow,Unknown,Unknown,openstreetmap,18/08/2025 11:28,18/08/2025 11:28
410,11012012,Kita der Kath. Kirchengem. St. Josef,Unknown,Unknown,52.599454,13.295068,Tegel,Reinickendorf,Unknown,Unknown,openstreetmap,18/08/2025 11:28,18/08/2025 11:28
411,11012012,Kita der Katholischen Kirchengemeinde Sankt Bernhard,Unknown,Unknown,52.5758692,13.2842073,Tegel,Reinickendorf,Unknown,Unknown,openstreetmap,18/08/2025 11:28,18/08/2025 11:28
412,11006006,Kita der Kath. Kirchengem. St. Benedikt,Unknown,Unknown,52.4402934,13.3412804,Lankwitz,Steglitz-Zehlendorf,Unknown,Unknown,openstreetmap,18/08/2025 11:28,18/08/2025 11:28
413,11003003,Kita Sankt Augustinus,"Dänenstraße 17/18, 10439 Berlin",10439,52.5507495,13.4066885,Prenzlauer Berg,Pankow,Verein der Freunde der katholischen Kindertagesstätte St. Augustinus in Berlin-Prenzlauer Berg (Pankow) e.V.,Unknown,openstreetmap,18/08/2025 11:28,18/08/2025 11:28
414,11008008,Kita St. Dominicus,"Lipschitzallee 74, 12353 Berlin",12353,52.4243875,13.4613151,Gropiusstadt,Neukölln,Katholische Kirchengemeinde St. Dominicus,Unknown,openstreetmap,18/08/2025 11:28,18/08/2025 11:28
415,11008008,Kita der Kath. Kirchengem. St. Clara,"Kienitzer Straße 18, 12053 Berlin",12053,52.4774043,13.4359698,Neukölln,Neukölln,Unknown,Unknown,openstreetmap,18/08/2025 11:28,18/08/2025 11:28
416,11001001,Hort Arche Noah,"Waldenserstraße 27, 10551 Berlin",10551,52.528367,13.3348938,Moabit,Mitte,Interkultureller Schülerhort SoLe e.V.,Unknown,openstreetmap,18/08/2025 11:28,18/08/2025 11:28
417,11001001,Kita Schmetterling,"Turmstraße 71, 10551 Berlin",10551,52.5268144,13.3322242,Moabit,Mitte,AWO Berlin-Mitte e.V.,50,openstreetmap,18/08/2025 11:28,18/08/2025 11:28
418,11003003,Kita Regenbogenhaus,Unknown,Unknown,52.5801306,13.4271914,Pankow,Pankow,Unknown,Unknown,openstreetmap,18/08/2025 11:28,18/08/2025 11:28
419,11012012,Kita Waldmäuse e.V.. Waldabschnitt Konradshöhe/Reiherberg,"Rabenstraße 41, 13505 Berlin",13505,52.5831037,13.2363109,Konradshöhe,Reinickendorf,Unknown,Unknown,openstreetmap,18/08/2025 11:28,18/08/2025 11:28
420,11001001,Casa Fantasia,Unknown,Unknown,52.5358794,13.3990849,Mitte,Mitte,Unknown,Unknown,openstreetmap,18/08/2025 11:28,18/08/2025 11:28
421,11002002,Kita Wassertropfen,"Oranienstraße 192, 10999 Berlin",10999,52.50011,13.4222214,Kreuzberg,Friedrichshain-Kreuzberg,AWO Kreisverband Berlin-Mitte e.V.,Unknown,openstreetmap,18/08/2025 11:28,18/08/2025 11:28
422,11009009,Kita Traumhaus,"Regattastraße 130, 12527 Berlin",12527,52.4172204,13.5803479,Grünau,Treptow-Köpenick,Berliner Spatzen gGmbH,Unknown,openstreetmap,18/08/2025 11:28,18/08/2025 11:28
423,11006006,Kita Kobolde,"Beethovenstraße 34, 12247 Berlin",12247,52.4382483,13.3308424,Lankwitz,Steglitz-Zehlendorf,Mittelhof e.V.,Unknown,openstreetmap,18/08/2025 11:28,18/08/2025 11:28
424,11006006,Kindergarten der Baptistengemeinde Steglitz,"Rothenburgstraße 13, 12165 Berlin",12165,52.4561832,13.3147551,Steglitz,Steglitz-Zehlendorf,Unknown,Unknown,openstreetmap,18/08/2025 11:28,18/08/2025 11:28
425,11011011,Kita/BIK e.V.,Unknown,Unknown,52.5659011,13.5194538,Neu-Hohenschönhausen,Lichtenberg,Unknown,Unknown,openstreetmap,18/08/2025 11:28,18/08/2025 11:28
426,11001001,Kita/Akila e.V.,Unknown,Unknown,52.5478302,13.3650666,Wedding,Mitte,Unknown,Unknown,openstreetmap,18/08/2025 11:28,18/08/2025 11:28
427,11003003,Kita Bunte Burg,"Christburger Straße 13, 10405 Berlin",10405,52.5350591,13.4277548,Prenzlauer Berg,Pankow,Christburg Campus gGmbH,Unknown,openstreetmap,18/08/2025 11:28,18/08/2025 11:28
428,11008008,Kita Pannierstraße,"Pannierstraße 6, 12047 Berlin",12047,52.4866199,13.4310092,Neukölln,Neukölln,Forum Soziale Dienste Kita I GmbH,45,openstreetmap,18/08/2025 11:28,18/08/2025 11:28
429,11001001,Kita Moa,Unknown,Unknown,52.5322969,13.3347441,Moabit,Mitte,Forum Soziale Dienste Kita1 GmbH,Unknown,openstreetmap,18/08/2025 11:28,18/08/2025 11:28
430,11008008,Kita Forum Soziale Dienste e.V.,"Weserstraße 26/27, 12045 Berlin",12045,52.4864544,13.4339539,Neukölln,Neukölln,Forum Soziale Dienste Kita I GmbH,Unknown,openstreetmap,18/08/2025 11:28,18/08/2025 11:28
431,11012012,Kita Mäusekiste,Unknown,Unknown,52.595595,13.3415557,Märkisches Viertel,Reinickendorf,Forum Soziale Dienste,Unknown,openstreetmap,18/08/2025 11:28,18/08/2025 11:28
432,11003003,Kita/Ev. Kirchenkreis Pankow,Unknown,Unknown,52.6083527,13.4340028,Französisch Buchholz,Pankow,Unknown,Unknown,openstreetmap,18/08/2025 11:28,18/08/2025 11:28
433,11002002,Evangelische Kita Arche,"Zossener Straße 22a, 10961 Berlin",10961,52.4899962,13.3937449,Kreuzberg,Friedrichshain-Kreuzberg,Evangelischer Kirchenkreisverband für Kindertageseinrichtungen Berlin Mitte-Nord,Unknown,openstreetmap,18/08/2025 11:28,18/08/2025 11:28
434,11004004,Kita des Pestalozzi-Fröbel-Hauses,Unknown,Unknown,52.5179968,13.2981777,Charlottenburg,Charlottenburg-Wilmersdorf,Unknown,Unknown,openstreetmap,18/08/2025 11:28,18/08/2025 11:28
435,11003003,Freche Früchtchen,"Paul-Robeson-Straße 12, 10439 Berlin",10439,52.552623,13.4094616,Prenzlauer Berg,Pankow,KUBIBE.Berlin gGmbH,Unknown,openstreetmap,18/08/2025 11:28,18/08/2025 11:28
436,11008008,Kita Hand in Hand - El Ele / AWO,Unknown,Unknown,52.4750341,13.4245253,Neukölln,Neukölln,Unknown,Unknown,openstreetmap,18/08/2025 11:28,18/08/2025 11:28
437,11006006,Kita Drei-Käse-Hoch,"Beethovenstraße 34, 12247 Berlin",12247,52.4379236,13.3310448,Lankwitz,Steglitz-Zehlendorf,Mittelhof e.V.,Unknown,openstreetmap,18/08/2025 11:28,18/08/2025 11:28
438,11004004,Kita el caracol/gestaltpäd. Kindergarten e.V.,Unknown,Unknown,52.4908244,13.3043425,Wilmersdorf,Charlottenburg-Wilmersdorf,Unknown,Unknown,openstreetmap,18/08/2025 11:28,18/08/2025 11:28
439,11007007,Kita Kick/Verein Stadtteil VHS e.V.,"Monumentenstraße 3, 10829 Berlin",10829,52.4881596,13.3649778,Schöneberg,Tempelhof-Schöneberg,Unknown,Unknown,openstreetmap,18/08/2025 11:28,18/08/2025 11:28
440,11005005,Kita Kinder-Treff,"Földerichstraße 67, 13595 Berlin",13595,52.5240603,13.1947021,Wilhelmstadt,Spandau,Unknown,Unknown,openstreetmap,18/08/2025 11:28,18/08/2025 11:28
441,11002002,Kita Kastanie/AWO,Unknown,Unknown,52.4954569,13.4322006,Kreuzberg,Friedrichshain-Kreuzberg,Unknown,Unknown,openstreetmap,18/08/2025 11:28,18/08/2025 11:28
442,11002002,Kita P'tits Loups,"Eldenaer Straße 44, 10247 Berlin",10247,52.5201881,13.4615939,Prenzlauer Berg,Friedrichshain-Kreuzberg,Elterninitiative,Unknown,openstreetmap,18/08/2025 11:28,18/08/2025 11:28
443,11006006,Kita Kaiserstuhl,"Kaiserstuhlstraße 25, 14129 Berlin",14129,52.4367939,13.2134727,Schlachtensee,Steglitz-Zehlendorf,Mittelhof e.V.,Unknown,openstreetmap,18/08/2025 11:28,18/08/2025 11:28
444,11001001,Kita Putte,"Prinzenallee 24, 13359 Berlin",13359,52.5565884,13.385136,Gesundbrunnen,Mitte,Putte e.V.,Unknown,openstreetmap,18/08/2025 11:28,18/08/2025 11:28
445,11001001,Kita Sachensucher,"Antwerpener Straße 40-42, 13353 Berlin",13353,52.5469066,13.3515249,Wedding,Mitte,Unknown,Unknown,openstreetmap,18/08/2025 11:28,18/08/2025 11:28
446,11011011,Kita/urban-consult gGmbH,"Wustrower Straße 40-50, 13051 Berlin",13051,52.571208,13.5038638,Neu-Hohenschönhausen,Lichtenberg,Unknown,Unknown,openstreetmap,18/08/2025 11:28,18/08/2025 11:28
447,11002002,Kita/VAK-Verein zur Betreuung ausländischer und deutscher Kinder e.V.,"Oranienstraße 4, 10997 Berlin",10997,52.499723,13.4254319,Kreuzberg,Friedrichshain-Kreuzberg,VAK e.V.,Unknown,openstreetmap,18/08/2025 11:28,18/08/2025 11:28
448,11007007,Hort L.i.ma. e.V.,"Prechtlstraße 21-23, 12277 Berlin",12277,52.4164048,13.3725083,Marienfelde,Tempelhof-Schöneberg,L.i.Ma e.V.,Unknown,openstreetmap,18/08/2025 11:28,18/08/2025 11:28
449,11007007,Kita/Verein Stadtteil VHS e.V.,Unknown,Unknown,52.4952999,13.3593122,Schöneberg,Tempelhof-Schöneberg,Unknown,Unknown,openstreetmap,18/08/2025 11:28,18/08/2025 11:28
450,11007007,Kita/Verein StadtteilVHS e.V.,"Goebenstraße 8, 10783 Berlin",10783,52.4936182,13.3640013,Schöneberg,Tempelhof-Schöneberg,Unknown,Unknown,openstreetmap,18/08/2025 11:28,18/08/2025 11:28
451,11002002,Kita Freies Bildungswesen,Unknown,Unknown,52.4970659,13.3830954,Kreuzberg,Friedrichshain-Kreuzberg,Verein zur Förderung eines freien Erziehungs- und Bildungswesens e.V.,Unknown,openstreetmap,18/08/2025 11:28,18/08/2025 11:28
452,11009009,Kindergarten der Freien Waldorfschule Berlin-Südost,Unknown,Unknown,52.4525783,13.5343206,Niederschöneweide,Treptow-Köpenick,Waldorfpädagogik in Berlin-Südost e.V.,Unknown,openstreetmap,18/08/2025 11:28,18/08/2025 11:28
453,11007007,Kindergarten Max und Moritz,"Kärntener Straße 27, 10827 Berlin",10827,52.479746,13.3476724,Schöneberg,Tempelhof-Schöneberg,Europa-Kindergarten gGmbH,Unknown,openstreetmap,18/08/2025 11:28,18/08/2025 11:28
454,11012012,MINI-KIDS mit GRIPS Kita e.V.,Unknown,Unknown,52.616542,13.3146358,Hermsdorf,Reinickendorf,Unknown,Unknown,openstreetmap,18/08/2025 11:28,18/08/2025 11:28
455,11001001,Elterninitiativ-Kindertagesstätte am Schillerpark,"Türkenstraße 15, 13349 Berlin",13349,52.5549151,13.3494033,Wedding,Mitte,Pädagogische Initiative EKT am Schillerpark e.V.,Unknown,openstreetmap,18/08/2025 11:28,18/08/2025 11:28
456,11001001,Hauptstadtkinder,"Putbusser Straße 30, 13355 Berlin",13355,52.5466703,13.3917748,Gesundbrunnen,Mitte,Unknown,Unknown,openstreetmap,18/08/2025 11:28,18/08/2025 11:28
457,11006006,Hort (EFöB),Unknown,Unknown,52.4303592,13.3409732,Lankwitz,Steglitz-Zehlendorf,Paul-Schneider-Grundschule,Unknown,openstreetmap,18/08/2025 11:28,18/08/2025 11:28
458,11007007,Schülerladen Drachenhöhle/IKT Stadtindianer e.V.,Unknown,Unknown,52.4560109,13.3783613,Tempelhof,Tempelhof-Schöneberg,Unknown,Unknown,openstreetmap,18/08/2025 11:28,18/08/2025 11:28
459,11007007,Kinderladen Amsel,"Ebersstraße 40, 10827 Berlin",10827,52.4787339,13.3463766,Schöneberg,Tempelhof-Schöneberg,EKT Amsel e.V.,Unknown,openstreetmap,18/08/2025 11:28,18/08/2025 11:28
460,11009009,SchülerInnenladen Oberschöneweide e.V.,Unknown,Unknown,52.4661098,13.5110869,Oberschöneweide,Treptow-Köpenick,Unknown,Unknown,openstreetmap,18/08/2025 11:28,18/08/2025 11:28
461,11005005,Kinderladen Spandau e.V.,"Plantage 8, 13597 Berlin",13597,52.5323176,13.2021686,Spandau,Spandau,Unknown,Unknown,openstreetmap,18/08/2025 11:28,18/08/2025 11:28
462,11005005,Schüler- und Kinderladen Spandau e.V.,Unknown,Unknown,52.5467746,13.2077394,Spandau,Spandau,Unknown,Unknown,openstreetmap,18/08/2025 11:28,18/08/2025 11:28
463,11006006,Kinderhaus Steglitz,Plantagenstraße 1,Unknown,52.4542334,13.3292073,Steglitz,Steglitz-Zehlendorf,Montessori & Friends Education gGmbH,Unknown,openstreetmap,18/08/2025 11:28,18/08/2025 11:28
464,11004004,Schülerladen Phönix,"Pfalzburger Straße 9, 10719 Berlin",10719,52.4984125,13.3224773,Wilmersdorf,Charlottenburg-Wilmersdorf,Unknown,Unknown,openstreetmap,18/08/2025 11:28,18/08/2025 11:28
465,11007007,Kita Tiponi,"Friedrich-Franz-Straße 12, 12103 Berlin",12103,52.4596076,13.3786879,Tempelhof,Tempelhof-Schöneberg,IKT Stadtindianer e.V.,100,openstreetmap,18/08/2025 11:28,18/08/2025 11:28
466,11007007,Kita Mojak Mini,"Podewilsstraße 2, 12103 Berlin",12103,52.4650062,13.3771119,Tempelhof,Tempelhof-Schöneberg,IKT Stadtindianer e.V.,15,openstreetmap,18/08/2025 11:28,18/08/2025 11:28
467,11006006,Schülerladen Zehlendorfer Feuerkäfer,"Wilskistraße 78, 14163 Berlin",14163,52.445743,13.2472386,Zehlendorf,Steglitz-Zehlendorf,Schülerladen Zehlendorfer Feuerkäfer e.V.,Unknown,openstreetmap,18/08/2025 11:28,18/08/2025 11:28
468,11007007,Kita Berliner Spatzen,"Hähnelstraße 15a, 12159 Berlin",12159,52.4757679,13.3380896,Friedenau,Tempelhof-Schöneberg,Verein zur Förderung der Mehrsprachigkeit e.V.,Unknown,openstreetmap,18/08/2025 11:28,18/08/2025 11:28
469,11009009,Kita Pusteblume!,"Otto-Krüger-Zeile 6, 12459 Berlin",12459,52.467184,13.5067504,Oberschöneweide,Treptow-Köpenick,Unknown,Unknown,openstreetmap,18/08/2025 11:28,18/08/2025 11:28
470,11009009,Kita Zwergenvilla,"Otto-Krüger-Zeile 4, 12459 Berlin",12459,52.4673186,13.5071803,Oberschöneweide,Treptow-Köpenick,Unknown,Unknown,openstreetmap,18/08/2025 11:28,18/08/2025 11:28
471,11004004,Kita/Johannischen Sozialwerk e.V.,"Bismarckallee 22, 14193 Berlin",14193,52.4864321,13.2761502,Grunewald,Charlottenburg-Wilmersdorf,Unknown,Unknown,openstreetmap,18/08/2025 11:28,18/08/2025 11:28
472,11002002,Not Provided,"Adalbertstraße 87, 10997 Berlin",10997,52.5018558,13.4191383,Kreuzberg,Friedrichshain-Kreuzberg,Kita/Kotti-Nachbarschafts- u.Gemeinwesenverein a.Kottbusser Tor e.V.,Unknown,openstreetmap,18/08/2025 11:28,18/08/2025 11:28
473,11008008,Kita Nachbi,Unknown,Unknown,52.4706705,13.4380693,Neukölln,Neukölln,Nachbarschaftsheim Neukölln e.V.,80,openstreetmap,18/08/2025 11:28,18/08/2025 11:28
474,11002002,Neue Kindergruppe Kreuzberg e.V.,Unknown,Unknown,52.4957408,13.4155668,Kreuzberg,Friedrichshain-Kreuzberg,Unknown,Unknown,openstreetmap,18/08/2025 11:28,18/08/2025 11:28
475,11001001,Schillerpark-Kita,Unknown,Unknown,52.5591664,13.35002,Wedding,Mitte,Unknown,Unknown,openstreetmap,18/08/2025 11:28,18/08/2025 11:28
476,11012012,Kita Amendestraße,"Amendestraße 41, 13409 Berlin",13409,52.5704221,13.3732172,Reinickendorf,Reinickendorf,Kindertagesstätten Nordwest Berlin,Unknown,openstreetmap,18/08/2025 11:28,18/08/2025 11:28
477,11003003,Kindergarten Gerne Gross,"Dänenstraße 22, 10439 Berlin",10439,52.5499228,13.4051777,Prenzlauer Berg,Pankow,Kindergärten NordOst,Unknown,openstreetmap,18/08/2025 11:28,18/08/2025 11:28
478,11005005,Kita Kinderarche,Unknown,Unknown,52.5436626,13.184949,Falkenhagener Feld,Spandau,Christliche deutsch-russische Kita Kinderarche Berlin e.V.,Unknown,openstreetmap,18/08/2025 11:28,18/08/2025 11:28
479,11005005,Hort Goldmühle,"Goldbeckweg 21, 13599 Berlin",13599,52.5447811,13.2291271,Haselhorst,Spandau,Evangelisches Johannesstift Jugendhilfe gGmbH,Unknown,openstreetmap,18/08/2025 11:28,18/08/2025 11:28
480,11004004,Kita Halemweg,Unknown,Unknown,52.5378579,13.2870483,Charlottenburg-Nord,Charlottenburg-Wilmersdorf,Kindertagesstätten Nordwest,Unknown,openstreetmap,18/08/2025 11:28,18/08/2025 11:28
481,11001001,Kita Kiezeulen,"Eulerstraße 19a, 13357 Berlin",13357,52.5532334,13.3899652,Gesundbrunnen,Mitte,Unknown,Unknown,openstreetmap,18/08/2025 11:28,18/08/2025 11:28
482,11001001,Kita Französische Straße,Unknown,Unknown,52.5145246,13.3882196,Mitte,Mitte,Kinder im Kiez,Unknown,openstreetmap,18/08/2025 11:28,18/08/2025 11:28
483,11007007,Kita Frankenstraße,"Frankenstraße 8/9, 10781 Berlin",10781,52.4935829,13.3503378,Schöneberg,Tempelhof-Schöneberg,INA.KINDER.GARTEN,Unknown,openstreetmap,18/08/2025 11:28,18/08/2025 11:28
484,11009009,Kita Moppi,"Friedrichshagener Straße 5L, 12555 Berlin",12555,52.4515669,13.5794264,Köpenick,Treptow-Köpenick,Kindertagesstätten SüdOst,90,openstreetmap,18/08/2025 11:28,18/08/2025 11:28
485,11001001,Kindertagesstätte Pelikan,"Friedrichstraße 129 f/g, 10117 Berlin",10117,52.5251699,13.387063,Mitte,Mitte,Volkssolidarität Landesverband Berlin e.V.,Unknown,openstreetmap,18/08/2025 11:28,18/08/2025 11:28
486,11003003,Kita Helmistrolche,"Lettestraße 4-5, 10437 Berlin",10437,52.5431244,13.4200147,Prenzlauer Berg,Pankow,Hanna gGmbH,Unknown,openstreetmap,18/08/2025 11:28,18/08/2025 11:28
487,11001001,Kindergarten Goldenes Schlüsselchen,"Kurfürstenstraße 135, 10785 Berlin",10785,52.5013114,13.3562252,Schöneberg,Mitte,Unknown,Unknown,openstreetmap,18/08/2025 11:28,18/08/2025 11:28
488,11008008,Urmel Kinderladen,"Kanner Straße 5, 12055 Berlin",12055,52.4713791,13.4473807,Neukölln,Neukölln,Eltern-Kind-Initiative Urmel e.V.,Unknown,openstreetmap,18/08/2025 11:28,18/08/2025 11:28
489,11001001,Kita Oase,"Kastanienallee 63 b, 10119 Berlin",10119,52.5341777,13.4069272,Mitte,Mitte,Pfefferwerk Stadtkultur,Unknown,openstreetmap,18/08/2025 11:28,18/08/2025 11:28
490,11004004,Kita Walter-Benjamin-Platz,"Walter-Benjamin-Platz 7, 10629 Berlin",10629,52.5016783,13.3141561,Charlottenburg,Charlottenburg-Wilmersdorf,Kindertagesstätten Nordwest,Unknown,openstreetmap,18/08/2025 11:28,18/08/2025 11:28
491,11002002,Kita Oppelner Straße 21,Unknown,Unknown,52.4976971,13.4385199,Kreuzberg,Friedrichshain-Kreuzberg,Kindergärten City,Unknown,openstreetmap,18/08/2025 11:28,18/08/2025 11:28
492,11002002,Kita Die kleinen Entdecker,"Müggelstraße 19, 10247 Berlin",10247,52.5099322,13.4690047,Friedrichshain,Friedrichshain-Kreuzberg,Pfefferwerk Stadtkultur,Unknown,openstreetmap,18/08/2025 11:28,18/08/2025 11:28
493,11002002,Kita Lübbener Straße 6/7,"Lübbener Straße 6/7, 10997 Berlin",10997,52.4987001,13.4371166,Kreuzberg,Friedrichshain-Kreuzberg,Kindergärten City,Unknown,openstreetmap,18/08/2025 11:28,18/08/2025 11:28
494,11007007,Kita Vier Jahreszeiten,"Luckeweg 15, 12279 Berlin",12279,52.4103883,13.3575373,Marienfelde,Tempelhof-Schöneberg,Unknown,184,openstreetmap,18/08/2025 11:28,18/08/2025 11:28
495,11011011,Sonnenkäfer,Malchower Weg 46,Unknown,52.5539049,13.5035683,Alt-Hohenschönhausen,Lichtenberg,Kindergärten NordOst,Unknown,openstreetmap,18/08/2025 11:28,18/08/2025 11:28
496,11007007,Kita Marconistraße 4,Unknown,Unknown,52.4373818,13.3815497,Mariendorf,Tempelhof-Schöneberg,Unknown,Unknown,openstreetmap,18/08/2025 11:28,18/08/2025 11:28
497,11007007,Kita Marienfelder Allee,Unknown,Unknown,52.4201026,13.3684103,Marienfelde,Tempelhof-Schöneberg,Internationaler Bund Berlin-Brandenburg gGmbH,Unknown,openstreetmap,18/08/2025 11:28,18/08/2025 11:28
498,11011011,"KITA ""Weiße Taube""","Schleizer Straße 62, 13055 Berlin",13055,52.539198,13.5056794,Alt-Hohenschönhausen,Lichtenberg,Unknown,Unknown,openstreetmap,18/08/2025 11:28,18/08/2025 11:28
499,11003003,Drieselmäuse,"Driesener Straße 24, 10439 Berlin",10439,52.5514945,13.4055509,Prenzlauer Berg,Pankow,Forum Soziale Dienste GmbH,Unknown,openstreetmap,18/08/2025 11:28,18/08/2025 11:28
500,11008008,Konrad & Kids,"Schierker Straße 44, 12051 Berlin",12051,52.4703126,13.4350613,Neukölln,Neukölln,Bezirksamt Neukölln,Unknown,openstreetmap,18/08/2025 11:28,18/08/2025 11:28
501,11001001,Kita Sprachwelt,"Rostocker Straße 32a, 10553 Berlin",10553,52.5318335,13.3257996,Moabit,Mitte,Jugend- und Sozialwerk,Unknown,openstreetmap,18/08/2025 11:28,18/08/2025 11:28
502,11008008,Kita Riesestraße 2-4,"Riesestraße 2, 12347 Berlin",12347,52.4547115,13.4440417,Britz,Neukölln,Kindertagesstätten SüdOst,Unknown,openstreetmap,18/08/2025 11:28,18/08/2025 11:28
503,11001001,Kita Sonnenschein,"Pohlstraße 87, 10785 Berlin",10785,52.501503,13.360817,Tiergarten,Mitte,Unknown,Unknown,openstreetmap,18/08/2025 11:28,18/08/2025 11:28
504,11002002,Kindergarten Planufer 77,"Planufer 77, 10967 Berlin",10967,52.4944782,13.4114041,Kreuzberg,Friedrichshain-Kreuzberg,Kindergärten City,Unknown,openstreetmap,18/08/2025 11:28,18/08/2025 11:28
505,11012012,Kita Waldshuter Zeile,Unknown,Unknown,52.6100732,13.3370992,Waidmannslust,Reinickendorf,Outlaw,Unknown,openstreetmap,18/08/2025 11:28,18/08/2025 11:28
506,11008008,Kita Warthestraße,"Warthestraße 62A, 12051 Berlin",12051,52.4696466,13.4263961,Neukölln,Neukölln,FIPP e.V.,Unknown,openstreetmap,18/08/2025 11:28,18/08/2025 11:28
507,11004004,Kita Warburgzeile,10587 Berlin,10587,52.5171375,13.3114235,Charlottenburg,Charlottenburg-Wilmersdorf,Unknown,Unknown,openstreetmap,18/08/2025 11:28,18/08/2025 11:28
508,11010010,Kita Baumelbaum,"Teterower Ring 36, 12619 Berlin",12619,52.5223529,13.584299,Hellersdorf,Marzahn-Hellersdorf,Dialog e.V.,Unknown,openstreetmap,18/08/2025 11:28,18/08/2025 11:28
