,pharmacy_id,name,operator,street,housenumber,postcode,suburb,phone,website,openinghours,dispensing,wheelchair_accessible,latitude,longitude,district,district_id
0,60775323,reichenberger apotheke,nan,reichenberger straße,3,13055,Alt-Hohenschönhausen,+49 30 9713807,https://reichenbergerapotheke.de/,mo-th 08:00-19:00; fr 08:00-18:30; sa 09:00-13:00,yes,yes,52.5407412,13.4866016,Lichtenberg,11011011
1,60848447,castello-apotheke,nan,nan,nan,nan,,nan,nan,mo-fr 08:30-19:00; sa 08:30-14:00,yes,yes,52.5318353,13.4696536,Lichtenberg,11011011
2,60852928,rosen apotheke,nan,rudolf-seiffert-straße,11,10369,Fennpfuhl,+49 30 9759449,https://www.zurrose.de/,mo-fr 08:00-19:00; sa 08:00-12:00,yes,yes,52.5275552,13.4685134,Lichtenberg,11011011
3,68437791,margareten-apotheke,nan,karl-kunger-straße,46,12435,Alt-Treptow,+49 30 5337855,http://www.apotheke.borchert-online.de/,mo-fr 08:30-18:30; sa 08:30-13:00,yes,no,52.4893898,13.4505704,Treptow-Köpenick,11009009
4,69226035,leipziger apotheke,nan,leipziger straße,43,10117,Mitte,nan,https://www.leipziger-apotheke.de/,mo-fr 08:00-19:00; sa 08:00-14:00,yes,yes,52.5105561,13.3958628,Mitte,11001001
5,76507297,preußen-apotheke,nan,paretzer straße,2,10713,Wilmersdorf,+49 30 8227190,nan,mo-fr 08:00-18:30; sa 08:00-13:00,yes,limited,52.4815485,13.3190694,Charlottenburg-Wilmersdorf,11004004
6,76519952,bundes-apotheke,nan,bundesallee,177,10715,,+49 30 8541307,nan,mo-fr 08:30-18:30; sa 09:00-13:00,yes,yes,52.4865543,13.3314064,Charlottenburg-Wilmersdorf,11004004
7,76596388,mühlenberg-apotheke,nan,thomas-mann-straße,1,10409,Prenzlauer Berg,+49 30 42852020,https://www.muehlenberg-apotheke.de/,mo-fr 09:00-19:00; sa 09:00-14:00,yes,yes,52.5431994,13.4423197,Pankow,11003003
8,78244254,axels apotheke,nan,rudi-dutschke-straße,8,nan,,+49 30 257678 20,https://www.axels-apotheke.de/,mo-fr 08:30-19:00; sa 09:00-13:00,,yes,52.5071247,13.3947881,Friedrichshain-Kreuzberg,11002002
9,79603436,diamant apotheke,nan,kurt-schumacher-damm,1-15,13405,,+49 30 4985750,https://www.diamantapo.berlin/,mo-fr 09:00-19:00; sa 10:00-19:00,yes,yes,52.5633045,13.3287743,Reinickendorf,11012012
10,79606682,apotheke am markt reinickendorf,nan,scharnweberstraße,nan,13405,Reinickendorf,nan,nan,"mo-fr 08:30-18:00, sa 08:30-13:00",yes,limited,52.5668918,13.3170343,Reinickendorf,11012012
11,79624638,barlach apotheke,nan,auguste-viktoria-allee,81,13403,Reinickendorf,+49 30 4132840,https://www.barlach-apotheke.de/,"mo-fr 08:30-18:30, sa 08:30-13:00",yes,yes,52.5701291,13.3213944,Reinickendorf,11012012
12,79688159,park-apotheke,nan,bundesallee,55,10715,Wilmersdorf,+49 30 8532514,nan,mo-fr 08:30-18:30,yes,yes,52.4815398,13.3289844,Charlottenburg-Wilmersdorf,11004004
13,81362602,kranich-apotheke,nan,lindenallee,28,14050,Westend,+49 30 3015073,https://www.kranich-apotheke-berlin.de/,mo-fr 08:30-19:00; sa 08:30-14:00,yes,yes,52.5104923,13.2716035,Charlottenburg-Wilmersdorf,11004004
14,87036261,nordland apotheke,tina töllner e.k.,invalidenstraße,114,10115,,nan,https://nordlandapotheke-berlin.de/,mo-fr 08:00-19:00,yes,yes,52.5306975,13.3841248,Mitte,11001001
15,87040402,friedrichstadt apotheke,nan,glinkastraße,4,10117,,+49 30 2045282 0,https://www.friedrichstadtapotheke.de/,mo-fr 08:00-19:00; sa 09:00-13:00,yes,yes,52.5117692,13.3868843,Mitte,11001001
16,89274697,panorama apotheke,nan,panoramastraße,1,10178,Mitte,nan,nan,mo-fr 08:00-20:00; sa 08:30-18:00,yes,no,52.521847,13.4098188,Mitte,11001001
17,89274888,bezirksapotheke am roten rathaus,bezirksapotheke,rathausstraße,5,10178,,+49 30 27 58 30 83,https://www.bezirksapotheke.de/amrotenrathaus/,mo-fr 09:00-19:30; sa 10:00-19:00,yes,yes,52.5197805,13.4108917,Mitte,11001001
18,89275182,fischerinsel-apotheke,ralf goepfert e.k.,gertraudenstraße,19,10178,Mitte,nan,nan,mo-fr 08:00-19:00; sa 08:30-14:00,yes,yes,52.5133809,13.4053524,Mitte,11001001
19,203469194,poseidon-apotheke,nan,helene-weigel-platz,10,12681,Marzahn,nan,nan,nan,yes,yes,52.5276071,13.5421939,Marzahn-Hellersdorf,11010010
20,203474469,skarabäus-apotheke,raphael abongnelah,oberfeldstraße,30,12683,Biesdorf,nan,nan,"mo-fr 08:30-19:00;sa 08:30-13:00;su,ph off",yes,yes,52.5204665,13.5558118,Marzahn-Hellersdorf,11010010
21,250195921,alte roland-apotheke,nan,turmstraße,15,10559,Moabit,+49 30 3943056,https://www.alte-roland-apotheke.de/,mo-fr 09:00-18:30; sa 09:00-13:00,,yes,52.5264625,13.3501221,Mitte,11001001
22,251737915,virchow apotheke,nan,seestraße,99,13353,Wedding,nan,https://www.virchow-apotheke-berlin.de/,"mo,tu 08:30-19:00; we 08:30-18:30; th 08:30-19:00; fr 08:30-18:30",yes,yes,52.54973,13.3498263,Mitte,11001001
23,254307048,wotan apotheke,nan,grolmanstraße,51,10623,Charlottenburg,nan,nan,mo-fr 08:00-18:30; sa 09:00-14:00,yes,yes,52.5069033,13.3218338,Charlottenburg-Wilmersdorf,11004004
24,255825174,wildenbruch apotheke,mosa masalmeh,sonnenallee,105,12045,Neukölln,nan,nan,"mo-fr 09:00-18:30, sa 10:30-16:30",yes,yes,52.4818892,13.440147,Neukölln,11008008
25,255825368,frühlicht-apotheke,nan,anzengruberstraße,7,12043,,nan,nan,mo-fr 09:00-18:00; sa 09:00-14:00,yes,yes,52.4803687,13.4394937,Neukölln,11008008
26,259081139,nordring apotheke,nan,schönhauser allee,118,10437,Prenzlauer Berg,nan,nan,mo-fr 08:00-20:00; sa 09:00-15:00; ph off,yes,yes,52.549263,13.4133047,Pankow,11003003
27,259081143,vita apotheke,nan,schivelbeiner straße,33,10439,Prenzlauer Berg,nan,http://www.vita-apotheke.com,"mo-fr 08:00-19:00, sa 08:00-14:00",yes,limited,52.5509103,13.4079077,Pankow,11003003
28,260865620,taut-apotheke,nan,nan,nan,nan,,nan,nan,mo-fr 10:00-20:00; sa 10:00-16:00,yes,yes,52.4124087,13.5725538,Treptow-Köpenick,11009009
29,261963290,grüne apotheke,docmorris kooperationen gmbh,elsenstraße,111,12435,,+49 30 53212201,http://www.docmorris-apotheke.de/de/apotheken/list/berlin/treptow/,mo-fr 09:00-18:30; sa 10:00-18:00,yes,yes,52.4907054,13.4567328,Treptow-Köpenick,11009009
30,262213475,möllendorff-apotheke,nan,möllendorffstraße,47,10367,Fennpfuhl,nan,nan,"mo-fr 08:30-18:30, sa 08:30-13:00",yes,yes,52.5241575,13.4800051,Lichtenberg,11011011
31,263699380,robinson apotheke,nan,lion-feuchtwanger-straße,22,12619,Hellersdorf,nan,nan,"mo-fr 08:00-18:30, sa 08:00-13:00; ph off",yes,yes,52.517681,13.5829,Marzahn-Hellersdorf,11010010
32,266630604,georginen-apotheke,andrea weigel,treskowstraße,76,12623,Mahlsdorf,+49305665731,https://www.georginen-apotheke-berlin.de/,mo-fr 08:00-19:00; sa 09:00-13:00; ph off,yes,yes,52.5111499,13.6121832,Marzahn-Hellersdorf,11010010
33,266632232,mahlsdorfer apotheke,nan,hönower straße,54,12623,Mahlsdorf,+49 30 5677417,http://www.mahlsdorfer-apotheke.de,"mo,tu 08:00-19:30, we-fr 08:00-18:30, sa 08:00-13:00; ph off",yes,yes,52.509361,13.6138214,Marzahn-Hellersdorf,11010010
34,266674656,neue medikus apotheke,christoph neumann e.k.,myslowitzer straße,49,12621,Kaulsdorf,+49 30 565998990,https://www.neue-medicus-apotheke.de/,mo-fr 08:00-19:00;sa 08:00-13:00; ph off,yes,yes,52.5071368,13.592044,Marzahn-Hellersdorf,11010010
35,267366952,wins-apotheke,nan,winsstraße,45,10405,Prenzlauer Berg,+49 30 4439390,https://www.wins-apotheke.de/,mo-fr 08:00-19:00; sa 09:00-14:00; su off,yes,yes,52.5360082,13.4270624,Pankow,11003003
36,267860831,seegefelder-apotheke,nan,seegefelder straße,63,13583,Spandau,+49 30 3332484,nan,nan,yes,no,52.5372848,13.1879163,Spandau,11005005
37,268636979,brandenburg-apotheke,nan,brandenburgische straße,37,10707,Wilmersdorf,nan,nan,mo-fr 08:30-19:00; sa 08:30-14:00,yes,yes,52.4985391,13.3071113,Charlottenburg-Wilmersdorf,11004004
38,268726812,rosegger-apotheke,axel emmrich,sonnenallee,144,12059,,+49 30 68237037,https://www.rosegger-apotheke.de/,mo-fr 08:30-18:30; sa 08:30-13:00,yes,yes,52.4789497,13.4451781,Neukölln,11008008
39,268844381,storchen-apotheke,nan,schulzendorfer straße,70,13503,Heiligensee,+49 304313204,https://www.storchen-apotheke.org/,mo-fr 09:00-18:30; sa 09:00-13:00,yes,yes,52.6128103,13.2315014,Reinickendorf,11012012
40,268844523,apotheke am markt,ulrike klaus,bekassinenweg,18,13503,Heiligensee,nan,https://www.apotheke-heiligensee.de/,mo-fr 08:00-18:30;sa 08:30-13:30,yes,no,52.607565,13.2348292,Reinickendorf,11012012
41,268981834,grimm-apotheke,nan,grimmstraße,9,10967,Kreuzberg,nan,nan,mo-fr 09:00-18:30; sa 09:00-14:00,yes,limited,52.4935361,13.4134932,Friedrichshain-Kreuzberg,11002002
42,269478054,apotheke am engelbecken,ralf goepfert e.k.,heinrich-heine-straße,15,10179,Mitte,nan,nan,mo-fr 08:00-19:00; sa 08:30-14:00,yes,yes,52.507579,13.414104,Mitte,11001001
43,270814718,kur-apotheke,nan,spanische allee,37,14129,Schlachtensee,+49 30 8017398,nan,nan,yes,,52.4322803,13.219675,Steglitz-Zehlendorf,11006006
44,270814721,die dorotheen apotheke,dr. petra schneider,potsdamer chaussee,80,14129,Nikolassee,+49 30 8039579,https://www.die-dorotheen-apotheke.de/,mo-fr 08:30-20:00; sa 08:00-14:00,yes,yes,52.4271388,13.216597,Steglitz-Zehlendorf,11006006
45,270906159,rosen-apotheke berlin,nan,fürstenwalder allee,266,12589,Rahnsdorf,nan,nan,nan,yes,yes,52.4327628,13.7098785,Treptow-Köpenick,11009009
46,271282692,kolberger apotheke,nan,gerichtstraße,18,13347,Gesundbrunnen,nan,nan,mo-fr 08:30-18:00; sa 08:30-13:00,yes,no,52.543989,13.3735976,Mitte,11001001
47,271405514,hauptstadt apotheke,jana schreiber,klosterstraße,34-35,13581,,+49 30 337759410,https://hauptstadtapotheke.de,mo-fr 08:00-19:00; sa 09:00-13:00,yes,yes,52.5320913,13.1981714,Spandau,11005005
48,271708716,altstadt apotheke,nan,nan,nan,nan,,+49 30 3332030,https://www.altstadt-apotheke-berlin.de/,mo-fr 08:00-19:00; sa 09:00-14:00; su off,yes,yes,52.5366282,13.2052104,Spandau,11005005
49,271708914,löwen-apotheke,nan,nan,nan,nan,,+49 30 35304740,https://www.loewen-apotheke-berlin.de/,mo-fr 08:30-18:30; sa 09:00-14:00,yes,no,52.5376866,13.2060246,Spandau,11005005
50,271710934,adler-apotheke,nan,carl-schurz-straße,39,13597,Spandau,+49 30 3335064,https://www.adler-apotheke-berlin.de/,mo-fr 08:00-19:00; sa 08:00-16:00; su off,yes,yes,52.5376635,13.2036654,Spandau,11005005
51,271713876,spandauer apotheke,docmorris,feldstraße,56,13585,,nan,nan,"mo-fr 08:00-18:30; sa 09:00-13:00; ph,su off",yes,limited,52.542908,13.2059594,Spandau,11005005
52,272385616,jäger apotheke,nan,adamstraße,3,13595,Wilhelmstadt,+49 30 3616090,https://www.jaeger-apotheke-spandau.de/,"mo-fr 08:30-18:30; sa 08:30-13:00; ph,su off",yes,yes,52.5211632,13.1970215,Spandau,11005005
53,272385919,adam apotheke,nan,adamstraße,41,13595,Wilhelmstadt,+49 30 3619042,nan,mo-fr 08:30-18:00; sa 08:30-13:00,yes,yes,52.5208942,13.1948184,Spandau,11005005
54,272386317,pichelsdorf apotheke,nan,pichelsdorfer straße,120,13595,Wilhelmstadt,+49 30 3322007,https://www.pichelsdorfapotheke.de/,"mo-fr 08:30-18:30; sa 08:30-13:30; su,ph off",yes,yes,52.5254705,13.1971411,Spandau,11005005
55,272499930,ringbahn-apotheke,nan,karl-marx-straße,239,12055,Neukölln,+49 30 68302613,nan,"mo-fr 08:30-18:30, sa 08:30-13:00",yes,limited,52.4678648,13.4421953,Neukölln,11008008
56,272662737,kaiser apotheke,nan,bergmannstraße,23,10961,,+49 30 6937881,https://kaiser-apotheke-berlin.de,mo-fr 08:30-20:00; sa 09:00-20:00,yes,yes,52.4889422,13.3939616,Friedrichshain-Kreuzberg,11002002
57,273743446,apotheke bahnhof spandau,nan,seegefelder straße,16,13597,Spandau,nan,https://www.apothekebahnhofspandau.de/,"mo,tu,th 08:00-18:30; we,fr 08:00-18:00; sa 09:00-13:00",yes,limited,52.5356492,13.1956671,Spandau,11005005
58,274864546,hansa apotheke,nan,nan,nan,nan,,nan,nan,nan,yes,no,52.5217984,13.198061,Spandau,11005005
59,275623282,gesundleben apotheke mahlsdorf,nan,hönower straße,95A,12623,Mahlsdorf,+49 30 9918153,https://www.gesundleben-apotheken.de/mahlsdorf,mo-fr 08:00-19:00; sa 09:00-13:00; ph off,yes,yes,52.5133802,13.6120014,Marzahn-Hellersdorf,11010010
60,275887592,galenus-apotheke,nan,nan,nan,nan,,+49 30 2827871,https://galenus-berlin.de/,mo-fr 08:00-19:00; ph off,yes,no,52.5236295,13.386715,Mitte,11001001
61,276145617,stern apotheke,christoph albertini e.k.,baumschulenstraße,96,12437,Baumschulenweg,+49 30 53027866,https://www.sternapotheke-berlin.de/,mo-fr 08:00-19:00; sa 08:30-13:30,yes,limited,52.4671189,13.4886389,Treptow-Köpenick,11009009
62,276774391,marien-apotheke,nan,gatower straße,85,13595,Wilhelmstadt,+49303616707,nan,mo-fr 08:30-18:00; sa 08:30-13:00,yes,yes,52.512828,13.1833779,Spandau,11005005
63,280296894,thalia apotheke,nan,nan,nan,nan,Lankwitz,nan,nan,mo-fr 08:30-18:30; sa 08:30-13:00,,yes,52.4364093,13.3464079,Steglitz-Zehlendorf,11006006
64,282744493,mirbach,nan,nan,nan,nan,,nan,nan,mo-fr 08:30-19:00; sa 08:30-13:30,yes,yes,52.517377,13.4686866,Friedrichshain-Kreuzberg,11002002
65,282762536,frankfurter apotheke,nan,frankfurter allee,52,10247,Friedrichshain,nan,nan,mo-fr 08:00-20:00; sa 09:00-15:00,yes,yes,52.5144752,13.4648596,Friedrichshain-Kreuzberg,11002002
66,282836294,treskow-apotheke,nan,ehrenfelsstraße,46,10318,Karlshorst,+49 30 50012614,https://www.treskow-apotheke.de/,mo-fr 08:00-18:30; sa 09:00-13:00,yes,yes,52.4825451,13.526263,Lichtenberg,11011011
67,283346896,uferpalais-apotheke,nan,nan,nan,nan,,nan,nan,mo-fr 08:30-19:00; sa 08:30-14:00,yes,no,52.5467539,13.2094458,Spandau,11005005
68,287852225,bärliner apotheke,nan,havemannstraße,24,12689,Marzahn,nan,nan,mo-fr 08:00-19:00; sa 08:30-14:00,yes,yes,52.5678242,13.5724583,Marzahn-Hellersdorf,11010010
69,287970707,apotheke im kaufland,nan,romain-rolland-straße,19,13089,Heinersdorf,+49304790780,https://www.kaufland-apotheke-weissensee.de/apotheke/willkommen.htm,mo-sa 08:30-19:30,yes,yes,52.5643537,13.4445534,Pankow,11003003
70,291014069,tulpen-apotheke,apothekerin irmtraud knuth,mariendorfer damm,432,12107,Lichtenrade,+49 30 76203014,https://www.tulpen-apotheke-berlin.de/,mo-fr 8:00-19:00;sa 8:00-14:00,yes,yes,52.4163173,13.3997542,Tempelhof-Schöneberg,11007007
71,291212713,atlas-apotheke,apotheker dr. christian fechner e. k.,falkenseer chaussee,23,13583,Falkenhagener Feld,nan,nan,mo-fr 09:00-18:30; we 09:00-17:45; sa 09:00-13:00,yes,yes,52.5473903,13.1871238,Spandau,11005005
72,291432407,kreisel-apotheke,nan,schloßstraße,82,12165,Steglitz,nan,nan,mo-fr 08:30-19:00; sa 09:00-18:00,yes,yes,52.4564263,13.3209201,Steglitz-Zehlendorf,11006006
73,292699498,birken-apotheke,nan,nan,nan,nan,,+4930 411 5834,https://www.birken-apotheke-berlin.de/,mo-fr 08:00-19:30; sa 08:00-16:00,yes,yes,52.5953568,13.3351509,Reinickendorf,11012012
74,297410017,pharmland-apotheke,dr. frank kiesewalter,sewanstraße,4,10319,Friedrichsfelde,+49 30 67302370,https://www.lichtenberg.pharmland.de/lichtenbergpharmland,mo-sa 09:00-19:00,yes,yes,52.4997043,13.4969744,Lichtenberg,11011011
75,297489806,helgoland apotheke,nan,nan,nan,nan,,nan,nan,mo-fr 08:30-18:30; sa 08:30-13:00,yes,yes,52.4125676,13.359647,Tempelhof-Schöneberg,11007007
76,297512115,helianthus-apotheke,sharareh hemmati sadeghi,rheinstraße,27,12161,Friedenau,+49 30 89726932,https://www.helianthus-apotheke-berlin.de/,"mo-fr 08:30-19:00; sa,su off",yes,no,52.4675849,13.3308517,Tempelhof-Schöneberg,11007007
77,297512117,burger apotheke,norbert peter e.k.,bundesallee,92,12161,Friedenau,+49 30 8516305,https://www.burger-apotheke.de/,mo-fr 08:30-19:00; sa 08:30-14:00,yes,limited,52.4672318,13.3279955,Tempelhof-Schöneberg,11007007
78,304367397,glückskind apotheke,nan,heerstraße,560,13591,Staaken,+49 30 36404066,http://www.glückskind-apotheke.de/,"mo-fr 09:00-14:00,15:00-18:00; sa 09:00-13:00",yes,yes,52.5249401,13.1424401,Spandau,11005005
79,307983960,leo apotheke,nan,müllerstraße,152,13353,Wedding,nan,https://www.leoapotheke.de/,mo-fr 08:30-19:00; sa 09:00-14:00,no,yes,52.5463569,13.3586662,Mitte,11001001
80,308019535,apotheke 24,nan,nan,nan,nan,,nan,nan,mo-fr 08:00-18:30; sa 09:00-14:00,yes,yes,52.5054076,13.5142084,Lichtenberg,11011011
81,308719063,hedwig-apotheke,nan,oberhofer weg,2,12209,Lichterfelde,+49307722580,nan,mo-fr 08:30-18:30; sa 08:00-13:30,yes,yes,52.4274299,13.3262036,Steglitz-Zehlendorf,11006006
82,310377174,ahorn apotheke,bettina achilles,innsbrucker straße,25,10825,Schöneberg,+49 30 85729720,https://www.ahorn-apotheke-berlin-schoeneberg.de/,mo-fr 08:30-18:30; sa 08:30-13:00,yes,no,52.4801897,13.3428141,Tempelhof-Schöneberg,11007007
83,310764887,berliner bär-apotheke,britta küttner,nan,nan,nan,,nan,nan,mo-fr 08:00-18:30,yes,yes,52.5057922,13.5128096,Lichtenberg,11011011
84,311089081,m.c. apotheke,nan,schlüterstraße,35,10629,Charlottenburg,nan,nan,nan,yes,limited,52.5028212,13.3167347,Charlottenburg-Wilmersdorf,11004004
85,312714262,tauern-apotheke,nan,albulaweg,29,12107,Mariendorf,+49(0)30-7411234,https://www.tauern-apotheke.de/,mo-fr 8:00-20:00; sa 08:00-14:00,yes,yes,52.4236416,13.3978849,Tempelhof-Schöneberg,11007007
86,312956048,alexandrinen-apotheke,nan,warnemünder straße,29,14199,Schmargendorf,+49 30 8233078,nan,mo-fr 08:30-18:30; sa 09:00-13:00,yes,no,52.4752159,13.2899562,Charlottenburg-Wilmersdorf,11004004
87,313173921,pankow-apotheke,christoph gümpel,stubnitzstraße,31,13189,Pankow,nan,https://www.pankow-apotheke.de/,mo-fr 08:00-19:00; sa 08:00-13:00,yes,limited,52.5667802,13.4155075,Pankow,11003003
88,313584459,apotheke dahlem-dorf,nan,königin-luise-straße,38,14195,Dahlem,nan,nan,mo-fr 08:30-18:30; sa 08:30-13:30,yes,limited,52.4578484,13.2924415,Steglitz-Zehlendorf,11006006
89,313933591,arkona apotheke,nan,kastanienallee,38,10119,Mitte,nan,nan,mo-fr 08:00-20:00; sa 08:00-18:00,yes,,52.5355836,13.4063535,Mitte,11001001
90,314022672,insel apotheke,nan,giesebrechtstraße,13,10629,Charlottenburg,nan,nan,mo-fr 08:00-18:30; sa 08:30-13:00,yes,no,52.5015083,13.3110277,Charlottenburg-Wilmersdorf,11004004
91,315234035,preußenapotheke,nan,kurfürstenstraße,57,12105,Mariendorf,nan,nan,mo-fr 08:30-19:00; sa 08:30-14:00,yes,yes,52.4479601,13.3849712,Tempelhof-Schöneberg,11007007
92,315803527,regina apotheke,nan,martin-luther-straße,58,10779,Schöneberg,nan,nan,mo-fr 08:00-18:30; sa 08:00-14:00,yes,no,52.4912774,13.3447676,Tempelhof-Schöneberg,11007007
93,315820338,akazien-apotheke,nan,hauptstraße,19,10827,Schöneberg,+49 30 76768777,https://www.akazien-apotheke-berlin-app.de/,mo-fr 09:00-19:00; sa 09:00-18:00,yes,yes,52.4866004,13.3565305,Tempelhof-Schöneberg,11007007
94,316533474,waage apotheke,nan,kurfürstendamm,142,10709,Halensee,nan,nan,mo-fr 08:30-20:00; sa 08:30-19:00,yes,yes,52.497907,13.2973176,Charlottenburg-Wilmersdorf,11004004
95,316704530,aida apotheke,nan,osnabrücker straße,4,10589,Charlottenburg,+49 30 3445656,nan,mo-fr 08:30-18:30; sa 09:00-13:00,yes,no,52.5260065,13.3022696,Charlottenburg-Wilmersdorf,11004004
96,317148496,petersburger apotheke,nan,petersburger platz,3,10249,Friedrichshain,nan,nan,mo-fr 08:00-19:00; sa 09:00-14:00,yes,yes,52.5214676,13.4496352,Friedrichshain-Kreuzberg,11002002
97,317175755,albrecht-apotheke steglitz,fr. martina bethke e.k.,schloßstraße,40,12165,Steglitz,+49 30 7926084,nan,mo-th 08:00-19:00; fr 08:00-18:30,yes,yes,52.4565269,13.319862,Steglitz-Zehlendorf,11006006
98,317552407,easy apotheke,christian melzer e.k.,rudower chaussee,12,12489,Adlershof,nan,nan,mo-th 08:00-19:30; sa 09:00-18:00; ph off; fr 08:00-20:00,yes,yes,52.4332816,13.5362695,Treptow-Köpenick,11009009
99,317552408,aesculap apotheke,christian melzer e.k.,albert-einstein-straße,2,12489,Adlershof,+4930 63 92 23 58,https://www.aesculap-berlin.de/,"mo,tu,th 08:00-18:30; we,fr 08:00-18:00",yes,yes,52.4317485,13.5373807,Treptow-Köpenick,11009009
100,317614303,fräulein beckers lieblingsapotheke,nan,karl-marx-allee,101,10243,Friedrichshain,nan,nan,"mo-fr 09:00-13:00,15:00-18:30",yes,yes,52.5174584,13.4428803,Friedrichshain-Kreuzberg,11002002
101,319092509,merlin-apotheke,nan,nan,nan,nan,,nan,nan,"mo-we,fr 08:00-18:30; th 08:00-19:30; sa 09:00-13:00",yes,limited,52.5267866,13.4149448,Mitte,11001001
102,319494473,apotheke im kaufzentrum,nan,siemensdamm,43,13629,Siemensstadt,+493038302320,https://www.apotheken.de/club/13629/apotheke-im-kaufzentrum/,mo-fr 08:30-18:30; sa 09:00-14:00,yes,,52.5361217,13.2754707,Spandau,11005005
103,322151533,apotheke am koppenplatz,nan,nan,nan,nan,,+4930 2859831 3,http://www.wolfgang-weidlich.de/,mo-fr 08:30-19:00; sa 09:00-14:00,yes,yes,52.5274856,13.3978184,Mitte,11001001
104,322490383,alexa apotheke,nan,grunerstraße,20,10179,Mitte,nan,nan,mo-fr 09:00-19:00; sa 10:00-19:00,yes,yes,52.5189866,13.4155159,Mitte,11001001
105,323597684,gertruden-apotheke,norbert bartetzko,lankwitzer straße,1,12209,Lichterfelde,+49 30 7721096,nan,mo-fr 08:30-19:00; sa 08:00-14:00,yes,yes,52.4285785,13.3284113,Steglitz-Zehlendorf,11006006
106,324023598,cecilien-apotheke,ludger klabes,nan,6,12619,Hellersdorf,nan,nan,"mo-fr 08:00-19:00, sa 08:00-13:00; ph off",yes,yes,52.5207833,13.5917073,Marzahn-Hellersdorf,11010010
107,324363717,apotheke am strausberger platz,christine gunkel e.k.,strausberger platz,11-12,10243,Friedrichshain,+49 30 249 38 63,https://www.strausberger-platz-berlin.de/,mo-fr 09:00-18:30; sa 09:00-13:00,yes,yes,52.5177829,13.4292246,Friedrichshain-Kreuzberg,11002002
108,324789478,anker apotheke,nan,alt-marienfelde,55,12277,Marienfelde,nan,nan,"sa 08:30-13:00; we 08:30-13:00; mo,tu,th,fr 08:00-18:30",yes,yes,52.4130862,13.3638844,Tempelhof-Schöneberg,11007007
109,330966646,hölderlin-apotheke,nan,wilhelmstraße,20,10963,Kreuzberg,nan,nan,"mo,tu,th 08:30-19:00; we,fr 08:30-18:30",yes,yes,52.5031924,13.3883155,Friedrichshain-Kreuzberg,11002002
110,332555438,seume-apotheke,nan,wühlischstraße,20,10245,Friedrichshain,nan,nan,mo-fr 09:00-19:00; sa 09:00-14:00,yes,limited,52.5088216,13.4612497,Friedrichshain-Kreuzberg,11002002
111,332555440,apotheke am ostkreuz,nan,sonntagstraße,12,10245,Friedrichshain,+4930 2916212,http://www.apotheke-am-ostkreuz.de/,mo-fr 09:00-19:00; sa 09:00-13:00,yes,yes,52.5062364,13.4658756,Friedrichshain-Kreuzberg,11002002
112,332961993,apotheke am nauener platz,nan,nan,nan,nan,,nan,nan,mo-fr 08:30-18:30; sa 08:30-14:00,yes,yes,52.551654,13.3669194,Mitte,11001001
113,332964520,dr. gropler´s apotheke,nan,nan,nan,13347,,nan,nan,mo-fr 08:00-18:30; sa 08:00-13:00,yes,yes,52.5498675,13.3686632,Mitte,11001001
114,333408605,werbellin-apotheke,nan,hermannstraße,52,12049,Neukölln,nan,nan,mo-fr 08:30-20:00; sa 09:00-18:00; su off,yes,yes,52.4776537,13.4258598,Neukölln,11008008
115,333410692,apotheke am herrfurthplatz,nan,herrfurthstraße,9,12049,Neukölln,nan,nan,mo-fr 09:00-19:00; sa 09:00-14:00,yes,limited,52.4773102,13.4229686,Neukölln,11008008
116,333909847,driesener apotheke,nan,driesener straße,19,10439,Prenzlauer Berg,nan,https://driesener-apotheke.de,"mo,tu,th 08:00-19:30; we,fr 08:00-18:30; sa 08:00-13:00",yes,no,52.5528911,13.4058278,Pankow,11003003
117,336117214,grüne apotheke 62,nan,wilmersdorfer straße,62,10627,,nan,nan,"mo-fr 09:00-19:00; sa 10:00-16:00; su,ph off",yes,yes,52.507096,13.3063256,Charlottenburg-Wilmersdorf,11004004
118,340129941,apotheke carmer-7,bettina moeglich,carmerstraße,7,10623,Charlottenburg,+49 30 31809444,https://www.apotheke-carmer-7.de/,"mo-tu,th-fr 08:00-20:00; we 08:00-19:00; sa 09:00-14:00",yes,no,52.5068886,13.3234474,Charlottenburg-Wilmersdorf,11004004
119,347298415,seydlitz-apotheke,nan,kaiser-wilhelm-straße,30,12247,Lankwitz,+49 30 7723035,nan,mo-fr 08:30-18:00; sa 09:30-13:00,no,yes,52.4316877,13.3373088,Steglitz-Zehlendorf,11006006
120,347422942,eichen apotheke,nan,drakestraße,29a,12205,Lichterfelde,+49 30 8334422,http://www.eichenapotheke.com,mo-fr 08:30-19:00; sa 08:30-14:00,yes,yes,52.4415204,13.2986338,Steglitz-Zehlendorf,11006006
121,348052909,augusta-apotheke am mexikoplatz,nan,argentinische allee,1,14163,Zehlendorf,nan,nan,mo-fr 08:30-18:30; sa 08:30-13:00,no,,52.4380311,13.233166,Steglitz-Zehlendorf,11006006
122,349301668,leibniz apotheke berlin,nan,kantstraße,130b,10625,Charlottenburg,nan,nan,mo-fr 08:30-19:00; sa 09:00-14:00,yes,yes,52.5060889,13.3140939,Charlottenburg-Wilmersdorf,11004004
123,352983796,kronen apotheke,nan,schützenstraße,7,12165,Steglitz,+49 30 79702993,https://www.kronen-apotheke-berlin.com/,"mo-fr 08:00-18:00; sa 08:00-13:00; su,ph off",no,,52.4544874,13.3238828,Steglitz-Zehlendorf,11006006
124,353744167,apotheke am flughafen,nan,manfred-von-richthofen-straße,2,12101,Tempelhof,nan,https://www.apo-am-flughafen.de/,mo-fr 08:30-18:30; sa 08:30-13:00,yes,limited,52.4845367,13.3847889,Tempelhof-Schöneberg,11007007
125,356807869,arcaden apotheke,nan,schönhauser allee,79,10439,,030 44 73 47 52,https://www.arcaden-apotheke-berlin.de,mo-fr 08:30-20:00; sa 09:00-20:00,yes,yes,52.5495274,13.4153133,Pankow,11003003
126,366186442,hutten-apotheke,nan,gotzkowskystraße,1,10555,Moabit,nan,https://www.hutten-apotheke-berlin.de/,mo-fr 08:30-19:00; sa 08:30-13:30,yes,yes,52.5270388,13.3302792,Mitte,11001001
127,366536622,jagow-apotheke,nan,jagowstraße,24,10555,Moabit,nan,nan,mo-th 08:30-19:30; fr 08:30-18:30; sa 08:30-14:00,yes,yes,52.5242051,13.3343198,Mitte,11001001
128,371157962,gethsemane-apotheke,nan,stargarder straße,79,10437,Prenzlauer Berg,+49 30 44653370,https://www.gethsemane-apotheke.de/,mo-fr 09:00-19:00; sa 09:00-15:00,yes,yes,52.547683,13.4146196,Pankow,11003003
129,380498298,dorotheenstadt apotheke,ulrike uhlig,friedrichstraße,151,10117,Mitte,+49 30 20453401,http://www.dorotheenstaedtische-apotheke.de/,"mo-fr 08:00-19:00, sa 09:00-14:00",yes,yes,52.5185603,13.3879579,Mitte,11001001
130,380498345,mediosapotheke,nan,luisenstraße,54/55,10117,,nan,https://www.mediosapotheke.de/,mo-fr 08:00-19:00; sa 09:00-14:00,yes,yes,52.5247199,13.3794578,Mitte,11001001
131,387491865,wilhelminenhof apotheke,nan,wilhelminenhofstraße,51,12459,Oberschöneweide,+49 30 535 02 46,nan,mo-fr 08:00-18:30; sa 08:00-12:30,yes,limited,52.4590312,13.5255932,Treptow-Köpenick,11009009
132,393409421,easyapotheke,nan,kurfürstendamm,110,10711,Halensee,nan,nan,mo-fr 08:30-19:00; sa 09:00-16:00,yes,yes,52.4977192,13.2927797,Charlottenburg-Wilmersdorf,11004004
133,393409422,sky apotheke am kudamm,nan,kurfürstendamm,139,10711,Halensee,nan,nan,mo-fr 08:00-19:00; sa 08:00-13:00,yes,yes,52.4976209,13.2956562,Charlottenburg-Wilmersdorf,11004004
134,399348493,elsen-apotheke,nan,weitlingstraße,73,10317,Rummelsburg,nan,https://www.elsen-apotheke.de/,mo-fr 08:00-19:00; sa 08:00-13:00,yes,yes,52.5047368,13.4953236,Lichtenberg,11011011
135,400912055,apotheke am hugenottenplatz,nan,hugenottenplatz,1,13127,Französisch Buchholz,nan,nan,mo-fr 08:00-19:00; sa 08:00-14:00,yes,yes,52.6066817,13.4199092,Pankow,11003003
136,409760015,apotheke am hochmeisterplatz,nan,westfälische straße,nan,10709,,nan,nan,"mo,tu,th,fr 09:00-18:30; we 09:00-14:00; sa 09:00-13:30",yes,yes,52.4957099,13.2976849,Charlottenburg-Wilmersdorf,11004004
137,409775548,engel apotheke,nico hauffe e.k.,michelstadter weg,50,13587,Hakenfelde,+49 30 3559410,https://www.engel-apotheke-berlin.de/,"mo-fr 08:30-18:30; sa 08:30-13:00; su,ph off",yes,yes,52.5618492,13.2069484,Spandau,11005005
138,409925337,polimedica-apotheke,heike gebauer e.k.,elsterwerdaer platz,1,12683,,+49 30 23254110,http://www.polimedica-apotheke.de/,sa 08:00-13:00; mo-fr 08:00-19:00,yes,yes,52.5053398,13.5582606,Marzahn-Hellersdorf,11010010
139,409925350,apotheke im gesundheitsforum köpenick,dr. ulrike timm e.k.,mahlsdorfer straße,110,12555,Köpenick,+49 30 6571902,http://www.phoenix-apotheke-berlin.de/,mo-th 08:00-19:00; fr 08:00-19:00; ph off; sa 08:00-14:00,yes,yes,52.4592786,13.5795409,Treptow-Köpenick,11009009
140,410135921,reichenberger apotheke,nan,reichenberger straße,110,10999,Kreuzberg,nan,nan,mo-fr 09:00-18:30; sa 09:00-13:30,yes,yes,52.4941966,13.4356179,Friedrichshain-Kreuzberg,11002002
141,410499179,blumberger apotheke,nan,hohensaatener straße,18,12679,Marzahn,+49 30 9316160,https://www.blumbergerapotheke.eu/,mo-fr 08:00-19:00; sa 08:30-13:00; su off,yes,yes,52.5495695,13.5770672,Marzahn-Hellersdorf,11010010
142,411273144,askanier apotheke,nan,streitstraße,11-14,13587,Hakenfelde,+49303352680,https://askanier-apotheke.berlin/,mo-fr 08:30-18:30; sa 09:00-14:00; ph off,yes,yes,52.5576682,13.2082963,Spandau,11005005
143,411273455,hakenfelder apotheke,nan,streitstraße,31,13587,Hakenfelde,+49 30 3553440,nan,"mo,tu,th,fr 08:30-19:00; we 08:30-18:00; sa 08:30-13:00",yes,no,52.5621448,13.2088093,Spandau,11005005
144,412408145,kaiser wilhelm apotheke,nan,richard-von-weizsäcker-platz,1-2,10827,Schöneberg,+49 30 78703000,https://www.kawia.de/,mo-fr 09:00-20:00; sa 09:00-18:00,yes,yes,52.4860593,13.3566766,Tempelhof-Schöneberg,11007007
145,415318053,apotheke am helmholtzplatz,nan,raumerstraße,14a,10437,Prenzlauer Berg,nan,http://www.apotheke-am-helmholtzplatz.de,"mo-fr 08:00-19:00, sa 08:30-13:30",yes,yes,52.5420046,13.4200711,Pankow,11003003
146,416660118,apotheke an der oper,karsten kiepert,bismarckstraße,89,10627,Charlottenburg,nan,nan,"mo-fr 08:30-18:30; sa 09:00-14:00; su,ph off",yes,yes,52.5114912,13.3083188,Charlottenburg-Wilmersdorf,11004004
147,416660134,minerva-apotheke,farhad rasta,wilmersdorfer straße,135,10627,Charlottenburg,+49 30 3124835,nan,"mo-fr 09:00-19:00; sa 09:00-18:00; su,ph off",yes,yes,52.5111671,13.3055221,Charlottenburg-Wilmersdorf,11004004
148,416660138,bong-apotheke,thomas bong e. k.,wilmersdorfer straße,46,10627,Charlottenburg,nan,nan,"mo-fr 08:30-20:00; sa 09:00-20:00; su,ph off",yes,yes,52.5096216,13.3054736,Charlottenburg-Wilmersdorf,11004004
149,416660142,goethe apotheke,sigrun klemp,goethestraße,40,10625,Charlottenburg,nan,nan,mo-fr 08:30-18:30; sa 08:30-14:00,yes,yes,52.5090254,13.3067193,Charlottenburg-Wilmersdorf,11004004
150,419545768,herz apotheke,ihsan vurankaya,badstraße,57,13357,Gesundbrunnen,nan,nan,mo-sa 08:30-22:30; su 10:00-22:30,yes,yes,52.55144,13.3827993,Mitte,11001001
151,427670055,aponeo,konstantin primbas e.k.,frankfurter allee,241,10365,Lichtenberg,+49 30 98694441,https://www.apotheken-umschau.de/apotheken/deutschland/10365/berlin-aponeo-apotheke.html,mo-fr 09:00-18:30; sa 09:00-13:00,yes,yes,52.5120353,13.4967682,Lichtenberg,11011011
152,428114271,central-apotheke,judit gottwald,hindenburgdamm,94a,12203,Lichterfelde,+49 30 8342046,http://www.central-apo-berlin.de,mo-fr 08:30-18:30;sa 08:30-16:00,yes,limited,52.4414214,13.3156473,Steglitz-Zehlendorf,11006006
153,428114289,laurentius-apotheke,nan,hindenburgdamm,76C,12203,Lichterfelde,nan,nan,mo-fr 09:00-18:30; sa 09:00-14:00; su off,yes,limited,52.4476658,13.3150432,Steglitz-Zehlendorf,11006006
154,428293745,apotheke am mierendorffplatz,nan,mierendorffplatz,12-14,10589,Charlottenburg,nan,nan,"mo-fr 08:30-18:30, sa 08:00-13:00",yes,no,52.5255288,13.3050256,Charlottenburg-Wilmersdorf,11004004
155,438089365,apotheke im storchenhof,nan,nan,nan,nan,,nan,nan,mo-fr 08:30-18:30; sa 08:30-13:00,yes,yes,52.548636,13.5040553,Lichtenberg,11011011
156,438098504,euro-apotheke,nan,karl-marx-straße,214,12055,Neukölln,+49 151 41964502,nan,mo-fr 08:30-19:00;sa 09:00-18:00,yes,yes,52.4706903,13.441201,Neukölln,11008008
157,439234903,kristinen-apotheke,nan,nan,nan,nan,,+49 30 645 17 62,https://www.erezept-berlin-treptow-koepenick-kristinenapotheke.de/#,mo-fr 08:00-19:00; sa 09:00-14:00,yes,yes,52.4512997,13.624489,Treptow-Köpenick,11009009
158,439234905,anker-apotheke,nan,nan,nan,nan,,+49306455274,https://brandt-apo.de,mo-fr 08:00-19:00; sa 09:00-13:00,yes,yes,52.4503297,13.6249106,Treptow-Köpenick,11009009
159,440322354,mehringplatz apotheke berlin,nan,mehringplatz,12,10969,,nan,https://www.apotheke-am-mehringplatz.de,mo-fr 08:00-19:00; sa 09:00-14:00,yes,yes,52.499708,13.3912545,Friedrichshain-Kreuzberg,11002002
160,440330654,dafne apotheke,nan,nan,nan,nan,,nan,nan,mo-fr 08:30-19:30; sa 09:30-18:00,yes,yes,52.480346,13.4363242,Neukölln,11008008
161,440332220,neukölln-apotheke,nan,karl-marx-straße,88,12043,Neukölln,nan,nan,"mo-fr 08:30-20:00, sa 10:00-20:00",yes,limited,52.4806677,13.435211,Neukölln,11008008
162,440333191,forum apotheke,nan,karl-marx-straße,80,12043,Neukölln,+49 30 61309031,https://www.forum-apotheke.de/,mo-fr 08:00-20:00; sa 09:00-18:00,yes,yes,52.4814172,13.4341084,Neukölln,11008008
163,440335563,libertas apotheke,nan,karl-marx-straße,16,12043,Neukölln,nan,nan,"mo,tu,th 08:30-19:00; we,fr 08:30-18:30; sa 10:00-14:00",,yes,52.4850824,13.4266376,Neukölln,11008008
164,440338666,wilhelm busch apotheke,petra lorenz,karl-marx-straße,132,12043,Neukölln,+49 30 68809443,https://www.wilhelm-busch-apo.de/,"mo-fr 08:30-19:00, sa 08:30-18:00",yes,limited,52.4773129,13.4384935,Neukölln,11008008
165,440340785,bären apotheke,nan,karl-marx-straße,188,12043,Neukölln,+49 30 68809574,http://www.pharmland.de/index.php,"mo,tu,th 08:30-19:00; we 09:00-19:00; fr 08:30-18:30; sa 09:00-15:00",yes,no,52.4734058,13.4405484,Neukölln,11008008
166,441512663,ulrich-apotheke,nan,hermannstraße,nan,12049,,+49 30 62709373,nan,mo-fr 08:30-18:30; sa 08:30-13:30,yes,yes,52.4759595,13.4265886,Neukölln,11008008
167,441514950,arminius apotheke,nan,nan,nan,nan,,nan,nan,mo-fr 08:30-19:00; sa 08:30-14:00,yes,limited,52.4794042,13.4257606,Neukölln,11008008
168,441878984,sonnenblumen apotheke,nan,nan,nan,nan,,nan,nan,mo-fr 08:30-19:00; sa 08:30-14:00,yes,yes,52.4699293,13.4631867,Neukölln,11008008
169,441878991,hindenburg-apotheke,laia saatkari,schudomastraße,46,12055,,+49 30 6875056,nan,mo-fr 08:30-18:30; sa 08:30-13:00,yes,limited,52.4740953,13.4496732,Neukölln,11008008
170,442351144,pelikan apotheke,nan,tempelhofer damm,139,12099,Tempelhof,+49 30 7579050,https://www.pelikanapotheke.de/,"mo-th 08:30-19:30; we,fr 08:30-18:30; sa 08:00-14:00",yes,yes,52.4669292,13.3859911,Tempelhof-Schöneberg,11007007
171,442390303,hafen-apotheke,nan,tempelhofer damm,215,12099,Tempelhof,nan,https://www.hafen-apotheke-berlin-app.de/,mo-fr 08:30-18:30; sa 08:30-13:30,yes,yes,52.4568204,13.3844542,Tempelhof-Schöneberg,11007007
172,442393071,fortunatus apotheke,nan,mariendorfer damm,68,12109,Mariendorf,+49 30 7061780,https://www.fortunatus-apotheke.de/,mo-fr 08:30-19:00; sa 08:30-14:00,yes,yes,52.4466168,13.3852622,Tempelhof-Schöneberg,11007007
173,442394335,akazien apotheke,nan,mariendorfer damm,73,12109,Mariendorf,+49 30 76106790,http://www.akazien-apotheke-mariendorf.de/,mo-fr 08:30-18:30,yes,limited,52.4461252,13.385909,Tempelhof-Schöneberg,11007007
174,442394341,markt apotheke,nan,mariendorfer damm,84,12109,Mariendorf,nan,nan,"mo-fr 08:30-18:30, sa 08:30-13:00",yes,no,52.4451968,13.3856432,Tempelhof-Schöneberg,11007007
175,442705525,hermann apotheke,nan,hermannstraße,116,12051,Neukölln,+493062981014,nan,"mo,tu,th 09:00-18:30, sa 09:00-13:00, we,fr 09:00-18:00",yes,yes,52.4665033,13.4316536,Neukölln,11008008
176,443464250,glasow-apotheke,ralf katzur,hermannstraße,144,12051,Neukölln,nan,nan,"mo-tu,th 09:00-18:30; we,fr 09:00-18:00; sa 09:00-13:00",yes,yes,52.4639518,13.4336361,Neukölln,11008008
177,443604961,apotheke zum goldenen einhorn,nan,gneisenaustraße,92,10961,,+49 30 6917430,nan,"mo,tu,th 08:30-19:00; we,fr 08:30-18:30; sa 09:30-13:00",yes,no,52.4919031,13.3942991,Friedrichshain-Kreuzberg,11002002
178,445821371,orchideen-apotheke,nan,nan,nan,nan,,nan,nan,"mo,tu,th 08:30-18:30; we,fr 08:30-18:00; sa 08:30-13:00",yes,yes,52.4564405,13.4372988,Neukölln,11008008
179,445821378,luisen-apotheke,nan,britzer damm,107,12347,,+49 30 6008640,nan,"mo-th 09:00-18:30; we,fr 09:00-18:00; sa 09:30-12:30",yes,yes,52.4533259,13.438621,Neukölln,11008008
180,446759637,brillant apotheke,nan,kurfürstendamm,71,10709,Charlottenburg,nan,nan,mo-fr 09:00-20:00; sa 09:00-19:00,yes,yes,52.5001376,13.3065427,Charlottenburg-Wilmersdorf,11004004
181,448591443,palmen-apotheke,christiane koch,schlesische straße,37,10997,Kreuzberg,nan,nan,mo-fr 09:00-18:30; sa 11:00-13:00,yes,no,52.4997229,13.4448618,Friedrichshain-Kreuzberg,11002002
182,448811294,pasteur-apotheke,nan,kottbusser damm,nan,10967,Kreuzberg,nan,nan,mo-fr 09:00-18:30; sa 09:00-14:00,yes,no,52.4901283,13.4235773,Friedrichshain-Kreuzberg,11002002
183,448913486,cecilien-apotheke,nan,gaudystraße,1,10437,Prenzlauer Berg,nan,nan,mo-fr 09:00-18:00; sa 10:00-14:00; ph off,yes,yes,52.546825,13.4126429,Pankow,11003003
184,448915579,arminius-apotheke,nan,schönhauser allee,172A,nan,,nan,nan,mo-fr 08:00-19:00; sa 08:00-13:00,yes,yes,52.5329218,13.4122894,Pankow,11003003
185,452946886,koala-apotheke,nan,weißenseer weg,36,13055,Alt-Hohenschönhausen,+49 30 97105750,https://www.koalaapotheke.de/,mo-fr 08:00-19:00; sa 08:00-13:00,yes,yes,52.5359237,13.4743188,Lichtenberg,11011011
186,452951395,krumme lanke apotheke,michaela kretzschmar,fischerhüttenstraße,64,14163,Zehlendorf,+49 30 80902884,https://www.krumme-lanke-apotheke.de/,mo-fr 08:30-19:00; sa 08:30-14:00,yes,yes,52.4421581,13.2408947,Steglitz-Zehlendorf,11006006
187,453013649,apotheke am fennpfuhl,nan,franz-jacob-straße,10,10369,Fennpfuhl,nan,nan,mo-th 08:00-19:00; fr 08:00-18:00; sa 08:30-12:30,yes,yes,52.5280106,13.4679731,Lichtenberg,11011011
188,454167250,bartels apotheke,nan,nan,nan,nan,,+49 30 47301356,https://www.bartels-apotheke.de/,mo-fr 08:00-19:00; sa 08:00-13:00,yes,yes,52.558703,13.413785,Pankow,11003003
189,454216844,koala apotheke,nan,breite straße,20,13187,Pankow,nan,nan,mo-fr 08:00-20:00; sa 09:00-20:00,yes,yes,52.569669,13.4033014,Pankow,11003003
190,454234943,rusche-apotheke,ursula stübner,ruschestraße,103,10365,Lichtenberg,nan,nan,mo-th 08:00-18:30; fr 08:00-18:00; sa 09:00-13:00,yes,no,52.5152094,13.4853643,Lichtenberg,11011011
191,456388989,sterndamm-apotheke,alexander rogowski e.k.,sterndamm,11,12487,Johannisthal,nan,nan,"mo-th 08:00-19:00; we,fr 08:00-18:30; sa 09:00-12:30",yes,yes,52.452556,13.5094857,Treptow-Köpenick,11009009
192,456389100,apotheke johannisthal,nan,nan,nan,nan,,nan,nan,mo-fr 08:00-18:30; sa 09:00-13:00,yes,yes,52.4458331,13.5060772,Treptow-Köpenick,11009009
193,456414245,pfauen-apotheke,nan,nan,nan,nan,,nan,nan,mo-fr 08:00-18:30; sa 08:30-13:30,yes,yes,52.4412581,13.4588411,Neukölln,11008008
194,456421034,fontane-apotheke,nan,rudower straße,nan,12351,Britz,nan,nan,"mo-fr 08:00-13:00,14:00-18:30; sa off",yes,yes,52.4426146,13.4568396,Neukölln,11008008
195,458915641,adler apotheke,nan,breite straße,41,13187,Pankow,+493047539300,https://adlerapotheke-berlin.de/,mo-fr 08:00-18:30; sa 09:00-14:00,yes,limited,52.5707966,13.4103966,Pankow,11003003
196,459166572,zieten apotheke,nan,gerichtstraße,31,13347,Wedding,nan,https://www.zietenapotheke.de,mo-fr 08:30-18:30; sa 09:00-13:00,yes,yes,52.5449696,13.3686333,Mitte,11001001
197,459650830,easy apotheke,nan,kottbusser damm,78,10967,Neukölln,030 69814634,https://kottbusser-damm.easyapotheken.de/,mo-fr 09:00-20:00; sa 09:00-19:00; su off,yes,yes,52.491228,13.4234937,Friedrichshain-Kreuzberg,11002002
198,459653935,paul-lincke-apotheke,johannes harter,nan,nan,nan,,+49 30 6181020,nan,mo-fr 08:00-19:00; sa 08:30-16:00,yes,yes,52.4966636,13.4199367,Friedrichshain-Kreuzberg,11002002
199,459673262,lavendel apotheke,nan,blankenburger straße,1,13156,Niederschönhausen,nan,nan,"mo-th 09:00-18:30; fr 09:00-18:00; sa,su off",yes,yes,52.5816372,13.4045453,Pankow,11003003
200,459785177,steinbock-apotheke,nan,nan,nan,nan,,nan,nan,"mo-fr 09:00-18:30, sa 09:00-13:00",yes,no,52.5595433,13.3354795,Mitte,11001001
201,459799715,müller-apotheke,nan,müllerstraße,156C,nan,,+493046604488,nan,mo-fr 08:30-19:00; sa 09:00-16:00,yes,yes,52.545171,13.3608309,Mitte,11001001
202,460523245,hohenzollern-apotheke,h.w. kopsch,pichelsdorfer straße,101,13595,Wilhelmstadt,+49 30 3318447,https://www.hozoapo.de/,nan,yes,yes,52.5241148,13.1973279,Spandau,11005005
203,461626277,europa apotheke,katrin peter e. k.,karl-marx-allee,90a,10243,Friedrichshain,nan,nan,"mo-fr 08:30-18:30, sa 08:30-13:00",yes,yes,52.5164022,13.4406999,Friedrichshain-Kreuzberg,11002002
204,472371488,vivapotheke in hellersdorf,nan,hellersdorfer straße,237,12627,Hellersdorf,nan,http://www.apo-berlin.de/#4rdpage,nan,,yes,52.5365149,13.603422,Marzahn-Hellersdorf,11010010
205,475236781,tasmania apotheke,nan,emser straße,105,12051,Neukölln,+49 30 62 57 035,https://www.tasmania-apotheke.de/,mo-fr 08:30-19:30; sa 08:30-14:00,yes,yes,52.468338,13.4305501,Neukölln,11008008
206,476243460,luna apotheke,nan,am treptower park,40,12435,Plänterwald,+49 30 5369810 0,https://www.luna-apotheke-berlin.de/,mo-fr 08:30-18:30; sa 08:30-13:00,yes,yes,52.4857173,13.4660642,Treptow-Köpenick,11009009
207,482797544,sabelus xxl apotheke,nan,buntzelstraße,117,12526,Bohnsdorf,+49306763313,https://www.sabelus.de/apotheke-berlin-bohnsdorf-621444.html,mo-fr 8:00-19:00;sa 8:00-13:00,yes,limited,52.4010732,13.5617695,Treptow-Köpenick,11009009
208,499046359,kastanien-apotheke pankow,nan,kastanienallee,37-38,13158,Rosenthal,+49 30 91207990,https://www.kastanien-apotheke-pankow.de/,mo-sa 08:00-20:00,yes,yes,52.5920493,13.3830878,Pankow,11003003
209,499963012,stolpe-apotheke,bianca dabbagh e.k.,chausseestraße,13,14109,Wannsee,nan,nan,mo-fr 08:30-18:30; we 08:30-18:00; sa 08:30-13:00,yes,no,52.4157499,13.1456517,Steglitz-Zehlendorf,11006006
210,502409526,baumschulen-apotheke,nan,baumschulenstraße,29-31,12437,Baumschulenweg,+49 30 64167777,https://www.baumschulen-apotheke-berlin.de/,we-fr 08:00-19:00; sa 08:00-15:00,yes,yes,52.4642316,13.4857268,Treptow-Köpenick,11009009
211,505990860,rathaus apotheke,nan,großbeerenstraße,26,10963,,+49 30 2158084,https://www.apotheken.de/10963/berlin/rathaus-apotheke-kreuzberg,mo-fr 09:00-18:30; sa 09:00-14:00; ph off,yes,yes,52.4943559,13.3835242,Friedrichshain-Kreuzberg,11002002
212,506338850,farma-plus,nan,britzer damm,30,12347,Britz,nan,nan,"mo,tu,th,fr 09:00-18:00; we 09:00-14:00; sa off",yes,yes,52.46018,13.4350711,Neukölln,11008008
213,508423804,hagen apotheke,nan,hohenzollerndamm,94,14199,Schmargendorf,+49 30 8264067,nan,mo-fr 08:30-18:30;sa 08:30-13:30,yes,no,52.4773766,13.2811924,Charlottenburg-Wilmersdorf,11004004
214,510624102,albrecht-apotheke,heike borchardt,tempelhofer damm,179,12099,Tempelhof,+49 30 7518014,https://www.albrecht-apotheke-berlin.de/,"mo,tu,th 08:30-19:00; we,fr 08:30-18:30; sa 08:30-14:00; su,ph off",yes,yes,52.4609874,13.38514,Tempelhof-Schöneberg,11007007
215,516609077,gorki-apotheke,nan,gorkistraße,3,13507,Tegel,nan,nan,"mo-fr 08:00-20:00, sa 08:00-18:00",yes,yes,52.5898484,13.2842663,Reinickendorf,11012012
216,518011179,adler-apotheke,nan,berliner straße,91,13507,Tegel,nan,nan,"mo-fr 08:30-19:00, sa 09:30-13:30",yes,yes,52.5876355,13.2860212,Reinickendorf,11012012
217,520518100,opernviertel-apotheke,nan,bismarckstraße,30,10625,Charlottenburg,nan,nan,mo-fr 08:00-18:30; sa 08:00-13:00,yes,yes,52.5120981,13.3105177,Charlottenburg-Wilmersdorf,11004004
218,527503229,sankt rochus apotheke,nan,schlangenbader straße,25,14197,Wilmersdorf,+49 30 8236041,nan,mo-fr 08:30-18:30; sa 08:30-13:00,yes,yes,52.4728776,13.3071455,Charlottenburg-Wilmersdorf,11004004
219,527503232,rheinland apotheke,nan,spessartstraße,13,14197,Wilmersdorf,+49 30 82793412,nan,mo-fr 08:30-18:30; sa 08:30-13:00,yes,yes,52.4745711,13.3146216,Charlottenburg-Wilmersdorf,11004004
220,527873296,normannen-apotheke,nan,grünauer straße,"7,8",12524,Altglienicke,+49 30 6728354,https://www.normannen-apotheke-berlin.de,mo-fr 08:00-18:30; sa 08:30-13:00;ph off,yes,no,52.4195999,13.5403651,Treptow-Köpenick,11009009
221,528643412,elefanten apotheke,nan,nan,nan,nan,,nan,nan,"mo-fr 08:30-18:30, sa 09:00-14:00",yes,yes,52.4247473,13.5276421,Treptow-Köpenick,11009009
222,529805424,europa-apotheke,nan,schnellerstraße,21,12439,,nan,nan,mo-sa 09:00-19:00,yes,yes,52.4565863,13.5089986,Treptow-Köpenick,11009009
223,530687969,sano apotheke,omar obaid,nan,nan,nan,,nan,nan,mo-fr 08:00-19:00; sa 10:00-19:00; ph off,yes,no,52.4473124,13.5758981,Treptow-Köpenick,11009009
224,534879643,hohenzollerndamm apotheke,dr. martin krause,hohenzollerndamm,56,14199,Schmargendorf,nan,http://www.hohenzollerndamm-apo.de/,"mo-th 08:30-18:30; we,fr 08:30-18:00; sa 08:30-13:00",yes,yes,52.4866689,13.2975626,Charlottenburg-Wilmersdorf,11004004
225,538057637,apotheke im forum köpenick,nicola runge e.k.,bahnhofstraße,33-38,12555,,+49 30 65016200,https://www.apotheke-im-forum-koepenick.de/,"mo-fr 08:00-20:00, sa 09:00-20:00; ph off",yes,yes,52.4581201,13.5786266,Treptow-Köpenick,11009009
226,564123162,nibelungen-apotheke,nan,gotlindestraße,49,10365,Lichtenberg,nan,nan,mo-fr 08:00-19:00; sa 08:00-13:00,yes,yes,52.5181103,13.496335,Lichtenberg,11011011
227,565034853,columbia apotheke,nan,kaiserdamm,13,14057,Charlottenburg,+49 30 32678610,http://www.columbia-apotheke.de/,mo-fr 08:30-18:30; sa 08:30-13:30,yes,limited,52.5106646,13.288557,Charlottenburg-Wilmersdorf,11004004
228,571800623,st. hubertus,nan,marienfelder allee,47,12277,Marienfelde,+493072320615,https://www.apotheke-marienfelde.de/,"mo,tu,th,fr 08:30-18:30; we 08:30-18:00; sa 08:30-13:00",yes,yes,52.4215579,13.3702571,Tempelhof-Schöneberg,11007007
229,573452398,apotheke in der volkradstraße,nan,nan,nan,nan,,nan,nan,mo-fr 08:30-18:30; sa 08:30-13:00,,yes,52.499528,13.5073798,Lichtenberg,11011011
230,576608994,apotheke im gesundbrunnen-center,nan,badstraße,4,13357,,03049760419,https://www.premium-apotheken-berlin.de/,mo-sa 09:00-20:00,yes,yes,52.5499687,13.3891501,Mitte,11001001
231,581322478,brunnen apotheke,nan,badstraße,11,13357,Gesundbrunnen,nan,nan,"mo,tu,th 08:30-19:00; we 08:30-15:00; fr 08:30-18:30",yes,yes,52.5503414,13.3855631,Mitte,11001001
232,582854286,ursus-apotheke,nan,marienfelder allee,75,12277,Marienfelde,nan,https://www.ursus-apotheke-berlin.de/,mo-fr 08:30-18:00; sa 08:30-13:00,yes,yes,52.4193408,13.3684082,Tempelhof-Schöneberg,11007007
233,585143218,schwarze adler apotheke,nan,prinzessinnenstraße,2,12307,Lichtenrade,+49 30 7446063,nan,nan,yes,no,52.386944,13.3954661,Tempelhof-Schöneberg,11007007
234,585144206,bahnhof-apotheke,nan,bahnhofstraße,26,12305,Lichtenrade,nan,nan,mo-fr 08:30-18:30; sa 08:30-13:00; ph off,yes,no,52.3868901,13.3997371,Tempelhof-Schöneberg,11007007
235,585473264,lessing apotheke,nan,reinickendorfer straße,12,13347,,+49 30 4652145,https://www.lessing-apotheke-berlin.de/,mo-fr 08:30-19:00; sa 09:00-14:00; su closed,yes,yes,52.5420876,13.3701655,Mitte,11001001
236,588141093,linden apotheke,nan,bahnhofstraße,52,12305,,+49 30 7445082,https://www.linden-apotheke-lichtenrade.de/,mo-fr 08:00-18:30; sa 08:30-13:30,yes,limited,52.3865399,13.404185,Tempelhof-Schöneberg,11007007
237,588552725,katharinen apotheke,nan,nan,nan,nan,,nan,nan,mo-fr 08:30-19:00; sa 09:00-13:00,yes,no,52.5494413,13.4553976,Pankow,11003003
238,588552733,medicus apotheke,nan,berliner allee,82,13088,Weißensee,+49309250220,http://www.medicus-apotheke.de/06_start/index.html,mo-fr 08:00-19:30; sa 08:30-14:00,yes,yes,52.5492679,13.4562626,Pankow,11003003
239,588557536,sky apotheke am antonplatz,nan,langhansstraße,1,13086,Weißensee,nan,https://www.apotheke-am-antonplatz.de/,mo-fr 08:00-20:00; sa 09:00-14:00,yes,yes,52.5487495,13.4506766,Pankow,11003003
240,592122156,schlachtensee apotheke,dr. jutta wenger,breisgauer straße,7,14129,Schlachtensee,+49 30 80902191,http://www.schlachtensee-apotheke.de/,mo-fr 08:30-19:00; sa 08:30-14:00,yes,limited,52.4386509,13.2155816,Steglitz-Zehlendorf,11006006
241,593781884,lankwitz-apotheke,nan,kaiser-wilhelm-straße,68,12247,Lankwitz,+49 30 7749254,https://www.lankwitz-apotheke-berlin.de,mo-fr 08:30-18:30; sa 08:30-13:30,yes,no,52.4352813,13.3437222,Steglitz-Zehlendorf,11006006
242,595536654,mediosapotheke hackescher markt,nan,rosenthaler straße,46-47,10178,Mitte,nan,nan,mo-fr 08:00-19:00; sa 09:00-19:00,yes,no,52.5245938,13.4032424,Mitte,11001001
243,602531459,wedding apotheke,dr. axel müller-de ahna e.k.,müllerstraße,139,13353,Wedding,nan,https://www.wedding-apotheke.de/,mo-fr 08:15-20:00; sa 08:30-16:00,yes,yes,52.5492948,13.353572,Mitte,11001001
244,604938266,apotheke im karstadt,nan,nan,nan,nan,,+49 30 62736580,nan,mo-sa 9:00-20:00,yes,yes,52.4874834,13.4238942,Neukölln,11008008
245,608524481,prenz’l-apotheke,nan,schönhauser allee,81,10439,Prenzlauer Berg,nan,nan,mo-fr 08:00-20:00; sa 08:30-20:00; ph off,yes,yes,52.550241,13.4142615,Pankow,11003003
246,609142032,elch apotheke,nan,johannisthaler chaussee,321,nan,,+49 30 60258313,nan,mo-fr 08:00-20:00; sa 09:00-20:00,yes,yes,52.4292565,13.4536256,Neukölln,11008008
247,609146610,gropius-apotheke,nan,imbuschweg,40,12353,Gropiusstadt,nan,nan,nan,yes,yes,52.42958,13.4570794,Neukölln,11008008
248,610199208,tempelritter-apotheke,nan,bahnhofstraße,60,12305,Lichtenrade,+49 30 76403454,https://www.tempelritter-apotheke.de/,mo-fr 08:00-18:30; sa 08:30-13:00,yes,yes,52.3865161,13.4066989,Tempelhof-Schöneberg,11007007
249,616284712,apotheke am rathaus,sliman dirki,möllendorffstraße,111,10367,Lichtenberg,nan,nan,"mo-fr 08:00-19:00, sa 09:00-14:00; ph off",yes,limited,52.5161624,13.4787925,Lichtenberg,11011011
250,621584928,gerhart-hauptmann-apotheke,nan,fritz-reuter-allee,181,12359,Britz,+49 30 6019551,nan,mo-fr 08:30-19:00; sa 08:30-13:00,yes,yes,52.4373715,13.4477689,Neukölln,11008008
251,627415668,gesundbrunnen- apotheke,nan,badstraße,64,13357,Gesundbrunnen,nan,nan,mo-fr 08:30-18:30; sa 09:00-13:00,yes,yes,52.55057,13.3842488,Mitte,11001001
252,630214264,apotheke an der rhinstraße,nan,nan,nan,nan,,nan,nan,mo-sa 08:30-19:30,yes,yes,52.5136166,13.5179566,Lichtenberg,11011011
253,630214267,bahnhof-apotheke,nan,nan,nan,nan,,nan,nan,mo-fr 08:00-19:00; sa 08:00-14:00,yes,yes,52.5137587,13.5198414,Lichtenberg,11011011
254,631755396,elch-apotheke,nan,ludolfingerplatz,2,13465,Frohnau,+49 30 40632891,https://www.elch-apotheke-frohnau.de/,mo-fr 08:30-19:00; sa 08:30-14:00,yes,yes,52.6331147,13.2887685,Reinickendorf,11012012
255,635821864,pantherapotheke,nan,scheelestraße,140,12209,Lichterfelde,nan,nan,mo-fr 08:30-18:30; sa 08:30-13:30,yes,yes,52.412393,13.3208889,Steglitz-Zehlendorf,11006006
256,636005023,rathaus-apotheke schmargendorf,nan,berkaer straße,6,14199,Schmargendorf,+49 30 8261586,nan,mo-fr 08:30-18:30; sa 08:30-14:00,yes,yes,52.4767049,13.288994,Charlottenburg-Wilmersdorf,11004004
257,638953355,weitling-apotheke,nan,weitlingstraße,58,10317,,+49 30 52279730,https://www.weitling-apotheke.de/,mo-fr 08:00-19:00; sa 08:00-13:00; su 08:00-16:00,yes,no,52.5060983,13.4957547,Lichtenberg,11011011
258,644658975,jülicher apotheke,nan,jülicher straße,27,13357,Gesundbrunnen,nan,nan,"mo,tu,th,fr 09:00-18:00; we 09:00-14:00; sa 08:30-13:00",yes,yes,52.5539606,13.3923404,Mitte,11001001
259,645677466,die neue apotheke,nan,turmstraße,77,10551,Moabit,nan,nan,mo-fr 08:00-19:00; sa 09:00-18:00,yes,yes,52.5265328,13.3357313,Mitte,11001001
260,645677469,arminius apotheke,nan,turmstraße,38,10551,Moabit,nan,nan,mo-fr 08:30-18:30; sa 08:30-14:00,yes,yes,52.5268142,13.3365504,Mitte,11001001
261,646579859,ansbacher apotheke,nan,ansbacher straße,13,10787,Schöneberg,nan,https://www.ansbacher-apotheke.de/,mo-fr 08:30-19:00; sa 09:00-16:00,yes,yes,52.5034922,13.3429298,Tempelhof-Schöneberg,11007007
262,647943536,hubertus apotheke am salzufer,nan,salzufer,13/14,10587,Charlottenburg,nan,nan,"mo-fr 08:30-18:00; sa,su off",yes,yes,52.5183557,13.3228681,Charlottenburg-Wilmersdorf,11004004
263,650633578,ludwigs-apotheke,nan,essener straße,16,10555,,+493039903655,https://www.ludwigs-apotheke-berlin-app.de/,mo-fr 09:00-19:00; sa 09:00-14:00,yes,yes,52.523569,13.3363347,Mitte,11001001
264,653256888,apotheke am asternplatz,nan,asternplatz,3,12203,Lichterfelde,+49 30 84109303,https://www.apothekeamasternplatz-berlin.de/,mo-fr 09:00-18:30; sa 09:00-13:30,yes,yes,52.4488384,13.3038018,Steglitz-Zehlendorf,11006006
265,653289588,easyapotheke,nan,storkower straße,5,10409,Prenzlauer Berg,nan,nan,mo-fr 08:30-19:00; sa 09:00-16:00,yes,yes,52.5410448,13.4403303,Pankow,11003003
266,656006001,düppel apotheke,nan,ludwigsfelder straße,53,14165,Zehlendorf,+49 30 8028981,nan,mo-fr 08:30-18:30; sa 08:30-13:00,yes,yes,52.4234139,13.2419523,Steglitz-Zehlendorf,11006006
267,656210648,mariannen-apotheke,nan,brunsbütteler damm,271,13591,Staaken,+49 30 3664364,https://www.mariannen-apo-berlin.de/,"mo-fr 08:00-19:00; sa 08:00-14:00; su,ph off",yes,yes,52.5325457,13.1556432,Spandau,11005005
268,658444284,apotheke am augustenburger platz,nan,triftstraße,37,13353,Wedding,nan,http://www.hauptstadt-apotheke.de/,mo-fr 09:00-19:00; sa 09:00-14:00,yes,yes,52.541849,13.3503744,Mitte,11001001
269,658612646,schildhorn apotheke,nan,schloßstraße,19,12163,Steglitz,nan,nan,"mo-sa 09:00-20:00; su,ph off",yes,yes,52.4607968,13.3241522,Steglitz-Zehlendorf,11006006
270,661092195,atlantis-apotheke,nan,wilmersdorfer straße,31,10585,Charlottenburg,+49 30 3422926,https://www.atlantis-apotheke-berlin-app.de/,"mo-fr 09:00-19:00, sa 09:00-15:00",yes,yes,52.5130881,13.3048087,Charlottenburg-Wilmersdorf,11004004
271,661126965,flora-apotheke,nan,nan,nan,nan,,nan,nan,mo-fr 08:30-18:30; sa 08:30-13:30,yes,yes,52.5172034,13.3043479,Charlottenburg-Wilmersdorf,11004004
272,663008203,karlsbader apotheke,nan,karlsbader straße,18,14193,Schmargendorf,+49 30 83224950,nan,mo-fr 08:30-19:00; sa 09:00-14:00,yes,no,52.4780536,13.2821088,Charlottenburg-Wilmersdorf,11004004
273,665535053,pestalozzi apotheke,sarab ridha,kaiser-friedrich-straße,45a,10627,Charlottenburg,nan,nan,mo-fr 08:30-19:00; sa 08:30-14:00,yes,no,52.5080757,13.3018276,Charlottenburg-Wilmersdorf,11004004
274,666388871,erasmus-apotheke,nan,hohenzollerndamm,47a,10713,Halensee,nan,nan,mo-fr 08:30-18:30; sa 08:30-13:00,yes,no,52.4886003,13.3013735,Charlottenburg-Wilmersdorf,11004004
275,666961028,siemensstadt apotheke,nan,toeplerstraße,35,13627,Charlottenburg-Nord,+49 30 3822076,nan,mo-fr 08:30-18:30; sa 08:30-13:30,yes,yes,52.5379148,13.2799585,Charlottenburg-Wilmersdorf,11004004
276,667211329,fürstenplatz-apotheke,nan,nan,nan,nan,,nan,nan,"mo,tu,th,fr 08:00-19:30; sa 09:00-14:00; we 08:00-14:00",yes,yes,52.5123167,13.2653691,Charlottenburg-Wilmersdorf,11004004
277,667211352,quant apotheke,nan,reichsstraße,105,14052,Westend,+493030823363,https://www.quant-apotheke.de/,"mo,tu,th 08:00-19:00; we,fr 08:00-18:00; sa 09:00-13:00",yes,yes,52.510638,13.2698479,Charlottenburg-Wilmersdorf,11004004
278,667211375,raphael-apotheke,inh. kristin kneuß e.k.,reichsstraße,36,14052,Westend,nan,https://www.raphael-apo.de,"mo-fr 08:30-18:30,sa 08:30-13:00",,yes,52.5191931,13.2572734,Charlottenburg-Wilmersdorf,11004004
279,667211386,reichs-apotheke,nan,nan,nan,nan,,nan,nan,mo-fr 08:00-19:00; sa 08:00-14:00,yes,limited,52.5158753,13.2609904,Charlottenburg-Wilmersdorf,11004004
280,667211398,apotheke am steubenplatz,nan,reichsstraße,22,14052,,nan,nan,mo-fr 09:00-19:00; sa 09:00-13:30,yes,yes,52.5160655,13.2616014,Charlottenburg-Wilmersdorf,11004004
281,668246090,barbara-apotheke,nan,ladenstraße,9-10,14169,Zehlendorf,+49 30 8134088,https://www.barbara-apotheke-berlin.de/,mo-fr 08:30-18:30; sa 08:30-13:00,yes,limited,52.4497045,13.2530168,Steglitz-Zehlendorf,11006006
282,668899440,apotheke am tierpark,nan,rummelsburger straße,13,10315,,+493051591623,https://www.apotheke-am-tierpark.de/,mo-fr 08:00-18:30; sa 09:00-12:00,yes,yes,52.504119,13.5124502,Lichtenberg,11011011
283,670658040,königin-luise-apotheke,nan,bülowstraße,23,10783,,nan,nan,mo-fr 08:30-20:00; sa 08:30-14:00,yes,yes,52.4977903,13.3609228,Tempelhof-Schöneberg,11007007
284,671210857,annen-apotheke,nan,ernststraße,62,13509,Borsigwalde,+493043566486,https://www.annen-apotheke-borsigwalde.de/,mo-fr 08:30-18:30; sa 08:30-13:00; ph off,yes,no,52.58365,13.301616,Reinickendorf,11012012
285,671390314,vitacura-apotheke,nan,marchwitzastraße,29 b,12681,Marzahn,nan,https://www.vitacura-apotheke-berlin.de/,mo-fr 08:00-19:00; sa 09:00-13:00,yes,yes,52.5235741,13.5438535,Marzahn-Hellersdorf,11010010
286,671488820,apotheke am s-bahnhof storkower straße,sylke möller,hermann-blankenstein-straße,38,10249,Prenzlauer Berg,nan,nan,mo-sa 09:00-18:00,yes,yes,52.5239265,13.4623091,Pankow,11003003
287,671696780,westend - apotheke,nan,spandauer damm,130,14050,,nan,nan,mo-fr 08:30-18:00; sa 09:00-12:00,yes,yes,52.5185444,13.2787702,Charlottenburg-Wilmersdorf,11004004
288,674086086,kronen-apotheke,nan,schönwalder straße,29,13585,Spandau,+49 30 35503630,https://www.kronen-apotheke-spandau.de/,nan,yes,yes,52.5480636,13.2013519,Spandau,11005005
289,674316062,gervinus-apotheke,nan,wilmersdorfer straße,106,10629,,nan,nan,mo-fr 08:30-19:00; sa 08:30-18:00,yes,no,52.5044892,13.3075551,Charlottenburg-Wilmersdorf,11004004
290,678295768,waldsee-apotheke,nan,berliner straße,41,13467,Hermsdorf,+49 30 4041045,http://www.waldsee-apotheke.de,nan,yes,yes,52.6208593,13.3136912,Reinickendorf,11012012
291,689563385,christophorus-apotheke,nan,schloßstraße,88,12163,Steglitz,+49 30 7912787,nan,mo-fr 08:30-19:00; sa 09:00-18:00,yes,limited,52.4576143,13.3217071,Steglitz-Zehlendorf,11006006
292,691484619,althoff-apotheke,apothekerin daniela stoepel e.k.,bergstraße,9,12169,Steglitz,nan,nan,mo-fr 08:30-18:30; sa 08:30-13:00,yes,yes,52.4580136,13.3299507,Steglitz-Zehlendorf,11006006
293,691484670,dr. krachts apotheke,abdolreza morad-reza,rheinstraße,52a,12161,Friedenau,+49 30 8515565,http://drkrachtsapotheke.de/,mo-fr 08:30-19:00; sa 09:00-16:00,yes,no,52.4681185,13.3320209,Tempelhof-Schöneberg,11007007
294,699533239,gartenstadt apotheke,nan,lieselotte-berger-platz,9,12355,Rudow,+4930 66920324,nan,mo-fr 08:30-18:30; sa 08:30-13:00,yes,limited,52.4041242,13.5072138,Neukölln,11008008
295,699538009,apotheke alt-rudow,nan,alt-rudow,26,12357,Rudow,+49 30 6635068,https://www.apotheke-alt-rudow-app.de/,"mo-fr 08:00-18:30, sa 08:00-14:00",yes,yes,52.4201063,13.4920406,Neukölln,11008008
296,703042593,paracelsus apotheke,nan,neuköllner straße,208,12357,,nan,https://www.paracelsus-apotheke-berlin.de/,mo-fr 08:30-18:00; sa 08:00-14:00,yes,no,52.4292698,13.4779131,Neukölln,11008008
297,703802174,meraner apotheke,nan,meraner straße,16,10825,Schöneberg,+49 30 8536013,https://www.meraner-apotheke.de/,mo-fr 08:30-19:00; sa 08:30-13:00,yes,yes,52.4866223,13.3386726,Tempelhof-Schöneberg,11007007
298,715203766,möwen-apotheke,nan,helgolandstraße,1,14199,,nan,nan,mo-fr 08:00-18:30; sa 09:00-13:00,yes,yes,52.4729719,13.2991581,Charlottenburg-Wilmersdorf,11004004
299,715203882,fortuna-apotheke,nan,uhlandstraße,86,10717,Wilmersdorf,+49308616011,https://www.apotheken.de/club/10717/fortuna-apotheke/,nan,yes,yes,52.4888204,13.3224732,Charlottenburg-Wilmersdorf,11004004
300,715203887,josephinen apotheke,nan,uhlandstraße,79a,nan,,nan,nan,nan,yes,yes,52.4901513,13.3227162,Charlottenburg-Wilmersdorf,11004004
301,715911607,suarez-apotheke,nelli smachtin,suarezstraße,64,14057,Charlottenburg,nan,nan,mo-fr 08:30-19:00; sa 09:00-15:00,yes,yes,52.5103771,13.2975749,Charlottenburg-Wilmersdorf,11004004
302,718143915,apotheke am funkturm,nan,neue kantstraße,18,14057,Charlottenburg,+49 30 3216761,https://www.apoamfunkturm.de/,"mo,tu,th,fr 08:30-18:30; we 08:30-18:00; sa 08:30-13:00",yes,no,52.5063159,13.2842068,Charlottenburg-Wilmersdorf,11004004
303,730172940,goeben-apotheke,mojgan yousefi kamangar e.k.,goebenstraße,15a,10783,Schöneberg,+49 30 2162454,https://www.goeben-apotheke.de,mo-fr 09:00-18:30; sa 09:00-13:00,yes,yes,52.4931996,13.3667198,Tempelhof-Schöneberg,11007007
304,733902771,centrum apotheke,nan,lipschitzallee,68,12353,Gropiusstadt,nan,nan,nan,yes,yes,52.4254275,13.4630198,Neukölln,11008008
305,737199963,gesundleben,nan,nan,nan,nan,,nan,nan,mo-fr 08:30-18:30; sa 08:30-13:00,yes,limited,52.5268005,13.478518,Lichtenberg,11011011
306,738996191,kurmark apotheke,nan,kurfürstenstraße,154,10785,Schöneberg,+4930 26 555 477,http://www.apo-net.de/kurmark/index2.htm,mo-fr 08:30-19:00; sa 09:00-13:30,yes,no,52.4994495,13.3637956,Mitte,11001001
307,747517159,nordend-apotheke,nan,nan,nan,nan,,nan,nan,mo-fr 09:00-18:00; sa 09:00-12:30,yes,no,52.5894147,13.4014334,Pankow,11003003
308,753467604,mendel apotheke,nan,breite straße,6,13187,Pankow,nan,nan,mo-fr 08:00-19:00; sa 09:00-13:00,yes,yes,52.5714517,13.4108555,Pankow,11003003
309,762002923,heide-apotheke,birgit schmidt e.kfr.,chemnitzer straße,203,12621,,+49 30 5675290,https://www.heide-apotheke-berlin.de/,"mo-fr 08:30-18:30, sa 09:00-12:30; ph off",yes,no,52.4870402,13.5749614,Marzahn-Hellersdorf,11010010
310,765341424,eulen apotheke,nan,florastraße,4,13187,Pankow,+49 30 43724730,https://www.eulenruf.de/,"mo-fr 08:30-19:00, sa 09:00-14:00",yes,yes,52.5657093,13.397257,Pankow,11003003
311,765566778,adler-apotheke,nan,teltower damm,31,14169,Zehlendorf,nan,https://www.adlerapoberlin.de/,"mo-fr 08:30-19:00; sa 08:30-14:00; su,ph off",yes,yes,52.4321449,13.2591411,Steglitz-Zehlendorf,11006006
312,766742178,sternlicht apotheke,nan,körtestraße,22,10967,Kreuzberg,nan,nan,mo-fr 09:00-18:30; sa 09:00-14:00,yes,yes,52.4904307,13.4094009,Friedrichshain-Kreuzberg,11002002
313,766875155,elefanten-apotheke,anne poppe e.k.,dörpfeldstraße,46,12489,Adlershof,+49 30 67 89 49 42,https://www.elefanten-apotheke-berlin.de/,mo-fr 08:00-19:00; sa 09:00-14:00,yes,yes,52.4382284,13.5480046,Treptow-Köpenick,11009009
314,766875188,adler apotheke,oscar wilfried lienau e.k.,dörpfeldstraße,7,12489,Adlershof,+49 30 677 14 40,https://www.adler-apotheke-adlershof-berlin.de/,"mo-fr 08:00-19:00, sa 09:00-14:00",yes,yes,52.4360165,13.543222,Treptow-Köpenick,11009009
315,769270129,kopenhagener apotheke,nan,kopenhagener straße,2,13407,Reinickendorf,+49304955590,nan,"mo-fr 08:30-18:30, sa 08:30-13:00",yes,limited,52.5743966,13.3595153,Reinickendorf,11012012
316,769318454,lindauer-apotheke,azam azadegan e.k.,residenzstraße,154,13409,Reinickendorf,nan,nan,"mo-fr 08:00-18:30; sa 08:00-13:00; ph,su off",yes,limited,52.573665,13.3594452,Reinickendorf,11012012
317,769365479,apotheke am moritzplatz,nan,oranienstraße,158,10969,Kreuzberg,nan,nan,"mo,tu,th,fr 08:30-19:00; we 09:00-13:00",yes,yes,52.5028987,13.4129908,Friedrichshain-Kreuzberg,11002002
318,769847926,urban-apotheke,nan,urbanstraße,39,10967,Kreuzberg,nan,nan,mo-fr 08:30-18:30; sa 08:30-13:00,yes,yes,52.4908644,13.4158532,Friedrichshain-Kreuzberg,11002002
319,769847931,körte-apotheke,nan,grimmstraße,17,10967,Kreuzberg,nan,nan,mo-fr 09:00-18:30; sa 09:00-13:00,yes,yes,52.4919934,13.4137912,Friedrichshain-Kreuzberg,11002002
320,770651959,sonnen apotheke,nan,langhansstraße,82,13086,Weißensee,+49305654720,https://www.sonnenapotheke-berlin.de/,mo-fr 09:00-18:00; sa 09:00-13:00,yes,limited,52.5544002,13.4317943,Pankow,11003003
321,771332595,bavaria-apotheke,nan,ansbacher straße,53,10777,Schöneberg,+49 30 2182225,http://www.apo-net.de/bavaria/index2.htm,mo-fr 08:30-19:00; sa 08:30-16:00,yes,yes,52.4979101,13.340083,Tempelhof-Schöneberg,11007007
322,775342929,germania apotheke,apothekerin sabine brakowski e.k.,schloßstraße,29,12163,,+49 30 7916975,https://germaniaapotheke-berlin.de,"mo-fr 08:30-19:00; sa 09:30-18:30; su,ph off",yes,yes,52.4589046,13.3223417,Steglitz-Zehlendorf,11006006
323,775578347,prenzlauer apotheke,nan,prenzlauer allee,214,10405,Prenzlauer Berg,nan,https://www.prenzlauer-apotheke.de/,mo-fr 09:00-19:30; sa 09:00-18:00,yes,yes,52.5359441,13.4218153,Pankow,11003003
324,795255878,brigitten-apotheke,nan,steglitzer damm,29,12169,Steglitz,nan,nan,mo-fr 08:30-19:00; sa 08:30-14:30,yes,yes,52.4509538,13.3409295,Steglitz-Zehlendorf,11006006
325,808390982,brunnen-apotheke,nan,falkenberger chaussee,134,13057,Neu-Hohenschönhausen,+49 30 92091464,https://www.brunnenapotheke-berlin.de/,"mo-fr 08:00-19:30, sa 09:00-12:00",yes,yes,52.5678366,13.5256044,Lichtenberg,11011011
326,808390994,auxilia-apotheke,nan,prerower platz,4,13051,,nan,https://www.auxilia-apotheke.de/,sa 08:00-12:30; fr 08:00-18:30; mo-th 08:00-19:00,yes,yes,52.5648301,13.5075743,Lichtenberg,11011011
327,808391031,falken-apotheke,nan,warnitzer straße,20,13057,Neu-Hohenschönhausen,nan,nan,mo-fr 08:30-18:00; sa 08:30-13:00,yes,yes,52.5673914,13.5180117,Lichtenberg,11011011
328,811187886,nord-west-apotheke,nan,rathenower straße,26,10559,Moabit,nan,https://www.nord-west-apotheke-berlin.de/,mo-fr 08:30-18:30; sa 08:30-13:00,yes,limited,52.5323433,13.3509417,Mitte,11001001
329,813811847,curtius-apotheke,nan,curtiusstraße,4,12205,Lichterfelde,nan,http://www.curtius-apotheke.de/,mo-fr 08:30-19:00; sa 08:30-14:00,yes,yes,52.4429005,13.2960084,Steglitz-Zehlendorf,11006006
330,816598789,apotheke am hansaplatz,nan,bartningallee,5,10557,Hansaviertel,nan,nan,mo-fr 09:00-18:30; sa 09:00-13:00,yes,yes,52.5187747,13.3429225,Mitte,11001001
331,833390882,easyapotheke,mehmet geyik e.k.,schloßstraße,1,12163,Steglitz,+49 30 79016052,https://forum-steglitz.easyapotheken.de/,mo-fr 09:00-20:00; sa 10:00-20:00,yes,yes,52.4646654,13.3261851,Steglitz-Zehlendorf,11006006
332,848509143,apotheke berg,nan,skalitzer straße,133,10999,Kreuzberg,nan,nan,"mo,tu,th 08:30-19:00; we,fr 08:30-19:00; sa 10:00-18:00",yes,yes,52.4992782,13.4196742,Friedrichshain-Kreuzberg,11002002
333,849520185,wilhelm-voigt-apotheke,nan,pablo-neruda-straße,2-4,12559,,+49 30 65499919,https://www.wilhelm-voigt-apotheke.de/,"mo-fr 08:00-20:00, sa 08:00-16:00; ph off",yes,yes,52.4414305,13.5873859,Treptow-Köpenick,11009009
334,853806321,grüne apotheke lichtenrade,apothekerin franziska bukowski,lichtenrader damm,24,12305,Lichtenrade,+49 30 742 88 15,https://www.gruene-apotheke-lichtenrade.de/,mo-fr 08:30-18:30; sa 09:00-13:00,yes,no,52.4119945,13.4022416,Tempelhof-Schöneberg,11007007
335,854996274,utrechter apotheke,nan,maxstraße,13,13347,Wedding,nan,nan,mo-fr 09:00-18:00; sa 09:00-13:00,yes,no,52.5506076,13.3630015,Mitte,11001001
336,858380325,apotheke charlottenburg-nord,nan,nan,nan,nan,,nan,nan,mo-fr 08:30-18:30; sa 08:30-13:00,yes,yes,52.5353861,13.2863661,Charlottenburg-Wilmersdorf,11004004
337,858382391,sanimedius-apotheke im plaza marzahn,nan,mehrower allee,20,12687,Marzahn,+493093798493,https://www.klee-apotheke.de/,mo-fr 08:00-18:30; sa 09:00-13:00,yes,yes,52.5555383,13.5592685,Marzahn-Hellersdorf,11010010
338,876479038,grünberger apotheke,nan,grünberger straße,43-45,10245,Friedrichshain,nan,nan,mo-fr 08:00-19:00; sa 09:00-13:00,yes,yes,52.5121401,13.4551452,Friedrichshain-Kreuzberg,11002002
339,928338769,zieten apotheke,nan,großbeerenstraße,11,10963,Kreuzberg,+49 30 5471690,https://www.zietenapotheke.de,mo-fr 08:00-18:30; sa 09:00-14:00,yes,no,52.4981158,13.384792,Friedrichshain-Kreuzberg,11002002
340,931658983,lucia-apotheke am wildenbruchplatz,nan,nan,nan,nan,,nan,nan,mo-fr 09:00-18:30,yes,yes,52.484367,13.4434517,Neukölln,11008008
341,933513518,neue apotheke am see,nan,breisgauer straße,1A,14129,Schlachtensee,+4930810542770,nan,mo-sa 08:00-20:00,yes,yes,52.4390902,13.2153435,Steglitz-Zehlendorf,11006006
342,956306643,apotheke q205,nan,friedrichstraße,68,10117,Mitte,nan,nan,"mo-fr 08:00-20:00, sa 09:00-19:00",yes,yes,52.5122639,13.3903812,Mitte,11001001
343,977657079,achilles apotheke,nan,achillesstraße,69,13125,Karow,+49 30 94380797,https://www.achillesapotheke.de/,nan,yes,limited,52.6171891,13.4903858,Pankow,11003003
344,983454566,friedrich-apotheke,nan,frankfurter allee,100,10247,Friedrichshain,nan,nan,mo-fr 08:00-19:00; sa 09:00-14:00; ph off,yes,no,52.5136594,13.4731765,Friedrichshain-Kreuzberg,11002002
345,992805862,flora-apotheke,nan,leonorenstraße,91,12247,Lankwitz,nan,nan,"mo,tu,th 08:30-18:30; we,fr 08:30-18:00; sa 08:30-13:00",yes,no,52.4372593,13.3451962,Steglitz-Zehlendorf,11006006
346,998713196,wannsee apotheke,nan,königstraße,18,14109,Wannsee,nan,nan,mo-fr 08:30-18:30; sa 08:30-13:00,yes,,52.4196142,13.1575816,Steglitz-Zehlendorf,11006006
347,1008402120,punkt apotheke,nan,nan,nan,nan,,nan,https://www.apotheken.de/club/12349/punkt-apotheke/,mo-fr 08:30-18:00; sa 08:30-13:00,yes,yes,52.4180116,13.436734,Neukölln,11008008
348,1018833559,mozart apotheke,nan,wiener straße,18,10999,Kreuzberg,nan,nan,mo-fr 09:00-19:00; sa 09:00-14:00,yes,no,52.4976442,13.4306508,Friedrichshain-Kreuzberg,11002002
349,1020532583,schmargendorfer apotheke,nan,breite straße,13,14199,Schmargendorf,+49 30 8237784,nan,mo-fr 08:30-18:30; sa 08:30-13:30,yes,no,52.4743541,13.2944008,Charlottenburg-Wilmersdorf,11004004
350,1032978552,stern-apotheke,nan,landsberger allee,277,13055,,nan,nan,mo-sa 08:30-19:00,yes,yes,52.535795,13.4961485,Lichtenberg,11011011
351,1037241970,damian apotheke,nan,falkenseer chaussee,196,13589,Falkenhagener Feld,+49 30 3735792,nan,nan,yes,yes,52.5511687,13.163271,Spandau,11005005
352,1038217551,falken-apotheke,nan,siegener straße,59,13583,Falkenhagener Feld,nan,nan,"mo,tu,th 08:00-19:00; we,fr 08:00-18:30; sa 08:00-14:00",yes,yes,52.5475503,13.1771981,Spandau,11005005
353,1042258380,berolina apotheke,nan,clayallee,345,14169,Zehlendorf,+49 30 8099600,https://www.berolina-apotheke.de/,mo-fr 08:30-19:00; sa 09:00-14:00,yes,yes,52.4363152,13.2608479,Steglitz-Zehlendorf,11006006
354,1051174903,süd-apotheke,nan,ladiusstraße,31,14165,Zehlendorf,+49 30 8153248,nan,mo-fr 08:30-18:30; sa 09:00-13:00,yes,yes,52.4107881,13.2617669,Steglitz-Zehlendorf,11006006
355,1075295993,stadt apotheke,nan,teltower damm,5,14169,Zehlendorf,nan,nan,"mo-fr 09:00-19:00; sa 09:00-16:00; su,ph off",yes,yes,52.4344191,13.2604293,Steglitz-Zehlendorf,11006006
356,1082750111,staufen-apotheke,nan,clayallee,331,14169,Zehlendorf,+49 30 8015044,https://www.staufenapotheke-berlin.de/,mo-fr 09:00-18:00; sa 09:00-13:00,yes,no,52.4375339,13.2615692,Steglitz-Zehlendorf,11006006
357,1083676123,prinzen apotheke,nan,prinzenstraße,96,10969,Kreuzberg,nan,nan,"mo,we,fr 08:30-18:30; tu,th 08:30-19:00; sa 09:00-14:00",yes,yes,52.5010849,13.4083406,Friedrichshain-Kreuzberg,11002002
358,1094105653,baba jaga,nan,nan,nan,nan,,nan,https://www.babajaga-apotheke-berlin.de,mo-fr 08:30-19:00; sa 08:30-14:00,,yes,52.5277137,13.5386173,Marzahn-Hellersdorf,11010010
359,1110626664,apotheke zum goldenen anker,nan,nan,nan,nan,,nan,nan,mo-fr 09:00-18:30; sa 09:00-14:00,yes,limited,52.4903456,13.4277648,Neukölln,11008008
360,1124601226,park-apotheke,nan,zeltinger platz,7,13465,Frohnau,nan,nan,mo-fr 08:30-18:00; sa 08:30-14:00,yes,no,52.6339256,13.2896726,Reinickendorf,11012012
361,1124612201,ludolfinger-apotheke,nan,nan,nan,nan,,+49304011033,https://www.ludolfinger-apotheke.de,mo-fr 08:30-19:00; sa 08:30-14:00,yes,yes,52.6325774,13.2869838,Reinickendorf,11012012
362,1143798306,pro-samed apotheke,nan,greifswalder straße,155,10409,Prenzlauer Berg,nan,https://www.pro-samed-apotheke.de/,mo-fr 08:00-19:00; su off; sa 09:00-13:00,yes,yes,52.5440277,13.4416805,Pankow,11003003
363,1145597661,apotheke am tegeler see,nan,namslaustraße,83,13507,,+49 30 4327788,nan,"mo-fr 08:30-18:00, sa 08:30-13:00",yes,,52.5774369,13.2791669,Reinickendorf,11012012
364,1163265616,borussia-apotheke,ursula geibel,knobelsdorffstraße,4,14059,Charlottenburg,nan,nan,mo-fr 09:00-18:00,yes,limited,52.5136253,13.2956492,Charlottenburg-Wilmersdorf,11004004
365,1169920988,easyapotheke,nan,großbeerenstraße,2,12107,Mariendorf,+493076106690,https://www.easyapotheken.de/mariendorf/,nan,yes,yes,52.4388221,13.380108,Tempelhof-Schöneberg,11007007
366,1200964445,witzlebenapotheke24,witzleben apotheke,kaiserdamm,24,14057,Westend,+493093952030,https://witzleben-apotheke.de,"mo,tu,th 08:00-19:00; we,fr 08:00-18:30",yes,yes,52.5103117,13.2827609,Charlottenburg-Wilmersdorf,11004004
367,1200964491,witzlebenapotheke26,witzleben apotheke,kaiserdamm,26,14057,Westend,+493093952000,https://witzleben-apotheke.de/,mo-fr 08:00-19:00; sa 09:00-14:00,yes,yes,52.5102306,13.2814283,Charlottenburg-Wilmersdorf,11004004
368,1212618057,sonnenschein-apotheke,nan,nan,nan,nan,,+49 30 503 786 00,https://www.sonnenschein-apotheke-app.de/,mo-fr 08:00-18:30; sa 09:00-13:00,,yes,52.4787595,13.5243036,Lichtenberg,11011011
369,1234501223,paul gerhardt apotheke,nan,nan,nan,nan,,+493045798050,https://www.paul-gerhardt-apotheke.de/,mo-fr 08:30-19:30; sa 09:00-14:00,yes,limited,52.5543245,13.3456342,Mitte,11001001
370,1235266856,sonnen-apotheke,monika wahren e.k.,hultschiner damm,nan,12623,Mahlsdorf,+49 30 5654720,https://sonnenapotheke-berlin.de/,mo-fr 08:30-18:30; sa 09:00-12:00; ph off,yes,yes,52.4805013,13.6013424,Marzahn-Hellersdorf,11010010
371,1236581643,doc+ apotheke,nan,müllerstraße,40,13353,Wedding,nan,https://www.docplus-apotheke.de/,mo-fr 08:00-20:00; sa 08:00-18:00,yes,yes,52.5501219,13.3530389,Mitte,11001001
372,1246989790,apotheke zum schwan,nan,oranienstraße,64,10969,Kreuzberg,nan,nan,mo-fr 08:30-18:30; sa 08:30-13:30,yes,limited,52.5043488,13.4092742,Friedrichshain-Kreuzberg,11002002
373,1252777062,schloss-apotheke tegel,nan,berliner straße,6,13507,Tegel,+49 30 4338777,https://www.schlossapotheketegel.de/,mo-fr 08:00-20:00; sa 08:00-16:00,yes,yes,52.5885653,13.2843949,Reinickendorf,11012012
374,1252944782,alte spree apotheke,nan,nan,nan,nan,,+49 30 4339785,https://www.alte-spree-apotheke.de/,mo-fr 08:00-19:30; sa 09:00-17:00,yes,yes,52.5895474,13.2826806,Reinickendorf,11012012
375,1257075697,apotheke am friedrichshain,nan,nan,nan,nan,,nan,nan,sa 08:30-12:30; mo-fr 08:00-18:30,yes,yes,52.5237553,13.4398917,Friedrichshain-Kreuzberg,11002002
376,1298246171,vineta apotheke,nan,brunnenstraße,121,13355,Gesundbrunnen,nan,https://www.herz-apotheke-berlin.de/,mo-fr 08:30-18:30; sa 08:30-13:00,yes,yes,52.5405418,13.3938688,Mitte,11001001
377,1298511709,apotheke am gartenplatz,nan,nan,nan,nan,,nan,nan,mo-fr 09:00-18:00; sa 09:00-13:00,yes,yes,52.5380192,13.3854708,Mitte,11001001
378,1315650095,kur-apotheke,nan,mehringdamm,50,10961,,+49 307861016,https://kaiser-apotheke-berlin.de/unsere-apotheken/kur-apotheke/,"mo-fr 08:30-19:30, sa 09:30-14:30",yes,yes,52.4920432,13.3869021,Friedrichshain-Kreuzberg,11002002
379,1336599080,dr. rothes apotheke,gunnar arendt e.k.,bahnhofstraße,10,12555,Köpenick,+49 30 6572151,https://www.dr-rothes-apotheke.de/,mo-fr 08:00-19:00; sa 08:30-13:00; ph off,yes,limited,52.4553026,13.5770429,Treptow-Köpenick,11009009
380,1336725194,stadt-apotheke,susanne mackeldey e.k.,grünstraße,24,12555,Köpenick,+49 30 6557463,https://www.stadt-apotheke-koepenick.de/,mo-fr 08:00-18:00; sa 09:00-13:00; ph off,yes,yes,52.444918,13.5747201,Treptow-Köpenick,11009009
381,1336788980,süd-apotheke,nan,wendenschloßstraße,324a,12557,Köpenick,+49 30 6559474,http://www.sued-apotheke-berlin.de,"mo-fr 08:00-19:00; sa 09:00-13:00; ph,su off",yes,yes,52.427899,13.5848235,Treptow-Köpenick,11009009
382,1338226878,jumbo apotheke,nan,otto-schmirgal-straße,3,10319,,nan,nan,mo-fr 08:30-20:00; sa 08:30-16:00; ph off,,yes,52.4973391,13.5217595,Lichtenberg,11011011
383,1365702036,haselhorster apotheke,nan,gartenfelder straße,109,13599,Haselhorst,+49 30 3342367,https://www.haselhorster-apotheke.de,mo-fr 08:30-18:30; sa 08:30-13:00,yes,yes,52.5424964,13.2388868,Spandau,11005005
384,1374215630,immanuel apotheke,nan,immanuelkirchstraße,2,10405,Prenzlauer Berg,nan,nan,mo-fr 08:30-19:00; sa 09:00-14:00,yes,yes,52.533075,13.4221508,Pankow,11003003
385,1375170411,kiwi apotheke,nan,hugo-cassirer-straße,26,13587,,+49 30 33771500,https://www.kiwi-apotheke.de/,"mo-fr 09:00-18:00; sa 09:00-13:00; su,ph off",yes,limited,52.557697,13.2189479,Spandau,11005005
386,1397070332,dominicus apotheke,nan,hauptstraße,117,10827,Schöneberg,+49 30 7486565,https://www.dominicus-apotheke.de/,mo-fr 08:00-19:00; sa 09:00-14:00,yes,yes,52.4824434,13.3497166,Tempelhof-Schöneberg,11007007
387,1400224784,fritz apotheke,michael lindenbacher,mariendorfer damm,165,12107,Mariendorf,+49 30 74 30 46 660,https://www.fritz-apotheke.de/,mo-fr 08:30-18:30; th 08:30-19:00; sa 08:30-13:30,yes,yes,52.4370757,13.388732,Tempelhof-Schöneberg,11007007
388,1413247085,apotheke 97,nan,nonnendammallee,97,13629,Siemensstadt,+49 30 3824234,nan,mo-fr 08:30-18:30; sa 09:00-13:30,yes,yes,52.5369189,13.2672695,Spandau,11005005
389,1419134521,central apotheke,frau atanaska winkler,nonnendammallee,94,13629,Siemensstadt,+49303826006,nan,mo-fr 08:30-18:30; sa 08:30-13:30,yes,yes,52.5369057,13.2684032,Spandau,11005005
390,1434256844,apotheke am bayerischen platz,helma heinrici,bayerischer platz,6,10779,Schöneberg,nan,nan,mo-fr 08:30-18:30; sa 08:30-13:00,yes,limited,52.4885983,13.3390663,Tempelhof-Schöneberg,11007007
391,1492336686,esmarch apotheke,nan,hufelandstraße,15,10407,Prenzlauer Berg,nan,nan,"mo-fr 09:00-13:30,14:30-18:30; sa 09:00-13:00",yes,yes,52.532136,13.431803,Pankow,11003003
392,1498608858,apotheke biesdorf-süd,gabriele heyn,weißenhöher straße,88,12683,,+49305173711,nan,mo-sa 09:00-19:00,yes,yes,52.5060706,13.5582187,Marzahn-Hellersdorf,11010010
393,1504564883,warschauer apotheke,gisela brückl,warschauer straße,56,10243,Friedrichshain,+493026948789,nan,"mo-fr 08:30-14:00,15:00-18:30; sa 10:30-14:00",yes,yes,52.5090106,13.451441,Friedrichshain-Kreuzberg,11002002
394,1527942471,apotheke impuls,nan,karl-marx-straße,29,12043,Neukölln,nan,nan,mo-fr 08:30-19:00; sa 09:00-14:00,yes,yes,52.4846388,13.4285441,Neukölln,11008008
395,1552051348,mediosapotheke,nan,friedrichstraße,113A,10117,Mitte,+49302833530,https://www.mediosapotheke.de/,mo-su 08:00-24:00,yes,yes,52.5260899,13.3875545,Mitte,11001001
396,1554257377,st.hildegard apotheke,nan,gersdorfstraße,50,12105,Mariendorf,nan,https://www.st-hildegard-apotheke-berlin.de/,mo-fr 08:30-18:15; sa 08:30-13:00,yes,no,52.4460352,13.372337,Tempelhof-Schöneberg,11007007
397,1575512027,tannenberg apotheke,nan,birkbuschstraße,59,12167,Steglitz,+49 30 7718824,nan,"mo-fr 08:30-19:00; sa 08:30-14:00; su,ph 10:00-18:00",yes,yes,52.4460263,13.329341,Steglitz-Zehlendorf,11006006
398,1577132742,oskar helene apotheke,nan,clayallee,177,14195,Dahlem,nan,nan,"mo-fr 08:30-19:00; sa 09:00-14:00; su,ph off",yes,yes,52.4513152,13.269836,Steglitz-Zehlendorf,11006006
399,1585171546,fleming apotheke,nan,zabel-krüger-damm,31,13469,Waidmannslust,+49 30 4024085,nan,mo-fr 08:30-18:30;sa 08:30-14:00,yes,yes,52.6097315,13.3294059,Reinickendorf,11012012
400,1597559553,apotheke am schlosspark,nan,hermann-hesse-straße,4a,13156,,nan,nan,mo-fr 08:00-19:00; sa 08:00-14:00; ph off,yes,yes,52.581118,13.4024597,Pankow,11003003
401,1617416107,aktiv apotheke,nan,ostpreußendamm,139,12207,Lichterfelde,nan,nan,mo-fr 08:30-19:00; sa 09:00-15:00,yes,yes,52.4231693,13.3137602,Steglitz-Zehlendorf,11006006
402,1617419904,apotheke im schweizer viertel,nan,lausanner straße,83,12205,Lichterfelde,nan,https://www.apotheke-im-schweizer-viertel.de/,mo-fr 08:30-20:00; sa 09:00-16:00,yes,yes,52.4268932,13.3036661,Steglitz-Zehlendorf,11006006
403,1624585364,vital-apotheke,nan,skalitzer straße,15,10999,Kreuzberg,nan,nan,mo-fr 08:30-19:00; sa 09:00-16:00,yes,yes,52.4988803,13.4203076,Friedrichshain-Kreuzberg,11002002
404,1628927163,apotheke im pankeviertel,nan,blankenburger straße,153,13127,,+49 30 4767060,nan,mo-fr 08:30-18:30; sa 09:00-12:00,yes,,52.5881829,13.4282736,Pankow,11003003
405,1632227368,linden apotheke,nan,lindenstraße,1a,12207,Lichterfelde,nan,https://www.linden-apotheke-lichterfelde.de/,mo-fr 08:30-18:00; sa 08:30-13:00,yes,yes,52.4174336,13.3059616,Steglitz-Zehlendorf,11006006
406,1636830086,blaue apotheke,robert roggenbuck,nan,nan,nan,,nan,nan,mo-fr 08:30-18:30; sa 09:30-14:00,yes,yes,52.4939436,13.4601281,Treptow-Köpenick,11009009
407,1640616159,bären-apotheke,nan,oranienburger straße,85-86,13437,Wittenau,+49 30 40911112,http://www.baeren-apotheke-berlin.de,mo-fr 08:00-19:30; sa 08:00-14:30,yes,yes,52.595082,13.3333432,Reinickendorf,11012012
408,1654832841,hausapotheke - vivantes klinikum neukölln,nan,kormoranweg,45,12351,,nan,https://www.vivantes.de/knk/apotheke-sued,nan,yes,no,52.4367426,13.4564982,Neukölln,11008008
409,1655132802,sundgauer apotheke,nan,berliner straße,43b,nan,,nan,nan,nan,yes,yes,52.4385108,13.2707693,Steglitz-Zehlendorf,11006006
410,1659884034,märkische apotheke,nan,müllerstraße,33,13353,Wedding,nan,nan,mo-fr 08:30-19:00; sa 09:00-18:00,yes,yes,52.5483468,13.3562137,Mitte,11001001
411,1663350357,bezirksapotheke,melanie dolfen e. kfr.,warschauer straße,27,10243,Friedrichshain,nan,https://www.bezirksapotheke.de/am-friedrichshain/,mo-fr 08:00-20:00; sa 09:00-18:00,yes,yes,52.5101873,13.4511485,Friedrichshain-Kreuzberg,11002002
412,1678448395,forst apotheke,nan,forststraße,31,12163,Steglitz,nan,nan,mo-fr 08:30-18:00; sa 08:00-13:00,yes,no,52.4652856,13.3104944,Steglitz-Zehlendorf,11006006
413,1703401473,apotheke am schillerplatz,nan,stubenrauchstraße,58,12161,Friedenau,nan,nan,mo-fr 08:30-18:30; sa 09:00-13:00,yes,no,52.471767,13.3235696,Tempelhof-Schöneberg,11007007
414,1704256871,lichtenrader apotheke,nan,barnetstraße,41-42,12305,Lichtenrade,+49 30 74685667,https://www.lichtenrader-apotheke.de/,mo-fr 08:00-20:00; sa 08:00-18:00,yes,yes,52.3981287,13.3914745,Tempelhof-Schöneberg,11007007
415,1719664188,apotheke am anton-saefkow-platz,nan,anton-saefkow-platz,8,10369,Fennpfuhl,nan,nan,mo-fr 08:30-19:00; sa 09:00-14:00,yes,yes,52.5286228,13.4714754,Lichtenberg,11011011
416,1721061596,apotheke in nikolassee,nan,prinz-friedrich-leopold-straße,3,14129,Nikolassee,nan,https://www.aponik.de/,"mo-fr 09:00-18:30; tu,th 09:00-19:00; sa 09:00-13:00",Apotheke in Nikolassee,yes,52.4300081,13.1949978,Steglitz-Zehlendorf,11006006
417,1777151508,apotheke am stadtrand,nan,ahrensfelder chaussee,141,12689,Marzahn,+49 30 -93 75 468,https://www.apotheke-am-stadtrand.de/,mo-fr 08:30-18:30,yes,yes,52.5708343,13.5635073,Marzahn-Hellersdorf,11010010
418,1782386007,zieten apotheke rudow,nan,köpenicker straße,184,12355,Rudow,+4930 6631092,https://neueapotheke.net/,mo-fr 08:30-18:30; sa 08:30-13:30,yes,no,52.4184421,13.496804,Neukölln,11008008
419,1828707071,rennbahn apotheke,nan,rennbahnstraße,22-23,13086,Weißensee,+49 309253104,https://www.rennbahn-apotheke.de/,mo-fr 08:00-18:30; sa 08:00-13:00,yes,yes,52.5603111,13.4591942,Pankow,11003003
420,1833509167,apotheke am bahnhof grunewald,nan,fontanestraße,4,14193,Grunewald,nan,nan,mo-fr 08:30-19:00; sa 09:00-14:00,yes,yes,52.4870726,13.2640301,Charlottenburg-Wilmersdorf,11004004
421,1845158730,wollank apotheke,gisela poser,wollankstraße,30,13359,Gesundbrunnen,+49 30 49907923,https://www.wollank-apotheke-berlin.de/,mo-fr 08:00-18:30; sa 09:00-14:00,yes,no,52.5636023,13.3910866,Mitte,11001001
422,1863567226,schwanen apotheke,nan,hans-otto-straße,42,10407,Prenzlauer Berg,nan,nan,mo-fr 08:30-18:30; sa 09:00-14:00,yes,yes,52.532715,13.43824,Pankow,11003003
423,1866461768,ostsee-apotheke,nan,greifswalder straße,137,10409,Prenzlauer Berg,nan,nan,mo-fr 08:00-19:00,,yes,52.5461931,13.4455087,Pankow,11003003
424,1905963630,fasanen-apotheke,nan,uhlandstraße,158,10719,Wilmersdorf,nan,nan,mo-fr 08:30-19:00; sa 08:30-14:00,yes,limited,52.4987789,13.3248652,Charlottenburg-Wilmersdorf,11004004
425,1906515104,emser apotheke,nan,emser straße,44,10719,Wilmersdorf,+49 30 8811119,https://www.emser-apotheke.de/,"mo,tu,th,fr 09:00-18:00; sa 09:00-13:00; we 09:00-15:00",yes,yes,52.4967633,13.3198452,Charlottenburg-Wilmersdorf,11004004
426,1914403852,ranke-apotheke,nan,joachimsthaler straße,24,10719,Wilmersdorf,+49 30 8814565,nan,mo-fr 08:30-18:30; sa 09:00-14:00,yes,yes,52.5000244,13.3305311,Charlottenburg-Wilmersdorf,11004004
427,1914552632,apotheke am ludwigkirchplatz,nan,pariser straße,47,10719,Wilmersdorf,+49 30 8811418,https://www.apotheke-am-ludwigkirchplatz-berlin.de/,mo-fr 08:30-19:00; sa 08:30-14:00,yes,no,52.4970403,13.3234022,Charlottenburg-Wilmersdorf,11004004
428,1933362462,viereck apotheke,nan,wiltbergstraße,25,13125,Buch,nan,nan,"mo-fr 08:00-19:00, sa 08:00-13:00",yes,yes,52.6360319,13.4934176,Pankow,11003003
429,1948961324,charlotten-apotheke,nan,nan,nan,nan,,nan,nan,"mo-fr 08:30-18:30, sa 08:30-13:30",yes,yes,52.518856,13.2898547,Charlottenburg-Wilmersdorf,11004004
430,1948961329,falken-apotheke,nan,danckelmannstraße,51,14059,Charlottenburg,+49 30 3221551,https://www.apotheken.de/club/14059/falken-apotheke,mo-fr 09:00-18:30; sa 09:00-13:30,yes,no,52.5152489,13.290931,Charlottenburg-Wilmersdorf,11004004
431,1963129662,atoll-apotheke,c. reiners e.k.,hermannstraße,158A,12051,Neukölln,nan,nan,mo-fr 09:00-19:00,yes,yes,52.4674061,13.4318149,Neukölln,11008008
432,2013009698,cottbusserdamm apotheke,nan,nan,nan,nan,,nan,nan,mo-fr 08:30-18:30; sa 09:00-15:00,yes,yes,52.4951332,13.4204287,Friedrichshain-Kreuzberg,11002002
433,2018710520,ibis apotheke,nan,neuköllner straße,261,12357,,+4930 6614004,nan,"mo-fr 08:30-18:30, sa 08:30-13:00",yes,yes,52.4257157,13.4838189,Neukölln,11008008
434,2026247343,adler apotheke,nan,nan,nan,nan,,nan,nan,mo-we 09:00-19:00; th-sa 09:00-20:00;su off,yes,yes,52.5247222,13.5580924,Marzahn-Hellersdorf,11010010
435,2026466974,abacus apotheke,nan,nan,nan,nan,,nan,nan,nan,,,52.5345031,13.5521929,Marzahn-Hellersdorf,11010010
436,2038240175,sanimedius-apotheke im spreecenter,ronald clasen,hellersdorfer straße,77,12619,Hellersdorf,+49 30 5622113,https://www.spreecenter-apotheke-berlin.de,"mo-fr 08:00-19:00, sa 08:00-16:00; ph off",yes,yes,52.5211516,13.5874121,Marzahn-Hellersdorf,11010010
437,2039162001,apotheke wutzky-center,nan,nan,nan,nan,,+49 30 6612674,https://www.apo-wutzky.de/,mo-fr 08:30-19:00; sa 08:00-16:00,yes,yes,52.4227979,13.4754642,Neukölln,11008008
438,2046807703,wartenberger apotheke,nan,egon-erwin-kisch-straße,32,13059,Neu-Hohenschönhausen,+49 30 9298017,nan,mo-fr 08:00-19:00; sa 09:00-13:00,yes,limited,52.5730689,13.5049041,Lichtenberg,11011011
439,2098147261,doc maier,nan,siemensstraße,2,12247,Steglitz,nan,nan,mo-sa 08:30-19:00; su 08:30-14:00,yes,yes,52.4467545,13.3418127,Steglitz-Zehlendorf,11006006
440,2098221272,markus apotheke,nan,albrechtstraße,51,12167,Steglitz,+49 30 7958130,nan,mo-fr 09:00-18:00; sa 09:00-13:00,yes,yes,52.4481027,13.3397351,Steglitz-Zehlendorf,11006006
441,2110613369,oldenburger apotheke,nan,oldenburger straße,37,10551,Moabit,nan,nan,"mo,th 08:30-19:00; tu,we,fr 08:30-18:30; sa 08:30-13:00",yes,yes,52.5302571,13.3359327,Mitte,11001001
442,2139861333,meine apotheke,nan,olivaer platz,17,10707,Wilmersdorf,nan,nan,mo-fr 08:30-18:30; sa 09:00-14:00,yes,yes,52.4996926,13.3125891,Charlottenburg-Wilmersdorf,11004004
443,2139861379,cornelia-apotheke,nan,konstanzer straße,4,10707,Wilmersdorf,nan,nan,mo-fr 08:30-18:30; sa 08:30-14:00,yes,limited,52.4983773,13.311957,Charlottenburg-Wilmersdorf,11004004
444,2169170618,preussen apotheke spandau,nan,carl-schurz-straße,29,13597,,nan,nan,"mo-fr 08:30-18:30; sa 09:00-15:00; su,ph off",yes,yes,52.5368301,13.2024674,Spandau,11005005
445,2181178545,linden apotheke,nan,nan,nan,nan,,nan,nan,mo-fr 09:00-18:00; sa 09:30-13:00,yes,yes,52.506761,13.398262,Friedrichshain-Kreuzberg,11002002
446,2251295178,masuren-apotheke ohg,"homam rasheed, dr. fadi mansoor",angerburger allee,45,14055,Westend,+49 30 3045968,https://www.masuren-apotheke.de/,nan,yes,yes,52.5094033,13.2223693,Charlottenburg-Wilmersdorf,11004004
447,2273462199,easyapotheke,nan,egon-erwin-kisch-straße,80,13059,,nan,nan,nan,,yes,52.56849,13.5108472,Lichtenberg,11011011
448,2274239284,vitalis apotheke,nan,nan,nan,nan,,nan,nan,"mo-fr 08:00-19:00, sa 08:00-13:00",yes,yes,52.5688682,13.5162437,Lichtenberg,11011011
449,2288127751,moabiter apotheke,nan,alt-moabit,18,10559,Moabit,nan,nan,"mo-fr 08:00-18:30, sa 08:00-14:00; ph off",yes,no,52.5243574,13.3522408,Mitte,11001001
450,2320532525,havelland-apotheke,nan,sakrower landstraße,6,14089,,+49 30 3655955,https://www.havelland-apotheke-kladow.de/,mo-fr 08:30-18:30; sa 08:30-13:00,yes,yes,52.4531286,13.1422529,Spandau,11005005
451,2320629344,apotheke am wittenbergplatz,nan,bayreuther straße,44,10787,Schöneberg,nan,http://www.apotheke-am-wittenbergplatz.de,mo-fr 08:30-18:30,yes,yes,52.5035594,13.3444884,Tempelhof-Schöneberg,11007007
452,2325407968,dafne-apotheke,nan,karl-marx-straße,231-235,12055,Neukölln,nan,nan,mo-sa 09:00-20:30,yes,yes,52.4684978,13.4427459,Neukölln,11008008
453,2423122288,octopus apotheke,nan,waidmannsluster damm,176,13469,,+49 30 41109110,https://octopus-apotheke.de/,mo-fr 08:30-19:00; sa 08:30-13:00,yes,,52.6065358,13.3192004,Reinickendorf,11012012
454,2424327600,süd-apotheke,heike steinhausen,hultschiner damm,24,12623,,+49 30 56702347,https://suedapotheke-mahlsdorf.de/,"mo-fr 08:00-18:30, sa 08:00-12:30; ph off",,yes,52.4766287,13.6007627,Marzahn-Hellersdorf,11010010
455,2429162139,löwen apotheke,nan,ollenhauerstraße,110a,13403,,nan,https://www.loewen-apo-berlin.de/,"mo,tu,th,fr 08:30-18:30, we 08:30-18:00, sa 08:30-14:00",yes,limited,52.5696336,13.3297842,Reinickendorf,11012012
456,2439759182,lilien-apotheke,nan,theodor-heuss-platz,6,14052,Westend,030 22194380,nan,mo-fr 08:00-19:30; sa 08:00-16:00,yes,limited,52.5101677,13.2724807,Charlottenburg-Wilmersdorf,11004004
457,2445456645,sylter apotheke,nan,berliner straße,37,10715,Wilmersdorf,+4930 8614211,https://www.sylter-apotheke.de/,mo-fr 08:30-18:30; sa 09:00-14:00,yes,limited,52.4866571,13.3215081,Charlottenburg-Wilmersdorf,11004004
458,2476268050,blitz apotheke,nan,wexstraße,30,10715,Wilmersdorf,nan,nan,mo-fr 08:30-18:30; sa 08:30-13:30,yes,yes,52.478841,13.3299374,Charlottenburg-Wilmersdorf,11004004
459,2484338009,sonnenapotheke,mohammed el azouzi,sonnenallee,76,12045,,nan,nan,mo-fr 08:30-19:00; sa 09:00-14:00,yes,yes,52.4835661,13.4358446,Neukölln,11008008
460,2496651331,kreuzberg apotheke,nan,mehringdamm,69,10961,Kreuzberg,+49 30 6937739,http://www.kreuzberg-apotheke-berlin.de,mo-fr 08:00-20:00; sa 09:00-14:00,yes,limited,52.4902187,13.3870554,Friedrichshain-Kreuzberg,11002002
461,2516120286,flora-apotheke seit 1880,nan,berliner allee,109,13088,Weißensee,+49309250107,nan,"mo-fr 08:00-19:00, sa 09:00-13:00",yes,no,52.5504319,13.4597629,Pankow,11003003
462,2541179150,apotheke zum elefanten,nan,karl-marx-straße,150,12043,,+49 30 6875079,nan,mo-fr 08:30-19:30; sa 09:00-18:00,yes,no,52.4762082,13.4391375,Neukölln,11008008
463,2541258991,easyapotheke,nan,wilmersdorfer straße,64,10627,Charlottenburg,nan,nan,mo-fr 09:00-19:30; sa 09:00-19:00,yes,yes,52.5065338,13.3064648,Charlottenburg-Wilmersdorf,11004004
464,2557710789,spree-apotheke,nan,alt-moabit,86b,10555,,nan,nan,"mo-fr 08:00-19:00, sa 09:00-14:00",yes,yes,52.5253262,13.342,Mitte,11001001
465,2638963983,richthofen-apotheke,nan,manfred-von-richthofen-straße,15,12101,Tempelhof,nan,nan,sa 08:30-14:00; mo-fr 08:00-18:30,yes,yes,52.4831066,13.3826359,Tempelhof-Schöneberg,11007007
466,2713665583,apotheke im bismarck-karree,nan,bismarckstraße,45-47,10627,Charlottenburg,nan,nan,mo-fr 08:00-19:00,yes,yes,52.5117094,13.3046182,Charlottenburg-Wilmersdorf,11004004
467,2717366804,stadtpark-apotheke,nan,albrechtstraße,94,12167,Steglitz,+49 30 795 50 90,https://www.stadtpark-apotheke-berlin.de/,mo-fr 09:00-19:00; sa 09:00-14:00,yes,no,52.4523689,13.3335365,Steglitz-Zehlendorf,11006006
468,2779341569,saint charles apotheke,nan,pariser straße,20,10707,Wilmersdorf,+49 30 88725300,http://www.saintcharles.de/stcharles_berlin.html,mo-fr 08:00-19:00; sa 09:00-16:00,yes,limited,52.4985147,13.317788,Charlottenburg-Wilmersdorf,11004004
469,2782835460,sanitas apotheke,nan,oraniendamm,6-10,13469,Waidmannslust,+49 3040396922,nan,mo-fr 08:30-20:00; sa 09:00-20:00,yes,yes,52.6078978,13.3255639,Reinickendorf,11012012
470,2796710201,apotheke hackesches quartier,nan,henriette-herz-platz,3,10178,Mitte,nan,https://www.apotheke-hackesches-quartier.de/,mo-fr 08:00-19:00; sa 09:00-14:00,yes,yes,52.5221812,13.4024813,Mitte,11001001
471,2820029176,apotheke an der alten schule,stephan liebreich e.k.,dörpfeldstraße,55,12489,Adlershof,+49 30 6773830,http://www.versandapotheke-adlershof.de,mo-fr 08:00-20:00; sa 08:00-16:00,,no,52.4387416,13.5506904,Treptow-Köpenick,11009009
472,2829271312,regenbogen apotheke,stefan rezepa e.k,seestraße,64,13347,,+49 30 4558665,https://regenbogen-apotheke.berlin/,"mo-tu,th-fr 08:30-19:00; we 08:30-15:00",yes,yes,52.5537925,13.3593721,Mitte,11001001
473,2857712871,achat apotheke,nan,brunnenstraße,160,10115,Mitte,nan,nan,mo-fr 08:00-19:00; sa 08:30-13:30,yes,yes,52.5347618,13.3977794,Mitte,11001001
474,2864467602,post-apotheke buckow,nan,nan,nan,nan,,nan,nan,mo-fr 08:30-18:30; sa 08:30-13:00,yes,yes,52.4245859,13.4360037,Neukölln,11008008
475,2864491450,apotheke alt-buckow,nan,nan,nan,nan,,nan,nan,mo-fr 08:00-19:00; sa 08:00-14:00,yes,yes,52.4231003,13.4356893,Neukölln,11008008
476,2867498526,gertrauden apotheke,nan,nan,nan,nan,,nan,nan,mo-fr 08:00-18:30; sa 08:00-13:00,yes,yes,52.4205157,13.4273954,Neukölln,11008008
477,2872185601,kloster-apotheke,nan,klosterstraße,6/7,13581,Spandau,+49 30 3311900,https://www.kloster-apotheke-berlin.de/,mo-fr 08:00-18:30; sa 08:00-13:00,yes,yes,52.5323465,13.1975304,Spandau,11005005
478,2917786907,apotheke am steubenplatz,nan,reichsstraße,22,14052,Westend,nan,nan,nan,,,52.5160627,13.2616016,Charlottenburg-Wilmersdorf,11004004
479,2952546845,neue apotheke,nan,residenzstraße,137,nan,,nan,nan,mo-fr 08:00-19:00; sa 09:00-14:30; su off,yes,no,52.5703596,13.3612245,Reinickendorf,11012012
480,2952573359,residenz apotheke,nan,nan,nan,nan,,nan,nan,mo-fr 08:30-18:30; sa 09:00-14:00,yes,no,52.5667626,13.3630766,Reinickendorf,11012012
481,2969309057,märkische apotheke kladow,nan,kladower damm,366,14089,Kladow,nan,https://www.mapok.de/,"mo-th 08:30-19:00; we,fr 08:30-18:30; sa 08:30-14:00",yes,yes,52.4549833,13.1446817,Spandau,11005005
482,2998135448,amtsfeld-apotheke,nan,salvador-allende-straße,2–8,12559,,nan,nan,mo-fr 07:30-19:00; sa 08:00-13:00,yes,,52.4405588,13.5939645,Treptow-Köpenick,11009009
483,3012143573,falken-apotheke,ute nitzer,edisonstraße,18,12459,Oberschöneweide,+49 30 5351125,https://www.falken-apo-berlin.de/,mo-fr 08:00-18:30; sa 08:30-13:00,yes,no,52.464407,13.5138972,Treptow-Köpenick,11009009
484,3041745938,manteuffel-apotheke,nan,manteuffelstraße,19,12103,Tempelhof,nan,https://www.manteuffel-apotheke.de/,mo-fr 08:30-18:30; sa 08:30-13:00,yes,yes,52.4604721,13.3763073,Tempelhof-Schöneberg,11007007
485,3045761935,amsel-apotheke,nan,rostocker straße,15,13059,Neu-Hohenschönhausen,+49 30 96203963,https://www.amsel-apotheke-app.de/,mo-fr 08:00-20:00; sa 08:00-15:00,yes,,52.5745184,13.5094017,Lichtenberg,11011011
486,3072343433,apotheke am viktoria-luise-platz,nan,viktoria-luise-platz,9,10777,Schöneberg,+49 30 21967226,https://www.apoviktoria.de/,mo-fr 08:30-18:30; sa 09:00-14:00,yes,yes,52.4952479,13.3410681,Tempelhof-Schöneberg,11007007
487,3080747241,ginkko-apotheke,nan,walter-friedrich-straße,6,13125,Buch,nan,nan,mo-fr 08:00-19:30,yes,yes,52.6343256,13.4943853,Pankow,11003003
488,3089158088,leuchtturm apotheke,claudia spieß e.k.,heinsestraße,32-34,13467,Hermsdorf,nan,nan,"mo-fr 08:00-19:00, sa 08:30-14:00;su,ph off",yes,yes,52.6169159,13.3070697,Reinickendorf,11012012
489,3112851447,schlosspark-apotheke,nan,walter-friedrich-straße,4A,13125,Buch,nan,nan,"mo-fr 08:00-19:00, sa 09:00-15:00",yes,yes,52.6348377,13.4955488,Pankow,11003003
490,3118107216,apotheke am ukb,nan,nan,nan,nan,,nan,https://apotheke-am-ukb.de,"mo-fr 08:00-19:00, sa 09:00-13:00",yes,yes,52.5191748,13.5645435,Marzahn-Hellersdorf,11010010
491,3157838594,apotheke zum zirkel,jürgen drescher,beckerstraße,4,12157,Schöneberg,+49 30 85600861,https://www.apotheke-zum-zirkel.de/,mo-fr 08:30-18:30; sa 08:30-13:30,yes,no,52.4672036,13.342445,Tempelhof-Schöneberg,11007007
492,3157917186,lauter apotheke,anna fredrich e.k.,rheinstraße,2,12159,Friedenau,+49 30 8524403,https://www.lauter-apotheke.de,mo-fr 09:00-18:30; sa 09:00-14:00,yes,yes,52.4713396,13.3347336,Tempelhof-Schöneberg,11007007
493,3167654650,apotheke am hermannplatz,nan,nan,nan,nan,,nan,nan,"mo,tu,th,fr 08:30-19:00; we 08:30-18:00; sa 09:00-14:00",yes,limited,52.4875333,13.4256151,Neukölln,11008008
494,3206454429,karolinen apotheke,herr s. stoof,schloßstraße,5,13507,Tegel,+493043655510,nan,"mo,tu,th 08:30-19:00; we,fr 08:30-18:30",yes,yes,52.5912527,13.28343,Reinickendorf,11012012
495,3216711374,eick apotheke,nan,oranienstraße,7,10997,Kreuzberg,nan,nan,mo-fr 08:30-19:00; sa 09:00-15:00,yes,no,52.4998605,13.4247979,Friedrichshain-Kreuzberg,11002002
496,3229138232,diana apotheke,nan,schloßstraße,116,12163,Steglitz,+49 30 79788430,https://www.diana-apotheken-berlin.de/filialen/berlin-steglitz/,"mo-fr 08:00-20:00; sa 09:00-19:00; su,ph off",yes,yes,52.4622982,13.3262168,Steglitz-Zehlendorf,11006006
497,3300157792,karow apotheke,nan,bucher chaussee,1-3,13125,Karow,+49 30 94380913,nan,nan,yes,,52.616322,13.4855923,Pankow,11003003
498,3307700070,elisabeth apotheke,nan,prenzlauer allee,184,10405,Prenzlauer Berg,+49 30 44 65 17 17,nan,mo-fr 08:00-19:00; sa 09:00-14:00,yes,yes,52.5426874,13.4258787,Pankow,11003003
499,3310052861,apotheke rosenthaler platz,nan,weinbergsweg,1,10119,Mitte,nan,nan,mo-fr 08:00-20:00; sa 09:00-18:00,yes,yes,52.5299308,13.4017313,Mitte,11001001
500,3310698935,apotheke an der galenusstraße,nan,galenusstraße,59,13187,Pankow,nan,nan,mo-fr 08:00-18:30; sa 09:00-13:00,yes,,52.5806283,13.4237469,Pankow,11003003
501,3328474346,birken-apotheke karow,nan,bahnhofstraße,17A,13125,Karow,+49 (0)30-9430542,nan,"mo,tu,th 08:00-18:30; we,fr 08:00-18:00; sa 08:30-13:00",yes,no,52.6119717,13.4742827,Pankow,11003003
502,3331787468,aschenbachs apotheke,nan,georgenstraße,25,10117,Mitte,nan,nan,mo-fr 07:00-20:00; sa 10:00-17:00,,yes,52.5196854,13.3874475,Mitte,11001001
503,3334327193,apotheke 4.0,apotheken im center,turmstraße,29,10551,Moabit,nan,https://apotheken-im-center.info/berlin/de/apotheke-4.0.php,mo-sa 08:00-21:00,,yes,52.526505,13.3417528,Mitte,11001001
504,3337674441,kristall apotheke,kathrin wernecke e.kfr.,tegeler weg,3,10589,Charlottenburg,nan,nan,mo-fr 08:30-18:30,yes,no,52.5233862,13.299693,Charlottenburg-Wilmersdorf,11004004
505,3337738729,apotheke am heckerdamm,nan,heckerdamm,225,13627,Charlottenburg-Nord,+49 30 34901533,https://www.apotheke-am-heckerdamm.de/,mo-fr 08:00-18:30; sa 08:00-13:30,yes,,52.5390832,13.2994523,Charlottenburg-Wilmersdorf,11004004
506,3337776414,eva-apotheke,nan,schönwalder straße,78-79,13585,,+49 30 3753573,https://www.eva-apotheke-berlin.de/,mo 08:00-18:30;sa 08:00-13:30,yes,no,52.5492831,13.2003621,Spandau,11005005
507,3338623569,apotheke wilhelmstraße,nan,wilhelmstraße,24B,13593,Wilhelmstadt,+49 30 365093010,https://apotheke-wilhelmstrasse.de/,mo-sa 08:00-20:00,,yes,52.5212776,13.1854103,Spandau,11005005
508,3338651114,gesundheits-apotheke,nan,schönefelder chaussee,233,12524,Altglienicke,+49 30 6734185,http://www.docmorris-apotheke.de/de/apotheken/list/berlin/altglienicke-schoenefeld/,mo-fr 08:00-19:00; sa 08:00-14:00,yes,yes,52.4029704,13.5240121,Treptow-Köpenick,11009009
509,3339491292,titisee apotheke,nan,titiseestraße,5,13469,,+49 30 4022980,https://www.titisee-apotheke-berlin.de/,mo-fr 08:30-18:00; sa 08:30-13:00,,yes,52.6092923,13.335399,Reinickendorf,11012012
510,3340079413,oran-apotheke,nan,oranienburger straße,60,13437,Wittenau,+49 30 4140990,https://www.oran-apotheke-berlin.de/,mo 08:00-18:30;tu 08:00-19:30;we 08:00-18:30;th 08:00-19:30;fr 08:00-18:30;sa 08:00-13:00,yes,yes,52.5894338,13.3346308,Reinickendorf,11012012
511,3341588831,kolonie-apotheke,ahmed aziz,koloniestraße,22,13359,,+49 30 49913399,nan,mo-fr 08:30-19:00; sa 09:00-13:00,yes,,52.5578575,13.3787231,Mitte,11001001
512,3350477701,nordkreuz apotheke,ling girgsdies e.k.,hanne-sobek-platz,nan,13357,,+49 30 499 17 111,https://www.nordkreuz-apotheke.de/,mo-fr 08:00-20:00; su 10:00-16:00; sa 09:00-19:00,no,yes,52.548374,13.3887526,Mitte,11001001
513,3353191483,berlinda apotheke,nan,schloßstraße,34,12163,Steglitz,nan,nan,mo-fr 09:00-20:00; sa 10:00-20:00,yes,yes,52.4576052,13.3197716,Steglitz-Zehlendorf,11006006
514,3353229504,mediosapotheke,nan,nan,1,13187,Pankow,nan,nan,sa 09:00-16:00; mo-fr 08:00-19:00,yes,yes,52.567326,13.4108465,Pankow,11003003
515,3353236089,arcaden-apotheke,nan,nan,nan,nan,,+49 30 3300100,https://www.arcaden-apotheke.com/spandau,mo-fr 09:00-21:00; sa 10:00-21:00,yes,yes,52.5334895,13.1975602,Spandau,11005005
516,3353252595,arcaden-apotheke,nan,tempelhofer damm,227,12099,Tempelhof,nan,nan,mo-fr 09:00-20:00; sa 10:00-20:00,yes,yes,52.456063,13.3862617,Tempelhof-Schöneberg,11007007
517,3353551041,sky apotheke kreuzberg,nan,bergmannstraße,5-7,10961,Kreuzberg,nan,nan,nan,,yes,52.4895389,13.3888023,Friedrichshain-Kreuzberg,11002002
518,3354050334,friedrich-wilhelm apotheke,nan,friedrich-wilhelm-platz,6,12161,Friedenau,nan,nan,mo-fr 08:15-18:30; sa 09:00-13:00,yes,limited,52.4721004,13.3275938,Tempelhof-Schöneberg,11007007
519,3357535140,kollwitz-apotheke,nan,nan,nan,nan,,nan,nan,mo-fr 09:00-19:00; sa 09:00-16:00,yes,yes,52.5361903,13.4182329,Pankow,11003003
520,3374665796,krankenhaus-apotheke,nan,nan,nan,nan,,nan,nan,mo-fr 07:30-17:00; sa 09:00-12:00,no,,52.5438614,13.3446673,Mitte,11001001
521,3411987196,wittekind-apotheke am attilaplatz,nan,manteuffelstraße,32,12103,Tempelhof,+49 30 7523045,nan,mo-fr 08:30-18:30; sa 08:30-13:00,yes,yes,52.4565876,13.3754259,Tempelhof-Schöneberg,11007007
522,3446123445,sophien-apotheke,nan,invalidenstraße,157,10115,Mitte,nan,nan,mo-fr 08:00-19:00; sa 08:00-14:00,yes,yes,52.5323503,13.3968456,Mitte,11001001
523,3472167668,apotheke goltzstraße,apotheker david bekerman e.k.,goltzstraße,35,10781,Schöneberg,nan,nan,mo-fr 09:00-19:00; sa 09:00-17:00,yes,yes,52.4939336,13.3535927,Tempelhof-Schöneberg,11007007
