name,category,cuisine,address,latitude,longitude,website,phone,opening_hours,takeaway,wheelchair_accessible,neighborhood,opening_hours_dict,district,postal_code,venue_id,district_id
Aida,restaurant,italian;pizza,"Knesebeckstraße , 10623 Berlin",52.5068638,13.3228585,https://www.aida-restaurant.de/,+493031806750,Mo-Sa 11:30-21:00; Su 15:00-21:00,,no,Charlottenburg,"{""Mo"": [[""11:30"", ""21:00""]], ""Tu"": [[""11:30"", ""21:00""]], ""We"": [[""11:30"", ""21:00""]], ""Th"": [[""11:30"", ""21:00""]], ""Fr"": [[""11:30"", ""21:00""]], ""Sa"": [[""11:30"", ""21:00""]], ""Su"": [[""15:00"", ""21:00""]]}",Charlottenburg-Wilmersdorf,10623,V0001,11004004
Madame Ngo,restaurant,asian,"Kantstraße 30, 10623 Berlin",52.5062119,13.3180811,,+4915753604089,"Mo-Sa 12:00-16:30, 18:00-22:00; Su 12:00-16:30, 18:00-21:30",,limited,Charlottenburg,"{""Mo"": [[""12:00"", ""16:30""], [""18:00"", ""22:00""]], ""Tu"": [[""12:00"", ""16:30""], [""18:00"", ""22:00""]], ""We"": [[""12:00"", ""16:30""], [""18:00"", ""22:00""]], ""Th"": [[""12:00"", ""16:30""], [""18:00"", ""22:00""]], ""Fr"": [[""12:00"", ""16:30""], [""18:00"", ""22:00""]], ""Sa"": [[""12:00"", ""16:30""], [""18:00"", ""22:00""]], ""Su"": [[""12:00"", ""16:30""], [""18:00"", ""21:30""]]}",Charlottenburg-Wilmersdorf,10623,V0002,11004004
Nam Thuân,restaurant,vietnamese,"Pestalozzistraße 106, 10625 Berlin",52.5073199,13.3207804,,,,,no,Charlottenburg,,Charlottenburg-Wilmersdorf,10625,V0003,11004004
La Rose,restaurant,italian,"Neue Kantstraße 19, 14057 Berlin",52.5063184,13.2846256,,,,,,Charlottenburg,,Charlottenburg-Wilmersdorf,14057,V0004,11004004
Eiscafe Eisberg,cafe,,"Brunnenstraße 55, 13355 Berlin",52.5388551,13.3960965,http://www.eis-berg.de/,,,,yes,Gesundbrunnen,,Mitte,13355,V0005,11001001
Tibet Haus,restaurant,tibetan,"Zossener Straße 19, 10961 Berlin",52.4907103,13.3939814,,,12:00-24:00,,no,Kreuzberg,"{""Mo"": [[""12:00"", ""00:00""]], ""Tu"": [[""12:00"", ""00:00""]], ""We"": [[""12:00"", ""00:00""]], ""Th"": [[""12:00"", ""00:00""]], ""Fr"": [[""12:00"", ""00:00""]], ""Sa"": [[""12:00"", ""00:00""]], ""Su"": [[""12:00"", ""00:00""]]}",Friedrichshain-Kreuzberg,10961,V0006,11002002
Coffee Star,cafe,,"Müllerstraße 146, 13353 Berlin",52.5476798,13.3563426,https://coffeestar.net/,+493045482893,Mo-Fr 08:00-19:00; Sa 10:00-16:00,,no,Wedding,"{""Mo"": [[""08:00"", ""19:00""]], ""Tu"": [[""08:00"", ""19:00""]], ""We"": [[""08:00"", ""19:00""]], ""Th"": [[""08:00"", ""19:00""]], ""Fr"": [[""08:00"", ""19:00""]], ""Sa"": [[""10:00"", ""16:00""]]}",Mitte,13353,V0007,11001001
Paella,restaurant,mexican,"Wundtstraße 72, 14057 Berlin",52.5068889,13.2839198,,,Mo-Su 11:00-23:00+,,limited,Charlottenburg,"{""Mo"": [[""11:00-23:00"", ""late""]], ""Tu"": [[""11:00-23:00"", ""late""]], ""We"": [[""11:00-23:00"", ""late""]], ""Th"": [[""11:00-23:00"", ""late""]], ""Fr"": [[""11:00-23:00"", ""late""]], ""Sa"": [[""11:00-23:00"", ""late""]], ""Su"": [[""11:00-23:00"", ""late""]]}",Charlottenburg-Wilmersdorf,14057,V0008,11004004
Cancún,restaurant,mexican,"Kaiserdamm 24, 14057 Berlin",52.5103223,13.2829535,https://www.cancun-restaurant.de/,+493030111105,Mo-Su 11:00-03:00,,limited,Westend,"{""Mo"": [[""11:00"", ""03:00""]], ""Tu"": [[""11:00"", ""03:00""]], ""We"": [[""11:00"", ""03:00""]], ""Th"": [[""11:00"", ""03:00""]], ""Fr"": [[""11:00"", ""03:00""]], ""Sa"": [[""11:00"", ""03:00""]], ""Su"": [[""11:00"", ""03:00""]]}",Charlottenburg-Wilmersdorf,14057,V0009,11004004
Schatulle,restaurant,regional,13351 Berlin,52.5542713,13.3311277,,+49304513071,"Tu-Fr 12:00-22:00, Sa,Su 10:00-22:00, PH 10:00-22:00",,limited,Wedding,"{""Tu"": [[""12:00"", ""22:00""], [""Sa"", """"], [""Su 10:00"", ""22:00""], [""PH 10:00"", ""22:00""]], ""We"": [[""12:00"", ""22:00""], [""Sa"", """"], [""Su 10:00"", ""22:00""], [""PH 10:00"", ""22:00""]], ""Th"": [[""12:00"", ""22:00""], [""Sa"", """"], [""Su 10:00"", ""22:00""], [""PH 10:00"", ""22:00""]], ""Fr"": [[""12:00"", ""22:00""], [""Sa"", """"], [""Su 10:00"", ""22:00""], [""PH 10:00"", ""22:00""]]}",Mitte,13351,V0010,11001001
Haus der 100 Biere,restaurant,german,"Kurfürstendamm 100, 10709 Berlin",52.4983826,13.2969979,https://100biere.de/,+493025092901,Mo-Su 11:00-00:00,,yes,Halensee,"{""Mo"": [[""11:00"", ""00:00""]], ""Tu"": [[""11:00"", ""00:00""]], ""We"": [[""11:00"", ""00:00""]], ""Th"": [[""11:00"", ""00:00""]], ""Fr"": [[""11:00"", ""00:00""]], ""Sa"": [[""11:00"", ""00:00""]], ""Su"": [[""11:00"", ""00:00""]]}",Charlottenburg-Wilmersdorf,10709,V0011,11004004
Ach!NikO!Ach!,restaurant,greek,"Kurfürstendamm 97-98, 10709 Berlin",52.4985867,13.2982491,,,Mo-Su 12:00-24:00,,no,Halensee,"{""Mo"": [[""12:00"", ""00:00""]], ""Tu"": [[""12:00"", ""00:00""]], ""We"": [[""12:00"", ""00:00""]], ""Th"": [[""12:00"", ""00:00""]], ""Fr"": [[""12:00"", ""00:00""]], ""Sa"": [[""12:00"", ""00:00""]], ""Su"": [[""12:00"", ""00:00""]]}",Charlottenburg-Wilmersdorf,10709,V0012,11004004
Ristorante Salve,restaurant,pizza,"Damaschkestraße 31, 10711 Berlin",52.5009791,13.2976442,,,Tu-Su 16:00-22:00; Mo off,,limited,Halensee,"{""Tu"": [[""16:00"", ""22:00""]], ""We"": [[""16:00"", ""22:00""]], ""Th"": [[""16:00"", ""22:00""]], ""Fr"": [[""16:00"", ""22:00""]], ""Sa"": [[""16:00"", ""22:00""]], ""Su"": [[""16:00"", ""22:00""]]}",Charlottenburg-Wilmersdorf,10711,V0013,11004004
Starbucks,cafe,coffee_shop,"Starbucks, Friedrichstraße, Dorotheenstadt, Mitte, Berlin, 10117, Deutschland",52.5194029,13.3887381,,,Mo-Fr 07:00-21:00; Sa 08:00-21:00; Su 09:00-19:30,yes,yes,Mitte,"{""Mo"": [[""07:00"", ""21:00""]], ""Tu"": [[""07:00"", ""21:00""]], ""We"": [[""07:00"", ""21:00""]], ""Th"": [[""07:00"", ""21:00""]], ""Fr"": [[""07:00"", ""21:00""]], ""Sa"": [[""08:00"", ""21:00""]], ""Su"": [[""09:00"", ""19:30""]]}",Mitte,10117,V0014,11001001
Starbucks,cafe,coffee_shop,"Pariser Platz 4A, 10117 Berlin",52.5167295,13.3797732,https://www.starbucks.de/store-locator/store/2099/pariser-platz-pariser-platz-4-a-berlin-be-10117-de,+493020617990,"Mo-Fr 08:00-21:00; Sa,Su 09:00-21:00",yes,yes,Mitte,"{""Mo"": [[""08:00"", ""21:00""]], ""Tu"": [[""08:00"", ""21:00""]], ""We"": [[""08:00"", ""21:00""]], ""Th"": [[""08:00"", ""21:00""]], ""Fr"": [[""08:00"", ""21:00""]], ""Sa"": [[""09:00"", ""21:00""]], ""Su"": [[""09:00"", ""21:00""]]}",Mitte,10117,V0015,11001001
Brammibal's Donuts,cafe,donut,"Alte Potsdamer Straße 7, 10785 Berlin",52.507931,13.3737316,,,"Mo-Fr 09:00-21:00; Sa 10:00-21:00; Su,PH 10:00-20:00",,yes,Tiergarten,"{""Mo"": [[""09:00"", ""21:00""]], ""Tu"": [[""09:00"", ""21:00""]], ""We"": [[""09:00"", ""21:00""]], ""Th"": [[""09:00"", ""21:00""]], ""Fr"": [[""09:00"", ""21:00""]], ""Sa"": [[""10:00"", ""21:00""]], ""Su"": [[""10:00"", ""20:00""]], ""PH"": [[""10:00"", ""20:00""]]}",Mitte,10785,V0016,11001001
Espresso House,cafe,coffee_shop,"Potsdamer Platz 5, 10785 Berlin",52.5105871,13.3764297,,,Mo-Fr 07:30-20:00; Sa-Su 08:30-20:00,yes,yes,Tiergarten,"{""Mo"": [[""07:30"", ""20:00""]], ""Tu"": [[""07:30"", ""20:00""]], ""We"": [[""07:30"", ""20:00""]], ""Th"": [[""07:30"", ""20:00""]], ""Fr"": [[""07:30"", ""20:00""]], ""Sa"": [[""08:30"", ""20:00""]], ""Su"": [[""08:30"", ""20:00""]]}",Mitte,10785,V0017,11001001
Dalmacija,restaurant,balkan,"Quäkerstraße 2, 13403 Berlin",52.572519,13.3082697,https://restaurant-dalmacija.wixsite.com/restaurant-dalmacija,+49304134103,Tu-Su 12:00-22:00,,yes,Reinickendorf,"{""Tu"": [[""12:00"", ""22:00""]], ""We"": [[""12:00"", ""22:00""]], ""Th"": [[""12:00"", ""22:00""]], ""Fr"": [[""12:00"", ""22:00""]], ""Sa"": [[""12:00"", ""22:00""]], ""Su"": [[""12:00"", ""22:00""]]}",Reinickendorf,13403,V0018,11012012
Schlemmerküche,restaurant,german,"Wittestraße 49, 13509 Berlin",52.5771153,13.3073153,https://www.schlemmerkueche.de/,+493043605808,Mo-Fr 11:30-13:30,,limited,Tegel,"{""Mo"": [[""11:30"", ""13:30""]], ""Tu"": [[""11:30"", ""13:30""]], ""We"": [[""11:30"", ""13:30""]], ""Th"": [[""11:30"", ""13:30""]], ""Fr"": [[""11:30"", ""13:30""]]}",Reinickendorf,13509,V0019,11012012
Taverna Athos,restaurant,greek,"Bundesplatz 2, 10715 Berlin",52.4800304,13.3277157,https://www.taverna-athos-berlin.de,+493081487870,Mo-Su 12:00-23:00,,,Wilmersdorf,"{""Mo"": [[""12:00"", ""23:00""]], ""Tu"": [[""12:00"", ""23:00""]], ""We"": [[""12:00"", ""23:00""]], ""Th"": [[""12:00"", ""23:00""]], ""Fr"": [[""12:00"", ""23:00""]], ""Sa"": [[""12:00"", ""23:00""]], ""Su"": [[""12:00"", ""23:00""]]}",Charlottenburg-Wilmersdorf,10715,V0020,11004004
Albert's,bar,,"Scharnweberstraße 16, 13405 Berlin",52.56382,13.328849,https://www.alberts-restaurants.de/,+493036726707,,,yes,Reinickendorf,,Reinickendorf,13405,V0021,11012012
Pizzaria Tamara,restaurant,italian;pizza,"Zobeltitzstraße 90, 13403 Berlin",52.5701303,13.3098188,,,,,no,Reinickendorf,,Reinickendorf,13403,V0022,11012012
BLOCK HOUSE,restaurant,steak_house,"Theodor-Heuss-Platz 12, 14052 Berlin",52.5096736,13.2707607,https://www.block-house.de/restaurants/berlin/theodor-heuss-platz/,+49303017091,Mo-Sa 12:00-23:00; Su 12:00-22:00,,yes,Westend,"{""Mo"": [[""12:00"", ""23:00""]], ""Tu"": [[""12:00"", ""23:00""]], ""We"": [[""12:00"", ""23:00""]], ""Th"": [[""12:00"", ""23:00""]], ""Fr"": [[""12:00"", ""23:00""]], ""Sa"": [[""12:00"", ""23:00""]], ""Su"": [[""12:00"", ""22:00""]]}",Charlottenburg-Wilmersdorf,14052,V0023,11004004
Café & Reisebüro - Eishandwerk,cafe,,"Heerstraße 1, 14052 Berlin",52.5089075,13.2708507,,,Mo-Fr 10:00-17:00,,yes,Westend,"{""Mo"": [[""10:00"", ""17:00""]], ""Tu"": [[""10:00"", ""17:00""]], ""We"": [[""10:00"", ""17:00""]], ""Th"": [[""10:00"", ""17:00""]], ""Fr"": [[""10:00"", ""17:00""]]}",Charlottenburg-Wilmersdorf,14052,V0024,11004004
JOE'S Restaurant & Wirtshaus,restaurant,german,"Theodor-Heuss-Platz 10, 14052 Berlin",52.509874,13.2708833,https://www.joes-berlin.de,+49302621020,10:00-24:00,,limited,Westend,"{""Mo"": [[""10:00"", ""00:00""]], ""Tu"": [[""10:00"", ""00:00""]], ""We"": [[""10:00"", ""00:00""]], ""Th"": [[""10:00"", ""00:00""]], ""Fr"": [[""10:00"", ""00:00""]], ""Sa"": [[""10:00"", ""00:00""]], ""Su"": [[""10:00"", ""00:00""]]}",Charlottenburg-Wilmersdorf,14052,V0025,11004004
Lindenwirtin,restaurant,regional,"Lindenallee 28, 14050 Berlin",52.5106205,13.2716607,,+49303027747,"Mo-Su,PH 15:00+",,yes,Westend,"{""Mo"": [[""15:00"", ""late""]], ""Tu"": [[""15:00"", ""late""]], ""We"": [[""15:00"", ""late""]], ""Th"": [[""15:00"", ""late""]], ""Fr"": [[""15:00"", ""late""]], ""Sa"": [[""15:00"", ""late""]], ""Su"": [[""15:00"", ""late""]], ""PH"": [[""15:00"", ""late""]]}",Charlottenburg-Wilmersdorf,14050,V0026,11004004
Cancun,restaurant,,"Anhalter Straße 1, 10963 Berlin",52.5044686,13.3827465,https://cancun-potsdamerplatz.de/,,"PH,Mo-Su 11:30-02:00",,yes,Kreuzberg,"{""PH"": [[""11:30"", ""02:00""]], ""Mo"": [[""11:30"", ""02:00""]], ""Tu"": [[""11:30"", ""02:00""]], ""We"": [[""11:30"", ""02:00""]], ""Th"": [[""11:30"", ""02:00""]], ""Fr"": [[""11:30"", ""02:00""]], ""Sa"": [[""11:30"", ""02:00""]], ""Su"": [[""11:30"", ""02:00""]]}",Friedrichshain-Kreuzberg,10963,V0027,11002002
Espresso House,cafe,coffee_shop,"Potsdamer Platz 10, 10785 Berlin",52.5082693,13.3770044,,,Mo-Fr 06:00-23:00; Sa 07:00-24:00; Su 07:30-22:00,yes,yes,Tiergarten,"{""Mo"": [[""06:00"", ""23:00""]], ""Tu"": [[""06:00"", ""23:00""]], ""We"": [[""06:00"", ""23:00""]], ""Th"": [[""06:00"", ""23:00""]], ""Fr"": [[""06:00"", ""23:00""]], ""Sa"": [[""07:00"", ""00:00""]], ""Su"": [[""07:30"", ""22:00""]]}",Mitte,10785,V0028,11001001
Bocca di Bacco,restaurant,italian,"Friedrichstraße 167;168, 10117 Berlin",52.5151119,13.3889084,,,Mo-Sa 12:00-24:00,,no,Mitte,"{""Mo"": [[""12:00"", ""00:00""]], ""Tu"": [[""12:00"", ""00:00""]], ""We"": [[""12:00"", ""00:00""]], ""Th"": [[""12:00"", ""00:00""]], ""Fr"": [[""12:00"", ""00:00""]], ""Sa"": [[""12:00"", ""00:00""]]}",Mitte,10117,V0029,11001001
Restaurant Borchardt,restaurant,,"Französische Straße 47, 10117 Berlin",52.5150034,13.3903882,https://www.borchardt-restaurant.de/,,11:30-24:00,,limited,Mitte,"{""Mo"": [[""11:30"", ""00:00""]], ""Tu"": [[""11:30"", ""00:00""]], ""We"": [[""11:30"", ""00:00""]], ""Th"": [[""11:30"", ""00:00""]], ""Fr"": [[""11:30"", ""00:00""]], ""Sa"": [[""11:30"", ""00:00""]], ""Su"": [[""11:30"", ""00:00""]]}",Mitte,10117,V0030,11001001
Heritage,restaurant,,"Französische Straße 25, 10117 Berlin",52.514689,13.3909281,,,Mo-Su 06:30-23:00,,no,Mitte,"{""Mo"": [[""06:30"", ""23:00""]], ""Tu"": [[""06:30"", ""23:00""]], ""We"": [[""06:30"", ""23:00""]], ""Th"": [[""06:30"", ""23:00""]], ""Fr"": [[""06:30"", ""23:00""]], ""Sa"": [[""06:30"", ""23:00""]], ""Su"": [[""06:30"", ""23:00""]]}",Mitte,10117,V0031,11001001
Lutter & Wegner,restaurant,german,"Charlottenstraße 56, 10117 Berlin",52.5132123,13.3911782,http://www.l-w-berlin.de,+49302029540,"Mo-Su,PH 12:00-24:00",,no,Mitte,"{""Mo"": [[""12:00"", ""00:00""]], ""Tu"": [[""12:00"", ""00:00""]], ""We"": [[""12:00"", ""00:00""]], ""Th"": [[""12:00"", ""00:00""]], ""Fr"": [[""12:00"", ""00:00""]], ""Sa"": [[""12:00"", ""00:00""]], ""Su"": [[""12:00"", ""00:00""]], ""PH"": [[""12:00"", ""00:00""]]}",Mitte,10117,V0032,11001001
Victor & Victoria,restaurant,,"Charlottenstraße 59, 10117 Berlin",52.5124049,13.3913074,https://victorvictoriaberlin.com/,+4930992115611,,,yes,Mitte,,Mitte,10117,V0033,11001001
Bellboy Berlin,bar,,"Mohrenstraße 30, 10117 Berlin",52.512033,13.3919416,https://bellboybar.com/,+493020077070,Tu-Su 18:00+,,yes,Mitte,"{""Tu"": [[""18:00"", ""late""]], ""We"": [[""18:00"", ""late""]], ""Th"": [[""18:00"", ""late""]], ""Fr"": [[""18:00"", ""late""]], ""Sa"": [[""18:00"", ""late""]], ""Su"": [[""18:00"", ""late""]]}",Mitte,10117,V0034,11001001
Fellini,restaurant,,"Fellini, Mohrenstraße, Friedrichswerder, Mitte, Berlin, 10117, Deutschland",52.5120539,13.3922763,,,,,no,Mitte,,Mitte,10117,V0035,11001001
Newton Bar,bar,,"Charlottenstraße 57, 10117 Berlin",52.5129305,13.3912298,http://www.newton-bar.de,,,,no,Mitte,,Mitte,10117,V0036,11001001
Espresso House,cafe,coffee_shop,"Invalidenstraße 35, 10115 Berlin",52.5307598,13.3831456,,,"Mo-Fr 06:30-19:30; Sa,Su 08:00-20:00",yes,limited,Mitte,"{""Mo"": [[""06:30"", ""19:30""]], ""Tu"": [[""06:30"", ""19:30""]], ""We"": [[""06:30"", ""19:30""]], ""Th"": [[""06:30"", ""19:30""]], ""Fr"": [[""06:30"", ""19:30""]], ""Sa"": [[""08:00"", ""20:00""]], ""Su"": [[""08:00"", ""20:00""]]}",Mitte,10115,V0037,11001001
Starbucks,cafe,coffee_shop,"Friedrichstraße 61, 10117 Berlin",52.5110724,13.3900182,,,Mo-Fr 07:00-20:00; Sa 08:00-20:00; Su 09:00-19:00,yes,yes,Mitte,"{""Mo"": [[""07:00"", ""20:00""]], ""Tu"": [[""07:00"", ""20:00""]], ""We"": [[""07:00"", ""20:00""]], ""Th"": [[""07:00"", ""20:00""]], ""Fr"": [[""07:00"", ""20:00""]], ""Sa"": [[""08:00"", ""20:00""]], ""Su"": [[""09:00"", ""19:00""]]}",Mitte,10117,V0038,11001001
Einstein Kaffee,cafe,coffee_shop,"Einstein Kaffee, Kronenstraße, Friedrichswerder, Mitte, Berlin, 10117, Deutschland",52.5113571,13.3894708,,,"Mo-Fr 07:00-20:00; PH,Sa-Su 09:00-19:00",yes,yes,Mitte,"{""Mo"": [[""07:00"", ""20:00""]], ""Tu"": [[""07:00"", ""20:00""]], ""We"": [[""07:00"", ""20:00""]], ""Th"": [[""07:00"", ""20:00""]], ""Fr"": [[""07:00"", ""20:00""]], ""PH"": [[""09:00"", ""19:00""]], ""Sa"": [[""09:00"", ""19:00""]], ""Su"": [[""09:00"", ""19:00""]]}",Mitte,10117,V0039,11001001
Maximilians,restaurant,bavarian,"Friedrichstraße 185-190, 10117 Berlin",52.5113441,13.3891811,,,Mo-Su 11:30-23:30,,yes,Mitte,"{""Mo"": [[""11:30"", ""23:30""]], ""Tu"": [[""11:30"", ""23:30""]], ""We"": [[""11:30"", ""23:30""]], ""Th"": [[""11:30"", ""23:30""]], ""Fr"": [[""11:30"", ""23:30""]], ""Sa"": [[""11:30"", ""23:30""]], ""Su"": [[""11:30"", ""23:30""]]}",Mitte,10117,V0040,11001001
Izumi Sushi Bar,restaurant,japanese,"Kronenstraße 66, 10117 Berlin",52.511292,13.3887116,https://www.sushi-izumi.de/,+493020649938,Mo-Fr 11:00-23:00; Sa 12:00-23:00; Su 01:00-23:00,,yes,Mitte,"{""Mo"": [[""11:00"", ""23:00""]], ""Tu"": [[""11:00"", ""23:00""]], ""We"": [[""11:00"", ""23:00""]], ""Th"": [[""11:00"", ""23:00""]], ""Fr"": [[""11:00"", ""23:00""]], ""Sa"": [[""12:00"", ""23:00""]], ""Su"": [[""01:00"", ""23:00""]]}",Mitte,10117,V0041,11001001
Beast Berlin,restaurant,steak_house,"Karl-Liebknecht-Straße 29, 10178 Berlin",52.52429,13.4118534,,,"Tu-Sa 17:00-02:00; Su,Mo off",,no,Mitte,"{""Tu"": [[""17:00"", ""02:00""]], ""We"": [[""17:00"", ""02:00""]], ""Th"": [[""17:00"", ""02:00""]], ""Fr"": [[""17:00"", ""02:00""]], ""Sa"": [[""17:00"", ""02:00""]]}",Mitte,10178,V0042,11001001
Aapka - Restaurant Alexanderplatz,restaurant,indian,"Karl-Liebknecht-Straße 23, 10178 Berlin",52.5235991,13.4109696,,,11:30+,,,Mitte,"{""Mo"": [[""11:30"", ""late""]], ""Tu"": [[""11:30"", ""late""]], ""We"": [[""11:30"", ""late""]], ""Th"": [[""11:30"", ""late""]], ""Fr"": [[""11:30"", ""late""]], ""Sa"": [[""11:30"", ""late""]], ""Su"": [[""11:30"", ""late""]]}",Mitte,10178,V0043,11001001
Der Alte Fritz,restaurant,german,"Panoramastraße 1, 10178 Berlin",52.5214304,13.4092065,https://der-alte-fritz.eatbu.com/,+493096200600,"PH,Mo-Su 12:00-22:00",yes,,Mitte,"{""PH"": [[""12:00"", ""22:00""]], ""Mo"": [[""12:00"", ""22:00""]], ""Tu"": [[""12:00"", ""22:00""]], ""We"": [[""12:00"", ""22:00""]], ""Th"": [[""12:00"", ""22:00""]], ""Fr"": [[""12:00"", ""22:00""]], ""Sa"": [[""12:00"", ""22:00""]], ""Su"": [[""12:00"", ""22:00""]]}",Mitte,10178,V0044,11001001
Carambar,restaurant,,"Rathausstraße 1, 10178 Berlin",52.5203514,13.4122196,https://carambar.de,,"Mo-Su,PH 12:00-18:00+",,yes,Mitte,"{""Mo"": [[""12:00-18:00"", ""late""]], ""Tu"": [[""12:00-18:00"", ""late""]], ""We"": [[""12:00-18:00"", ""late""]], ""Th"": [[""12:00-18:00"", ""late""]], ""Fr"": [[""12:00-18:00"", ""late""]], ""Sa"": [[""12:00-18:00"", ""late""]], ""Su"": [[""12:00-18:00"", ""late""]], ""PH"": [[""12:00-18:00"", ""late""]]}",Mitte,10178,V0045,11001001
Matzbach,restaurant,,"Matzbach, 1, Rathausstraße, Spandauer Vorstadt, Mitte, Berlin, 10178, Deutschland",52.5202106,13.4118079,,,,,,Mitte,,Mitte,10178,V0046,11001001
Segafredo,cafe,coffee_shop,"Segafredo, 1-14, Rathausstraße, Spandauer Vorstadt, Mitte, Berlin, 10178, Deutschland",52.5195321,13.4103508,,,,yes,,Mitte,,Mitte,10178,V0047,11001001
Azem,restaurant,turkish,"Azem, Rathausstraße, Friedrichswerder, Mitte, Berlin, 10178, Deutschland",52.5180123,13.4071626,,,,,,Mitte,,Mitte,10178,V0048,11001001
Mutter Hoppe,restaurant,german,"Rathausstraße 21, 10178 Berlin",52.5175872,13.4058989,,,Mo-Sa 11:30-22:00+,,no,Mitte,"{""Mo"": [[""11:30-22:00"", ""late""]], ""Tu"": [[""11:30-22:00"", ""late""]], ""We"": [[""11:30-22:00"", ""late""]], ""Th"": [[""11:30-22:00"", ""late""]], ""Fr"": [[""11:30-22:00"", ""late""]], ""Sa"": [[""11:30-22:00"", ""late""]]}",Mitte,10178,V0049,11001001
Julchen Hoppe,restaurant,regional,"Rathausstraße 25, 10178 Berlin",52.5172681,13.4050245,https://julchen-hoppe.eatbu.com/?lang=de,,Mo-Fr 11:30+,,yes,Mitte,"{""Mo"": [[""11:30"", ""late""]], ""Tu"": [[""11:30"", ""late""]], ""We"": [[""11:30"", ""late""]], ""Th"": [[""11:30"", ""late""]], ""Fr"": [[""11:30"", ""late""]]}",Mitte,10178,V0050,11001001
Shezan,restaurant,indian,"Neue Roßstraße 13, 10179 Berlin",52.512146,13.4081288,,,Mo-Su 11:30-23:30,,limited,Mitte,"{""Mo"": [[""11:30"", ""23:30""]], ""Tu"": [[""11:30"", ""23:30""]], ""We"": [[""11:30"", ""23:30""]], ""Th"": [[""11:30"", ""23:30""]], ""Fr"": [[""11:30"", ""23:30""]], ""Sa"": [[""11:30"", ""23:30""]], ""Su"": [[""11:30"", ""23:30""]]}",Mitte,10179,V0051,11001001
Trattoria Monticchiello,restaurant,italian,"Berliner Straße 70, 13507 Berlin",52.5827216,13.2901148,,,Mo off; Tu-Th 12:00-22:00; Fr-Su 15:00-22:00,,no,Tegel,"{""Fr"": [[""15:00"", ""22:00""]], ""Sa"": [[""15:00"", ""22:00""]], ""Su"": [[""15:00"", ""22:00""]]}",Reinickendorf,13507,V0052,11012012
No Limit Shishabar,bar,,"No Limit Shishabar, Scharnweberstraße, Reinickendorf, Berlin, 13405, Deutschland",52.5655612,13.3209279,,+4915788084160,,,,Reinickendorf,,Reinickendorf,13405,V0053,11012012
Caffè Kamee,cafe,,"Rudower Chaussee 25, 12489 Berlin",52.4296874,13.530639,https://www.kamee-caffe.de/,+493063922144,PH off; Mo-Fr 08:00-15:00,,limited,Adlershof,"{""Mo"": [[""08:00"", ""15:00""]], ""Tu"": [[""08:00"", ""15:00""]], ""We"": [[""08:00"", ""15:00""]], ""Th"": [[""08:00"", ""15:00""]], ""Fr"": [[""08:00"", ""15:00""]]}",Treptow-Köpenick,12489,V0054,11009009
Oase Adlershof,restaurant,,"Rudower Chaussee 25, 12489 Berlin",52.4293751,13.5301027,,,Mo-Fr 11:00-15:00,,yes,Adlershof,"{""Mo"": [[""11:00"", ""15:00""]], ""Tu"": [[""11:00"", ""15:00""]], ""We"": [[""11:00"", ""15:00""]], ""Th"": [[""11:00"", ""15:00""]], ""Fr"": [[""11:00"", ""15:00""]]}",Treptow-Köpenick,12489,V0055,11009009
Pula-Grill,restaurant,balkan,"Auguste-Viktoria-Allee 79, 13403 Berlin",52.5701846,13.3206599,,,Mo-Su 11:30-23:00,,limited,Reinickendorf,"{""Mo"": [[""11:30"", ""23:00""]], ""Tu"": [[""11:30"", ""23:00""]], ""We"": [[""11:30"", ""23:00""]], ""Th"": [[""11:30"", ""23:00""]], ""Fr"": [[""11:30"", ""23:00""]], ""Sa"": [[""11:30"", ""23:00""]], ""Su"": [[""11:30"", ""23:00""]]}",Reinickendorf,13403,V0056,11012012
Paris-Moskau,restaurant,regional,"Alt-Moabit 141, 10557 Berlin",52.5225899,13.3644784,https://www.paris-moskau.de/,,"Mo-Fr 12:00-15:00,18:00+, Sa 18:00+",,yes,Moabit,"{""Mo"": [[""12:00"", ""15:00""], [""18:00"", ""late""], [""Sa 18:00"", ""late""]], ""Tu"": [[""12:00"", ""15:00""], [""18:00"", ""late""], [""Sa 18:00"", ""late""]], ""We"": [[""12:00"", ""15:00""], [""18:00"", ""late""], [""Sa 18:00"", ""late""]], ""Th"": [[""12:00"", ""15:00""], [""18:00"", ""late""], [""Sa 18:00"", ""late""]], ""Fr"": [[""12:00"", ""15:00""], [""18:00"", ""late""], [""Sa 18:00"", ""late""]]}",Mitte,10557,V0057,11001001
en passant,bar,,"Schönhauser Allee 58, 10437 Berlin",52.5442253,13.4128822,,,,,yes,Prenzlauer Berg,,Pankow,10437,V0058,11003003
Strandlust,restaurant,fish,"Seddinpromenade 3A, 12527 Berlin",52.3762307,13.657224,,,Tu-Su 12:00-dusk; Mo off,,no,Schmöckwitz,"{""Tu"": [[""12:00"", ""dusk""]], ""We"": [[""12:00"", ""dusk""]], ""Th"": [[""12:00"", ""dusk""]], ""Fr"": [[""12:00"", ""dusk""]], ""Sa"": [[""12:00"", ""dusk""]], ""Su"": [[""12:00"", ""dusk""]]}",Treptow-Köpenick,12527,V0059,11009009
Can,bar,,"Ollenhauerstraße 139, 13403 Berlin",52.5646418,13.327947,,,24/7,,yes,Reinickendorf,"{""Mo"": [[""00:00"", """"], [""07:00"", """"]], ""Tu"": [[""00:00"", """"], [""07:00"", """"]], ""We"": [[""00:00"", """"], [""07:00"", """"]], ""Th"": [[""00:00"", """"], [""07:00"", """"]], ""Fr"": [[""00:00"", """"], [""07:00"", """"]], ""Sa"": [[""00:00"", """"], [""07:00"", """"]], ""Su"": [[""00:00"", """"], [""07:00"", """"]]}",Reinickendorf,13403,V0060,11012012
Chalet Suisse,restaurant,suisse,"Im Jagen 5, 14195 Berlin",52.461902,13.269189,https://chalet-suisse.de/,+49308326362,Mo-Su 12:00+,,no,Dahlem,"{""Mo"": [[""12:00"", ""late""]], ""Tu"": [[""12:00"", ""late""]], ""We"": [[""12:00"", ""late""]], ""Th"": [[""12:00"", ""late""]], ""Fr"": [[""12:00"", ""late""]], ""Sa"": [[""12:00"", ""late""]], ""Su"": [[""12:00"", ""late""]]}",Steglitz-Zehlendorf,14195,V0061,11006006
Jasper's,restaurant,austrian;german,"Anklamer Straße 27, 10115 Berlin",52.536584,13.40069,,,"Tu-Sa 17:00-23:00, Su 12:00-20:00",,no,Mitte,"{""Tu"": [[""17:00"", ""23:00""], [""Su 12:00"", ""20:00""]], ""We"": [[""17:00"", ""23:00""], [""Su 12:00"", ""20:00""]], ""Th"": [[""17:00"", ""23:00""], [""Su 12:00"", ""20:00""]], ""Fr"": [[""17:00"", ""23:00""], [""Su 12:00"", ""20:00""]], ""Sa"": [[""17:00"", ""23:00""], [""Su 12:00"", ""20:00""]]}",Mitte,10115,V0062,11001001
Maestral,restaurant,,"Eichborndamm 236, 13437 Berlin",52.5893726,13.3257329,,,"""Für Veranstaltungen nach Vereinbarung""",,yes,Wittenau,{},Reinickendorf,13437,V0063,11012012
Bier-Stub'n,restaurant,,"Bier-Stub'n, Residenzstraße, Weiße Stadt, Reinickendorf, Berlin, 13409, Deutschland",52.5723826,13.3594023,,,Mo-Su 17:00-18:00+,,,Reinickendorf,"{""Mo"": [[""17:00-18:00"", ""late""]], ""Tu"": [[""17:00-18:00"", ""late""]], ""We"": [[""17:00-18:00"", ""late""]], ""Th"": [[""17:00-18:00"", ""late""]], ""Fr"": [[""17:00-18:00"", ""late""]], ""Sa"": [[""17:00-18:00"", ""late""]], ""Su"": [[""17:00-18:00"", ""late""]]}",Reinickendorf,13409,V0064,11012012
Irmak Grillhaus,restaurant,,"Irmak Grillhaus, Amendestraße, Reinickendorf, Berlin, 13409, Deutschland",52.5674603,13.3627545,,,,,,Reinickendorf,,Reinickendorf,13409,V0065,11012012
Zur kleinen Remise,restaurant,german,"Oberfeldstraße 24, 12683 Berlin",52.5189237,13.5553974,,,"We-Su 11:00-24:00;""nach Vereinbarung""",,yes,Biesdorf,"{""We"": [[""11:00"", ""00:00""]], ""Th"": [[""11:00"", ""00:00""]], ""Fr"": [[""11:00"", ""00:00""]], ""Sa"": [[""11:00"", ""00:00""]], ""Su"": [[""11:00"", ""00:00""]]}",Marzahn-Hellersdorf,12683,V0066,11010010
Herkules I,restaurant,greek,"Oberfeldstraße 30, 12683 Berlin",52.5202629,13.5556526,https://www.herkules1.de/,+493054396797,"Mo-Su,PH 12:00-24:00",yes,yes,Biesdorf,"{""Mo"": [[""12:00"", ""00:00""]], ""Tu"": [[""12:00"", ""00:00""]], ""We"": [[""12:00"", ""00:00""]], ""Th"": [[""12:00"", ""00:00""]], ""Fr"": [[""12:00"", ""00:00""]], ""Sa"": [[""12:00"", ""00:00""]], ""Su"": [[""12:00"", ""00:00""]], ""PH"": [[""12:00"", ""00:00""]]}",Marzahn-Hellersdorf,12683,V0067,11010010
Schollenkrug,restaurant,noodles;pasta;deli;german;barbecue;tapas;local,"Waidmannsluster Damm 77, 13509 Berlin",52.6006677,13.3030043,https://schollenkrug.com/,+493094870300,Mo-Su 09:00-23:00,,no,Tegel,"{""Mo"": [[""09:00"", ""23:00""]], ""Tu"": [[""09:00"", ""23:00""]], ""We"": [[""09:00"", ""23:00""]], ""Th"": [[""09:00"", ""23:00""]], ""Fr"": [[""09:00"", ""23:00""]], ""Sa"": [[""09:00"", ""23:00""]], ""Su"": [[""09:00"", ""23:00""]]}",Reinickendorf,13509,V0068,11012012
The Leaf,cafe,,"Residenzstraße 109, 13409 Berlin",52.5640793,13.3644914,,,,,,Reinickendorf,,Reinickendorf,13409,V0069,11012012
Z-Bar,bar,,"Bergstraße 2, 10115 Berlin",52.5295259,13.3956385,,,19:00+,,no,Mitte,"{""Mo"": [[""19:00"", ""late""]], ""Tu"": [[""19:00"", ""late""]], ""We"": [[""19:00"", ""late""]], ""Th"": [[""19:00"", ""late""]], ""Fr"": [[""19:00"", ""late""]], ""Sa"": [[""19:00"", ""late""]], ""Su"": [[""19:00"", ""late""]]}",Mitte,10115,V0070,11001001
I Due Forni,restaurant,italian,"Schönhauser Allee 12, 10119 Berlin",52.5308311,13.412464,,,Mo-Su 12:00-24:00,yes,yes,Prenzlauer Berg,"{""Mo"": [[""12:00"", ""00:00""]], ""Tu"": [[""12:00"", ""00:00""]], ""We"": [[""12:00"", ""00:00""]], ""Th"": [[""12:00"", ""00:00""]], ""Fr"": [[""12:00"", ""00:00""]], ""Sa"": [[""12:00"", ""00:00""]], ""Su"": [[""12:00"", ""00:00""]]}",Pankow,10119,V0071,11003003
Mad Meals,restaurant,mexican,"Knaackstraße 99, 10435 Berlin",52.5406178,13.414039,,,,,,Prenzlauer Berg,,Pankow,10435,V0072,11003003
SowohlAlsAuch,cafe,german;coffee_shop,"Kollwitzstraße 88, 10435 Berlin",52.5382237,13.4204986,http://www.tortenundkuchen.de/kaffeehaus-sowohlalsauch.html,+49304429311,Mo-Su 08:00-23:00,,no,Prenzlauer Berg,"{""Mo"": [[""08:00"", ""23:00""]], ""Tu"": [[""08:00"", ""23:00""]], ""We"": [[""08:00"", ""23:00""]], ""Th"": [[""08:00"", ""23:00""]], ""Fr"": [[""08:00"", ""23:00""]], ""Sa"": [[""08:00"", ""23:00""]], ""Su"": [[""08:00"", ""23:00""]]}",Pankow,10435,V0073,11003003
Akemi,restaurant,asian,"Rykestraße 39, 10405 Berlin",52.5376526,13.4212143,,,,,,Prenzlauer Berg,,Pankow,10405,V0074,11003003
Anjoy,restaurant,vietnamese,"Anjoy, Wörther Straße, Kollwitzkiez, Prenzlauer Berg, Pankow, Berlin, 10405, Deutschland",52.5361423,13.4205337,https://www.anjoy-restaurant.de/,+493054861357,"Mo-Sa, PH 12:00-23:30; Su 11:00-23:30",,limited,Prenzlauer Berg,"{""Mo"": [[""12:00"", ""23:30""]], ""Tu"": [[""12:00"", ""23:30""]], ""We"": [[""12:00"", ""23:30""]], ""Th"": [[""12:00"", ""23:30""]], ""Fr"": [[""12:00"", ""23:30""]], ""Sa"": [[""12:00"", ""23:30""]], ""PH"": [[""12:00"", ""23:30""]], ""Su"": [[""11:00"", ""23:30""]]}",Pankow,10405,V0075,11003003
Seepalast,restaurant,asian,"Fürstenwalder Allee 17, 12589 Berlin",52.4417119,13.6872536,http://www.seepalast.de,+493076905555,12:00-22:30,,yes,Rahnsdorf,"{""Mo"": [[""12:00"", ""22:30""]], ""Tu"": [[""12:00"", ""22:30""]], ""We"": [[""12:00"", ""22:30""]], ""Th"": [[""12:00"", ""22:30""]], ""Fr"": [[""12:00"", ""22:30""]], ""Sa"": [[""12:00"", ""22:30""]], ""Su"": [[""12:00"", ""22:30""]]}",Treptow-Köpenick,12589,V0076,11009009
DoubleEye,cafe,coffee_shop,"Akazienstraße 22, 10823 Berlin",52.4879922,13.3540483,,,Mo-Fr 08:18-18:29; Sa 08:33-17:57; Su off,yes,no,Schöneberg,"{""Mo"": [[""08:18"", ""18:29""]], ""Tu"": [[""08:18"", ""18:29""]], ""We"": [[""08:18"", ""18:29""]], ""Th"": [[""08:18"", ""18:29""]], ""Fr"": [[""08:18"", ""18:29""]], ""Sa"": [[""08:33"", ""17:57""]]}",Tempelhof-Schöneberg,10823,V0077,11007007
Yogi-Haus,restaurant,indian,"Eisenacher Straße 54, 10823 Berlin",52.486278,13.3506678,http://www.restaurant-yogihaus.de/,+49307829223,"Mo-Th, Su 11:30-23:00; Fr,Sa 11:30-24:00",,yes,Schöneberg,"{""Su"": [[""11:30"", ""23:00""]], ""Fr"": [[""11:30"", ""00:00""]], ""Sa"": [[""11:30"", ""00:00""]]}",Tempelhof-Schöneberg,10823,V0078,11007007
La Residencia,restaurant,,"Kurfürstendamm 27, 10719 Berlin",52.5031309,13.3271435,,,,,no,Charlottenburg,,Charlottenburg-Wilmersdorf,10719,V0079,11004004
Bristol Grill,restaurant,,"Kurfürstendamm 27, 10719 Berlin",52.5033238,13.3272963,,,,,,Charlottenburg,,Charlottenburg-Wilmersdorf,10719,V0080,11004004
Le Faubourg,restaurant,french,"Augsburger Straße 41, 10789 Berlin",52.5026926,13.3318821,,,,,yes,Charlottenburg,,Charlottenburg-Wilmersdorf,10789,V0081,11004004
Floh,restaurant,regional;german,"Am Bahnhof Grunewald 4, 14193 Berlin",52.4880029,13.2634284,,,Tu-Su 12:00-18:00,,,Grunewald,"{""Tu"": [[""12:00"", ""18:00""]], ""We"": [[""12:00"", ""18:00""]], ""Th"": [[""12:00"", ""18:00""]], ""Fr"": [[""12:00"", ""18:00""]], ""Sa"": [[""12:00"", ""18:00""]], ""Su"": [[""12:00"", ""18:00""]]}",Charlottenburg-Wilmersdorf,14193,V0082,11004004
Trattoria Gioachino,restaurant,italian,"Trattoria Gioachino, Am Bahnhof Grunewald, Grunewald, Charlottenburg-Wilmersdorf, Berlin, 14193, Deutschland",52.4878837,13.2628406,,,,,yes,Grunewald,,Charlottenburg-Wilmersdorf,14193,V0083,11004004
Fook Lam Mun,restaurant,,"Fook Lam Mun, 6A, Königstraße, Wannsee, Steglitz-Zehlendorf, Berlin, Teltow, 14109, Deutschland",52.4206302,13.165528,,,,,yes,Wannsee,,Steglitz-Zehlendorf,14109,V0084,11006006
Blockhaus Nikolskoe,restaurant,german,"Nikolskoer Weg 15, 14109 Berlin",52.4244424,13.1163106,,,Mo-Su 11:00-19:00,,yes,Wannsee,"{""Mo"": [[""11:00"", ""19:00""]], ""Tu"": [[""11:00"", ""19:00""]], ""We"": [[""11:00"", ""19:00""]], ""Th"": [[""11:00"", ""19:00""]], ""Fr"": [[""11:00"", ""19:00""]], ""Sa"": [[""11:00"", ""19:00""]], ""Su"": [[""11:00"", ""19:00""]]}",Steglitz-Zehlendorf,14109,V0085,11006006
Agua TexMex,restaurant,mexican,"Frieda-Arnheim-Promenade 7, 13585 Berlin",52.5462582,13.2119152,,,Mo-Su 11:00-23:00,,yes,Hakenfelde,"{""Mo"": [[""11:00"", ""23:00""]], ""Tu"": [[""11:00"", ""23:00""]], ""We"": [[""11:00"", ""23:00""]], ""Th"": [[""11:00"", ""23:00""]], ""Fr"": [[""11:00"", ""23:00""]], ""Sa"": [[""11:00"", ""23:00""]], ""Su"": [[""11:00"", ""23:00""]]}",Spandau,13585,V0086,11005005
Restaurant Hasenheide,restaurant,,"Restaurant Hasenheide, Jahnstraße, Kreuzberg, Friedrichshain-Kreuzberg, Berlin, 10967, Deutschland",52.4877929,13.4196583,https://www.wirtshaus-hasenheide.de/,,Mo-Su 09:00-24:00,,no,Kreuzberg,"{""Mo"": [[""09:00"", ""00:00""]], ""Tu"": [[""09:00"", ""00:00""]], ""We"": [[""09:00"", ""00:00""]], ""Th"": [[""09:00"", ""00:00""]], ""Fr"": [[""09:00"", ""00:00""]], ""Sa"": [[""09:00"", ""00:00""]], ""Su"": [[""09:00"", ""00:00""]]}",Friedrichshain-Kreuzberg,10967,V0087,11002002
Eden,restaurant,asian,"Rosenstraße 19, 10178 Berlin",52.5219316,13.4047999,,,Mo-Fr 12:00-23:00; Sa 13:00-23:00; Su 17:00-23:00,,yes,Mitte,"{""Mo"": [[""12:00"", ""23:00""]], ""Tu"": [[""12:00"", ""23:00""]], ""We"": [[""12:00"", ""23:00""]], ""Th"": [[""12:00"", ""23:00""]], ""Fr"": [[""12:00"", ""23:00""]], ""Sa"": [[""13:00"", ""23:00""]], ""Su"": [[""17:00"", ""23:00""]]}",Mitte,10178,V0088,11001001
Unvernunft,restaurant,international,"Unvernunft, Mauerstraße, Spandau, Berlin, 13597, Deutschland",52.5355167,13.2020525,https://kulturhaus-spandau.de/index.php?option=com_content&task=view&id=37&Itemid=49,+49303333002,Mo-Th 12:00-20:00; Fr 12:00-22:00,,,Spandau,"{""Fr"": [[""12:00"", ""22:00""]]}",Spandau,13597,V0089,11005005
Taverna Teloneio,restaurant,greek,"Möllentordamm 1, 13597 Berlin",52.5399218,13.207419,,,Mo-Su 12:00-23:00; Jan 01 14:00-21:00; Dec 31 12:00-18:00,yes,limited,Spandau,"{""Mo"": [[""12:00"", ""23:00""]], ""Tu"": [[""12:00"", ""23:00""]], ""We"": [[""12:00"", ""23:00""]], ""Th"": [[""12:00"", ""23:00""]], ""Fr"": [[""12:00"", ""23:00""]], ""Sa"": [[""12:00"", ""23:00""]], ""Su"": [[""12:00"", ""23:00""]]}",Spandau,13597,V0090,11005005
Weisser Elefant,restaurant,,"Wegenerstraße 1, 10713 Berlin",52.4895627,13.3191979,https://www.weisser-elefant.de/,+493039896060,Mo-Fr 11:00-17:00,,limited,Wilmersdorf,"{""Mo"": [[""11:00"", ""17:00""]], ""Tu"": [[""11:00"", ""17:00""]], ""We"": [[""11:00"", ""17:00""]], ""Th"": [[""11:00"", ""17:00""]], ""Fr"": [[""11:00"", ""17:00""]]}",Charlottenburg-Wilmersdorf,10713,V0091,11004004
Garcon,restaurant,french,"Fechnerstraße 30, 10717 Berlin",52.4894921,13.3196727,,,10:00-01:00,,yes,Wilmersdorf,"{""Mo"": [[""10:00"", ""01:00""]], ""Tu"": [[""10:00"", ""01:00""]], ""We"": [[""10:00"", ""01:00""]], ""Th"": [[""10:00"", ""01:00""]], ""Fr"": [[""10:00"", ""01:00""]], ""Sa"": [[""10:00"", ""01:00""]], ""Su"": [[""10:00"", ""01:00""]]}",Charlottenburg-Wilmersdorf,10717,V0092,11004004
Frederick‘s,restaurant,,"Frederick‘s, Potsdamer Straße, Tiergarten, Mitte, Berlin, 10785, Deutschland",52.5098082,13.3743411,https://fredericksberlin.com,,"Mo-Th 12:00-14:30,18:00-01:00, Fr 12:00-14:30,18:00-01:30, Sa 11:00-14:30,18:00-01:30",,no,Tiergarten,{},Mitte,10785,V0093,11001001
Lindenbräu,restaurant,german,"Bellevuestraße 3-5, 10785 Berlin",52.5102921,13.3726675,,,"Su-Th 11:30-01:30, Fr-Sa 11:30-02:30",,yes,Tiergarten,{},Mitte,10785,V0094,11001001
Dittmanns Drogerie,restaurant,german,"Dittmanns Drogerie, Kablower Weg, Bohnsdorf, Treptow-Köpenick, Berlin, 12526, Deutschland",52.4029635,13.5856652,,,,,yes,Bohnsdorf,,Treptow-Köpenick,12526,V0095,11009009
Schönbrunn,restaurant,,"1, 10249 Berlin",52.528035,13.4339677,,,"Apr-Sep Mo-Fr 12:00-22:00; Apr-Sep Sa,Su,PH 10:00-22:00",,limited,Friedrichshain,"{""Su"": [[""10:00"", ""22:00""]], ""PH"": [[""10:00"", ""22:00""]]}",Friedrichshain-Kreuzberg,10249,V0096,11002002
Tropica Grillhaus,restaurant,,"Frankfurter Allee 73, 10247 Berlin",52.5152058,13.4687505,,,Mo-Su 11:00-22:00,,,Friedrichshain,"{""Mo"": [[""11:00"", ""22:00""]], ""Tu"": [[""11:00"", ""22:00""]], ""We"": [[""11:00"", ""22:00""]], ""Th"": [[""11:00"", ""22:00""]], ""Fr"": [[""11:00"", ""22:00""]], ""Sa"": [[""11:00"", ""22:00""]], ""Su"": [[""11:00"", ""22:00""]]}",Friedrichshain-Kreuzberg,10247,V0097,11002002
Ristorante a Mano,restaurant,italian,"Strausberger Platz 2, 10243 Berlin",52.5193726,13.4275085,https://www.amano-ristorante.de/,+493095598243,Mo-Su 12:00-23:00,,limited,Friedrichshain,"{""Mo"": [[""12:00"", ""23:00""]], ""Tu"": [[""12:00"", ""23:00""]], ""We"": [[""12:00"", ""23:00""]], ""Th"": [[""12:00"", ""23:00""]], ""Fr"": [[""12:00"", ""23:00""]], ""Sa"": [[""12:00"", ""23:00""]], ""Su"": [[""12:00"", ""23:00""]]}",Friedrichshain-Kreuzberg,10243,V0098,11002002
Hangmee,restaurant,asian,"Boxhagener Straße 108, 10245 Berlin",52.5129554,13.4576396,,+493082717447,12:00-24:00,,yes,Friedrichshain,"{""Mo"": [[""12:00"", ""00:00""]], ""Tu"": [[""12:00"", ""00:00""]], ""We"": [[""12:00"", ""00:00""]], ""Th"": [[""12:00"", ""00:00""]], ""Fr"": [[""12:00"", ""00:00""]], ""Sa"": [[""12:00"", ""00:00""]], ""Su"": [[""12:00"", ""00:00""]]}",Friedrichshain-Kreuzberg,10245,V0099,11002002
Gaststätte zur S-Bahn,restaurant,german,"Heinrich-Grüber-Straße 1, 12621 Berlin",52.5124404,13.5878692,https://www.zur-s-bahn.de/,+49305627003,"Mo-Su,PH 12:00-22:00; Jan-Mar Mo off",yes,no,Kaulsdorf,"{""Mo"": [[""12:00"", ""22:00""]], ""Tu"": [[""12:00"", ""22:00""]], ""We"": [[""12:00"", ""22:00""]], ""Th"": [[""12:00"", ""22:00""]], ""Fr"": [[""12:00"", ""22:00""]], ""Sa"": [[""12:00"", ""22:00""]], ""Su"": [[""12:00"", ""22:00""]], ""PH"": [[""12:00"", ""22:00""]]}",Marzahn-Hellersdorf,12621,V0100,11010010
Gasthof zum Oberfeld,restaurant,regional,"Zanderstraße 27, 12621 Berlin",52.5157169,13.5935903,,,"Mo-Su,PH 12:00-22:00",,no,Kaulsdorf,"{""Mo"": [[""12:00"", ""22:00""]], ""Tu"": [[""12:00"", ""22:00""]], ""We"": [[""12:00"", ""22:00""]], ""Th"": [[""12:00"", ""22:00""]], ""Fr"": [[""12:00"", ""22:00""]], ""Sa"": [[""12:00"", ""22:00""]], ""Su"": [[""12:00"", ""22:00""]], ""PH"": [[""12:00"", ""22:00""]]}",Marzahn-Hellersdorf,12621,V0101,11010010
Pizza Pasta Gatow,restaurant,pizza,"Pizza Pasta Gatow, Rodensteinstraße, Wilhelmstadt, Spandau, Berlin, 13595, Deutschland",52.5114588,13.1813993,,,"PH,Mo-Su 11:00-23:00",,yes,Wilhelmstadt,"{""PH"": [[""11:00"", ""23:00""]], ""Mo"": [[""11:00"", ""23:00""]], ""Tu"": [[""11:00"", ""23:00""]], ""We"": [[""11:00"", ""23:00""]], ""Th"": [[""11:00"", ""23:00""]], ""Fr"": [[""11:00"", ""23:00""]], ""Sa"": [[""11:00"", ""23:00""]], ""Su"": [[""11:00"", ""23:00""]]}",Spandau,13595,V0102,11005005
La Posta Trattoria,restaurant,,"Weinmeisterhornweg 42, 13595 Berlin",52.5093453,13.1811526,,,,,yes,Wilhelmstadt,,Spandau,13595,V0103,11005005
Die Henne - Alt-Berliner Wirtshaus,restaurant,chicken,Leuschnerdamm 25,52.504153,13.4177503,https://www.henne-berlin.de,+49306147730,Tu-Su 17:00-24:00,,limited,Kreuzberg,"{""Tu"": [[""17:00"", ""00:00""]], ""We"": [[""17:00"", ""00:00""]], ""Th"": [[""17:00"", ""00:00""]], ""Fr"": [[""17:00"", ""00:00""]], ""Sa"": [[""17:00"", ""00:00""]], ""Su"": [[""17:00"", ""00:00""]]}",Friedrichshain-Kreuzberg,,V0104,11002002
Immertreu,bar,,"Christburger Straße 6, 10405 Berlin",52.5363657,13.425073,,,Mo-Sa 20:00-24:00+,,no,Prenzlauer Berg,"{""Mo"": [[""20:00-24:00"", ""late""]], ""Tu"": [[""20:00-24:00"", ""late""]], ""We"": [[""20:00-24:00"", ""late""]], ""Th"": [[""20:00-24:00"", ""late""]], ""Fr"": [[""20:00-24:00"", ""late""]], ""Sa"": [[""20:00-24:00"", ""late""]]}",Pankow,10405,V0105,11003003
Hoa Rong,restaurant,vietnamese,Georgenstraße 25,52.5197141,13.3877509,https://www.hoa-rong.com/,+493043666683,Mo-Fr 11:30-23:00; Sa 13:00-23:00,,yes,Mitte,"{""Mo"": [[""11:30"", ""23:00""]], ""Tu"": [[""11:30"", ""23:00""]], ""We"": [[""11:30"", ""23:00""]], ""Th"": [[""11:30"", ""23:00""]], ""Fr"": [[""11:30"", ""23:00""]], ""Sa"": [[""13:00"", ""23:00""]]}",Mitte,,V0106,11001001
Machiavelli,restaurant,international,"Clayallee 1, 14195 Berlin",52.4747998,13.2781793,,+493053157176,,,limited,Grunewald,,Charlottenburg-Wilmersdorf,14195,V0107,11004004
Andaz,restaurant,indian,"Andaz, Moränenweg, Tegel, Reinickendorf, Berlin, 13509, Deutschland",52.5993861,13.3011493,https://andazberlin.de/,,https://andazberlin.de/,,limited,Tegel,{},Reinickendorf,13509,V0108,11012012
Sida,restaurant,thai,"Ahornstraße 32, 12163 Berlin",52.4605144,13.3231312,https://www.sidathai.de,+49307923670,Mo-Su 12:00-22:00,,no,Steglitz,"{""Mo"": [[""12:00"", ""22:00""]], ""Tu"": [[""12:00"", ""22:00""]], ""We"": [[""12:00"", ""22:00""]], ""Th"": [[""12:00"", ""22:00""]], ""Fr"": [[""12:00"", ""22:00""]], ""Sa"": [[""12:00"", ""22:00""]], ""Su"": [[""12:00"", ""22:00""]]}",Steglitz-Zehlendorf,12163,V0109,11006006
Café Meta,cafe,german,"Am Falkplatz 1, 10437 Berlin",52.545836,13.4061087,https://www.restaurant-meta.de/,,Mo-Fr 16:00-24:00; Sa-Su 12:00-24:00,,limited,Prenzlauer Berg,"{""Mo"": [[""16:00"", ""00:00""]], ""Tu"": [[""16:00"", ""00:00""]], ""We"": [[""16:00"", ""00:00""]], ""Th"": [[""16:00"", ""00:00""]], ""Fr"": [[""16:00"", ""00:00""]], ""Sa"": [[""12:00"", ""00:00""]], ""Su"": [[""12:00"", ""00:00""]]}",Pankow,10437,V0110,11003003
Kuno 15,cafe,coffee_shop;ice_cream,"Kuno-Fischer-Straße 15, 14057 Berlin",52.5038988,13.2909804,,+491792369063,Mo-Fr 09:00-20:00; Sa-Su 10:00-20:00,yes,limited,Charlottenburg,"{""Mo"": [[""09:00"", ""20:00""]], ""Tu"": [[""09:00"", ""20:00""]], ""We"": [[""09:00"", ""20:00""]], ""Th"": [[""09:00"", ""20:00""]], ""Fr"": [[""09:00"", ""20:00""]], ""Sa"": [[""10:00"", ""20:00""]], ""Su"": [[""10:00"", ""20:00""]]}",Charlottenburg-Wilmersdorf,14057,V0111,11004004
Eiffel,restaurant,french;mediterranean,"Kurfürstendamm 105, 10711 Berlin",52.4979888,13.2944721,,,Mo-Su 09:00-23:00,,yes,Halensee,"{""Mo"": [[""09:00"", ""23:00""]], ""Tu"": [[""09:00"", ""23:00""]], ""We"": [[""09:00"", ""23:00""]], ""Th"": [[""09:00"", ""23:00""]], ""Fr"": [[""09:00"", ""23:00""]], ""Sa"": [[""09:00"", ""23:00""]], ""Su"": [[""09:00"", ""23:00""]]}",Charlottenburg-Wilmersdorf,10711,V0112,11004004
Xantener Eck,restaurant,german,"Xantener Straße 1, 10707 Berlin",52.4988221,13.3076456,,,,,limited,Wilmersdorf,,Charlottenburg-Wilmersdorf,10707,V0113,11004004
Casa di Maria,restaurant,italian,"Uhlandstraße 149, 10719 Berlin",52.4968112,13.3244465,,,Mo-Sa 12:00-23:00,,no,Wilmersdorf,"{""Mo"": [[""12:00"", ""23:00""]], ""Tu"": [[""12:00"", ""23:00""]], ""We"": [[""12:00"", ""23:00""]], ""Th"": [[""12:00"", ""23:00""]], ""Fr"": [[""12:00"", ""23:00""]], ""Sa"": [[""12:00"", ""23:00""]]}",Charlottenburg-Wilmersdorf,10719,V0114,11004004
Tiger Karaoke,bar,,Müllerstraße 6,52.5414032,13.3684921,,,,,no,Wedding,,Mitte,,V0115,11001001
Shaan,restaurant,indian,"Richardplatz 20, 12055 Berlin",52.4739548,13.4468535,https://shaan-berlin.de/#!/bilder-neukoelln/,+493068089382,Mo-Su 12:00-18:00+,yes,no,Neukölln,"{""Mo"": [[""12:00-18:00"", ""late""]], ""Tu"": [[""12:00-18:00"", ""late""]], ""We"": [[""12:00-18:00"", ""late""]], ""Th"": [[""12:00-18:00"", ""late""]], ""Fr"": [[""12:00-18:00"", ""late""]], ""Sa"": [[""12:00-18:00"", ""late""]], ""Su"": [[""12:00-18:00"", ""late""]]}",Neukölln,12055,V0116,11008008
Restaurant Louis,restaurant,austrian,"Richardplatz 5, 12055 Berlin",52.4743381,13.4452803,https://cafe-restaurant-louis.de/,+49306810210,"We-Su 11:30-23:00; Mo, Tu 12:15-23:00",,limited,Neukölln,"{""We"": [[""11:30"", ""23:00""]], ""Th"": [[""11:30"", ""23:00""]], ""Fr"": [[""11:30"", ""23:00""]], ""Sa"": [[""11:30"", ""23:00""]], ""Su"": [[""11:30"", ""23:00""]], ""Mo"": [[""12:15"", ""23:00""]], ""Tu"": [[""12:15"", ""23:00""]]}",Neukölln,12055,V0117,11008008
Da Ponte,restaurant,pizza;italian,"Helgoländer Ufer 7, 10557 Berlin",52.5220908,13.3488231,https://daponte-berlin.de/,,Tu-Su 16:00-23:00,,yes,Moabit,"{""Tu"": [[""16:00"", ""23:00""]], ""We"": [[""16:00"", ""23:00""]], ""Th"": [[""16:00"", ""23:00""]], ""Fr"": [[""16:00"", ""23:00""]], ""Sa"": [[""16:00"", ""23:00""]], ""Su"": [[""16:00"", ""23:00""]]}",Mitte,10557,V0118,11001001
Trattoria Fidelia,restaurant,italian;pizza,"Lüneburger Straße 390, 10557 Berlin",52.5194762,13.3556992,https://pages.resmio.com/trattoria-fidelia/en,+493039809451,"Mo-Sa 11:30-23:00, Su 12:00-23:00",,no,Moabit,"{""Mo"": [[""11:30"", ""23:00""], [""Su 12:00"", ""23:00""]], ""Tu"": [[""11:30"", ""23:00""], [""Su 12:00"", ""23:00""]], ""We"": [[""11:30"", ""23:00""], [""Su 12:00"", ""23:00""]], ""Th"": [[""11:30"", ""23:00""], [""Su 12:00"", ""23:00""]], ""Fr"": [[""11:30"", ""23:00""], [""Su 12:00"", ""23:00""]], ""Sa"": [[""11:30"", ""23:00""], [""Su 12:00"", ""23:00""]]}",Mitte,10557,V0119,11001001
Zollpackhof,restaurant,german,"Elisabeth-Abegg-Straße 1, 10557 Berlin",52.5212821,13.3668503,https://zollpackhof.de/,,Mo-Su 11:00-00:00,,yes,Moabit,"{""Mo"": [[""11:00"", ""00:00""]], ""Tu"": [[""11:00"", ""00:00""]], ""We"": [[""11:00"", ""00:00""]], ""Th"": [[""11:00"", ""00:00""]], ""Fr"": [[""11:00"", ""00:00""]], ""Sa"": [[""11:00"", ""00:00""]], ""Su"": [[""11:00"", ""00:00""]]}",Mitte,10557,V0120,11001001
Schleusenkrug,restaurant,german,"Müller-Breslau-Straße 1, 10623 Berlin",52.5112754,13.335988,,,Mo-Su 11:00-23:00,,yes,Tiergarten,"{""Mo"": [[""11:00"", ""23:00""]], ""Tu"": [[""11:00"", ""23:00""]], ""We"": [[""11:00"", ""23:00""]], ""Th"": [[""11:00"", ""23:00""]], ""Fr"": [[""11:00"", ""23:00""]], ""Sa"": [[""11:00"", ""23:00""]], ""Su"": [[""11:00"", ""23:00""]]}",Mitte,10623,V0121,11001001
Bistro in der Akademie der Künste,cafe,,"Hanseatenweg 10, 10557 Berlin",52.5183945,13.3464153,,,,,yes,Hansaviertel,,Mitte,10557,V0122,11001001
Britzer Mühle,restaurant,,"Buckower Damm 130, 12349 Berlin",52.4322035,13.4346212,,,Mo-Su 09:00-23:00,,no,Britz,"{""Mo"": [[""09:00"", ""23:00""]], ""Tu"": [[""09:00"", ""23:00""]], ""We"": [[""09:00"", ""23:00""]], ""Th"": [[""09:00"", ""23:00""]], ""Fr"": [[""09:00"", ""23:00""]], ""Sa"": [[""09:00"", ""23:00""]], ""Su"": [[""09:00"", ""23:00""]]}",Neukölln,12349,V0123,11008008
Schloss Britz,restaurant,,"Alt-Britz 73, 12359 Berlin",52.4468121,13.4377895,,,We-Sa 11:30-22:00; Su 11:00-20:00,,limited,Britz,"{""We"": [[""11:30"", ""22:00""]], ""Th"": [[""11:30"", ""22:00""]], ""Fr"": [[""11:30"", ""22:00""]], ""Sa"": [[""11:30"", ""22:00""]], ""Su"": [[""11:00"", ""20:00""]]}",Neukölln,12359,V0124,11008008
Rüya Gemüse Kebab,restaurant,kebab,10585 Berlin,52.5137921,13.3170309,,,Mo-Sa 11:00-21:00,yes,limited,Charlottenburg,"{""Mo"": [[""11:00"", ""21:00""]], ""Tu"": [[""11:00"", ""21:00""]], ""We"": [[""11:00"", ""21:00""]], ""Th"": [[""11:00"", ""21:00""]], ""Fr"": [[""11:00"", ""21:00""]], ""Sa"": [[""11:00"", ""21:00""]]}",Charlottenburg-Wilmersdorf,10585,V0125,11004004
Totto Land,cafe,asian,"Potsdamer Chaussee 80, 14129 Berlin",52.4272121,13.2172579,https://www.tottoland.de,+493068900305,Mo-Fr 10:00-20:00; Sa 09:00-18:00,,,Nikolassee,"{""Mo"": [[""10:00"", ""20:00""]], ""Tu"": [[""10:00"", ""20:00""]], ""We"": [[""10:00"", ""20:00""]], ""Th"": [[""10:00"", ""20:00""]], ""Fr"": [[""10:00"", ""20:00""]], ""Sa"": [[""09:00"", ""18:00""]]}",Steglitz-Zehlendorf,14129,V0126,11006006
Patatas,restaurant,mexican,"Patatas, 35E, Potsdamer Chaussee, Nikolassee, Steglitz-Zehlendorf, Berlin, Teltow, 14129, Deutschland",52.4262934,13.2092834,https://patatasrestaurant.de,,Tu-Fr 16:00-22:00; Sa-Su 12:00-22:00,,no,Nikolassee,"{""Tu"": [[""16:00"", ""22:00""]], ""We"": [[""16:00"", ""22:00""]], ""Th"": [[""16:00"", ""22:00""]], ""Fr"": [[""16:00"", ""22:00""]], ""Sa"": [[""12:00"", ""22:00""]], ""Su"": [[""12:00"", ""22:00""]]}",Steglitz-Zehlendorf,14129,V0127,11006006
Restaurant Angkor Wat,restaurant,,"Paulstraße 22, 10557 Berlin",52.5201925,13.3558888,https://www.angkorwatrestaurant.de/,+49303933922,"Tu-Fr 18:00-23:00, Sa,Su,PH 12:00-23:00; Mo off",,limited,Moabit,"{""Tu"": [[""18:00"", ""23:00""], [""Sa"", """"], [""Su"", """"], [""PH 12:00"", ""23:00""]], ""We"": [[""18:00"", ""23:00""], [""Sa"", """"], [""Su"", """"], [""PH 12:00"", ""23:00""]], ""Th"": [[""18:00"", ""23:00""], [""Sa"", """"], [""Su"", """"], [""PH 12:00"", ""23:00""]], ""Fr"": [[""18:00"", ""23:00""], [""Sa"", """"], [""Su"", """"], [""PH 12:00"", ""23:00""]]}",Mitte,10557,V0128,11001001
mokka & juice house,cafe,,"mokka & juice house, Helmstraße, Rote Insel, Schöneberg, Tempelhof-Schöneberg, Berlin, 10827, Deutschland",52.4882026,13.3609478,,,,,,Schöneberg,,Tempelhof-Schöneberg,10827,V0129,11007007
Aspendos,restaurant,turkish,"Hauptstraße 11, 10827 Berlin",52.4883451,13.3580098,,,,,yes,Schöneberg,,Tempelhof-Schöneberg,10827,V0130,11007007
Wirtshaus Zur Pfaueninsel,restaurant,,"Pfaueninselchaussee 100, 14109 Berlin",52.4283069,13.1223345,https://www.pfaueninsel.de/,+49308052225,We-Su 12:00-18:00,,limited,Wannsee,"{""We"": [[""12:00"", ""18:00""]], ""Th"": [[""12:00"", ""18:00""]], ""Fr"": [[""12:00"", ""18:00""]], ""Sa"": [[""12:00"", ""18:00""]], ""Su"": [[""12:00"", ""18:00""]]}",Steglitz-Zehlendorf,14109,V0131,11006006
Trattoria Piazza Siciliana,restaurant,italian,"Lindenthaler Allee 46, 14163 Berlin",52.4303789,13.2306024,http://www.trattoria-piazza-siciliana.de,+49-30-23944046,"Mo-Sa 17:00-24:00, Su,PH 12:00-24:00",yes,yes,Zehlendorf,"{""Mo"": [[""17:00"", ""00:00""], [""Su"", """"], [""PH 12:00"", ""00:00""]], ""Tu"": [[""17:00"", ""00:00""], [""Su"", """"], [""PH 12:00"", ""00:00""]], ""We"": [[""17:00"", ""00:00""], [""Su"", """"], [""PH 12:00"", ""00:00""]], ""Th"": [[""17:00"", ""00:00""], [""Su"", """"], [""PH 12:00"", ""00:00""]], ""Fr"": [[""17:00"", ""00:00""], [""Su"", """"], [""PH 12:00"", ""00:00""]], ""Sa"": [[""17:00"", ""00:00""], [""Su"", """"], [""PH 12:00"", ""00:00""]]}",Steglitz-Zehlendorf,14163,V0132,11006006
eßkultur,cafe,,"Lansstraße 8, 14195 Berlin",52.456348,13.2925424,,,Mo-Fr 9:00-16:00,,yes,Dahlem,"{""Mo"": [[""09:00"", ""16:00""]], ""Tu"": [[""09:00"", ""16:00""]], ""We"": [[""09:00"", ""16:00""]], ""Th"": [[""09:00"", ""16:00""]], ""Fr"": [[""09:00"", ""16:00""]]}",Steglitz-Zehlendorf,14195,V0133,11006006
Kante,restaurant,,"Skalitzer Straße 64, 10997 Berlin",52.5001321,13.4387908,,,Mo-Su 18:00-00:00,,no,Kreuzberg,"{""Mo"": [[""18:00"", ""00:00""]], ""Tu"": [[""18:00"", ""00:00""]], ""We"": [[""18:00"", ""00:00""]], ""Th"": [[""18:00"", ""00:00""]], ""Fr"": [[""18:00"", ""00:00""]], ""Sa"": [[""18:00"", ""00:00""]], ""Su"": [[""18:00"", ""00:00""]]}",Friedrichshain-Kreuzberg,10997,V0134,11002002
Bizim Kiez,cafe,,"Bizim Kiez, Wrangelstraße, Luisenstadt, Kreuzberg, Friedrichshain-Kreuzberg, Berlin, 10997, Deutschland",52.4980559,13.4435002,https://www.bizim-kiez.de/,,,,limited,Kreuzberg,,Friedrichshain-Kreuzberg,10997,V0135,11002002
Restaurant Freischwimmer,restaurant,,"Vor dem Schlesischen Tor 2, 10997 Berlin",52.4973483,13.4507972,,,Mo-Fr 12:00+; Sa-Su 15:00+,,no,Kreuzberg,"{""Mo"": [[""12:00"", ""late""]], ""Tu"": [[""12:00"", ""late""]], ""We"": [[""12:00"", ""late""]], ""Th"": [[""12:00"", ""late""]], ""Fr"": [[""12:00"", ""late""]], ""Sa"": [[""15:00"", ""late""]], ""Su"": [[""15:00"", ""late""]]}",Friedrichshain-Kreuzberg,10997,V0136,11002002
cielo di berlino,restaurant,italian,"Monumentenstraße 31, 10829 Berlin",52.4881781,13.370321,http://cielo-di-berlino.de,+49-30-78001738,"Tu-Fr 13:00-24:00; Mo,Sa 16:00-24:00; Su 14:00-23:00",,limited,Schöneberg,"{""Tu"": [[""13:00"", ""00:00""]], ""We"": [[""13:00"", ""00:00""]], ""Th"": [[""13:00"", ""00:00""]], ""Fr"": [[""13:00"", ""00:00""]], ""Mo"": [[""16:00"", ""00:00""]], ""Sa"": [[""16:00"", ""00:00""]], ""Su"": [[""14:00"", ""23:00""]]}",Tempelhof-Schöneberg,10829,V0137,11007007
Café Nostalgie,bar,,"Crellestraße 22, 10827 Berlin",52.4882652,13.361927,,,,,no,Schöneberg,,Tempelhof-Schöneberg,10827,V0138,11007007
Espresso House,cafe,coffee_shop,"Friedrichstraße 125, 10117 Berlin",52.525912,13.3869997,https://de.espressohouse.com/find-us/b-friedrichstrase,+493027582577,"Mo-Fr 07:30-20:00; Sa,Su 08:30-20:00",yes,no,Mitte,"{""Mo"": [[""07:30"", ""20:00""]], ""Tu"": [[""07:30"", ""20:00""]], ""We"": [[""07:30"", ""20:00""]], ""Th"": [[""07:30"", ""20:00""]], ""Fr"": [[""07:30"", ""20:00""]], ""Sa"": [[""08:30"", ""20:00""]], ""Su"": [[""08:30"", ""20:00""]]}",Mitte,10117,V0139,11001001
Doree 65,restaurant,pizza;steak,"Torfstraße 9, 13353 Berlin",52.5400018,13.3527311,https://www.doree-berlin.de,+493091546566,Mo-Su 12:00-24:00,,limited,Wedding,"{""Mo"": [[""12:00"", ""00:00""]], ""Tu"": [[""12:00"", ""00:00""]], ""We"": [[""12:00"", ""00:00""]], ""Th"": [[""12:00"", ""00:00""]], ""Fr"": [[""12:00"", ""00:00""]], ""Sa"": [[""12:00"", ""00:00""]], ""Su"": [[""12:00"", ""00:00""]]}",Mitte,13353,V0140,11001001
Bardolino,restaurant,italian,"Wedellstraße 31, 12249 Berlin",52.4339798,13.3592072,https://bardolino-online.de/,+49307751014,"Tu-Fr 16:00-22:00+, Sa,Su,PH 12:00-22:00+",,limited,Lankwitz,"{""Tu"": [[""16:00-22:00"", ""late""], [""Sa"", """"], [""Su"", """"], [""PH 12:00-22:00"", ""late""]], ""We"": [[""16:00-22:00"", ""late""], [""Sa"", """"], [""Su"", """"], [""PH 12:00-22:00"", ""late""]], ""Th"": [[""16:00-22:00"", ""late""], [""Sa"", """"], [""Su"", """"], [""PH 12:00-22:00"", ""late""]], ""Fr"": [[""16:00-22:00"", ""late""], [""Sa"", """"], [""Su"", """"], [""PH 12:00-22:00"", ""late""]]}",Steglitz-Zehlendorf,12249,V0141,11006006
Restaurant Rhodos,restaurant,greek,"Richterstraße 9, 12526 Berlin",52.4113317,13.5730007,https://www.rhodos-berlin.de/,+493067689577,"Su-Th,PH 12:00-23:00, Fr,Sa 12:00-24:00",,no,Bohnsdorf,"{""PH"": [[""12:00"", ""23:00""], [""Fr"", """"], [""Sa 12:00"", ""00:00""]]}",Treptow-Köpenick,12526,V0142,11009009
Schloss Neuschweinsteiger,bar,,"Emser Straße 122, 12051 Berlin",52.4689788,13.4354663,https://www.schloss-neuschweinsteiger.de/,,19:00-03:00,,no,Neukölln,"{""Mo"": [[""19:00"", ""03:00""]], ""Tu"": [[""19:00"", ""03:00""]], ""We"": [[""19:00"", ""03:00""]], ""Th"": [[""19:00"", ""03:00""]], ""Fr"": [[""19:00"", ""03:00""]], ""Sa"": [[""19:00"", ""03:00""]], ""Su"": [[""19:00"", ""03:00""]]}",Neukölln,12051,V0143,11008008
Schön 14,restaurant,,"Schöneberger Straße 14, 12163 Berlin",52.4645273,13.3298271,https://schoen14.de/,,Mo-Su 10:00-23:00,,limited,Steglitz,"{""Mo"": [[""10:00"", ""23:00""]], ""Tu"": [[""10:00"", ""23:00""]], ""We"": [[""10:00"", ""23:00""]], ""Th"": [[""10:00"", ""23:00""]], ""Fr"": [[""10:00"", ""23:00""]], ""Sa"": [[""10:00"", ""23:00""]], ""Su"": [[""10:00"", ""23:00""]]}",Steglitz-Zehlendorf,12163,V0144,11006006
Alter Krug,restaurant,german,"Königin-Luise-Straße 52, 14195 Berlin",52.4578483,13.2882349,,,Mo-Sa 11:00-23:00; Su 10:00-23:00,,yes,Dahlem,"{""Mo"": [[""11:00"", ""23:00""]], ""Tu"": [[""11:00"", ""23:00""]], ""We"": [[""11:00"", ""23:00""]], ""Th"": [[""11:00"", ""23:00""]], ""Fr"": [[""11:00"", ""23:00""]], ""Sa"": [[""11:00"", ""23:00""]], ""Su"": [[""10:00"", ""23:00""]]}",Steglitz-Zehlendorf,14195,V0145,11006006
Mario,restaurant,italian,"Südwestkorso 10, 12161 Berlin",52.4750769,13.3234069,,,Mo-Su 12:00-24:00,,no,Friedenau,"{""Mo"": [[""12:00"", ""00:00""]], ""Tu"": [[""12:00"", ""00:00""]], ""We"": [[""12:00"", ""00:00""]], ""Th"": [[""12:00"", ""00:00""]], ""Fr"": [[""12:00"", ""00:00""]], ""Sa"": [[""12:00"", ""00:00""]], ""Su"": [[""12:00"", ""00:00""]]}",Tempelhof-Schöneberg,12161,V0146,11007007
Kiez-Bäckerei,cafe,turkish;italian;regional;pastry,"Sonnenallee 293, 12057 Berlin",52.4686515,13.4677356,,,,,,Neukölln,,Neukölln,12057,V0147,11008008
Schneeweiß,restaurant,austrian,"Simplonstraße 16, 10245 Berlin",52.5086453,13.4582032,https://www.schneeweiss-berlin.de/,,Mo-Sa 17:00-24:00,,no,Friedrichshain,"{""Mo"": [[""17:00"", ""00:00""]], ""Tu"": [[""17:00"", ""00:00""]], ""We"": [[""17:00"", ""00:00""]], ""Th"": [[""17:00"", ""00:00""]], ""Fr"": [[""17:00"", ""00:00""]], ""Sa"": [[""17:00"", ""00:00""]]}",Friedrichshain-Kreuzberg,10245,V0148,11002002
Uebereck,cafe,regional,"Sonntagstraße 31, 10245 Berlin",52.5054349,13.4663979,,,09:30-02:00,,limited,Friedrichshain,"{""Mo"": [[""09:30"", ""02:00""]], ""Tu"": [[""09:30"", ""02:00""]], ""We"": [[""09:30"", ""02:00""]], ""Th"": [[""09:30"", ""02:00""]], ""Fr"": [[""09:30"", ""02:00""]], ""Sa"": [[""09:30"", ""02:00""]], ""Su"": [[""09:30"", ""02:00""]]}",Friedrichshain-Kreuzberg,10245,V0149,11002002
Alte Turnhalle Berlin,restaurant,international,"Holteistraße 6-9, 10245 Berlin",52.5071989,13.4652987,https://www.dieturnhalle.de/,+493029364816,"May-Sep: Su-Th 10:00-00:00, Fr-Sa 09:00-01:00; Oct-Apr: Sa-Su 10:00-15:00; PH 10:00-15:00",,yes,Friedrichshain,"{""PH"": [[""10:00"", ""15:00""]]}",Friedrichshain-Kreuzberg,10245,V0150,11002002
Vereinszimmer,restaurant,italian,"Vereinszimmer, Kreuzbergstraße, Kreuzberg, Friedrichshain-Kreuzberg, Berlin, 10965, Deutschland",52.4900001,13.3825068,,,"Mo-Fr 08:00-20:00; Sa,Su 09:00-20:00",,yes,Kreuzberg,"{""Mo"": [[""08:00"", ""20:00""]], ""Tu"": [[""08:00"", ""20:00""]], ""We"": [[""08:00"", ""20:00""]], ""Th"": [[""08:00"", ""20:00""]], ""Fr"": [[""08:00"", ""20:00""]], ""Sa"": [[""09:00"", ""20:00""]], ""Su"": [[""09:00"", ""20:00""]]}",Friedrichshain-Kreuzberg,10965,V0151,11002002
Osteria Nº 1,restaurant,italian,"Kreuzbergstraße 71, 10965 Berlin",52.489775,13.3832177,,,,,limited,Kreuzberg,,Friedrichshain-Kreuzberg,10965,V0152,11002002
Barcomi's Café & Kaffeerösterei,cafe,coffee_shop,"Bergmannstraße 21, 10961 Berlin",52.4890118,13.3935082,https://www.barcomis.de/,,"Mo-Th 10:00-18:00; Fr-Su,PH 10:00-19:00; Dec 24 ""bis 16:00""; Dec 25-26 off; Dec 31 ""bis 18:00""; Jan 01 ""ab 11:00""",,no,Kreuzberg,"{""Fr"": [[""10:00"", ""19:00""]], ""Sa"": [[""10:00"", ""19:00""]], ""Su"": [[""10:00"", ""19:00""]], ""PH"": [[""10:00"", ""19:00""]]}",Friedrichshain-Kreuzberg,10961,V0153,11002002
Pagode,restaurant,asian,"Pagode, Bergmannstraße, Kreuzberg, Friedrichshain-Kreuzberg, Berlin, 10961, Deutschland",52.4893112,13.3933939,https://pagode-thaifood.de/,+493069001374,Mo-Su 12:00-23:00,,no,Kreuzberg,"{""Mo"": [[""12:00"", ""23:00""]], ""Tu"": [[""12:00"", ""23:00""]], ""We"": [[""12:00"", ""23:00""]], ""Th"": [[""12:00"", ""23:00""]], ""Fr"": [[""12:00"", ""23:00""]], ""Sa"": [[""12:00"", ""23:00""]], ""Su"": [[""12:00"", ""23:00""]]}",Friedrichshain-Kreuzberg,10961,V0154,11002002
Bootshaus,restaurant,,"Verlängerte Uferpromenade 21, 14089 Berlin",52.4586339,13.1126606,,+493025561644,"We-Sa 15:00-24:00+, Su 12:00-24:00+",,yes,Kladow,"{""We"": [[""15:00-24:00"", ""late""], [""Su 12:00-24:00"", ""late""]], ""Th"": [[""15:00-24:00"", ""late""], [""Su 12:00-24:00"", ""late""]], ""Fr"": [[""15:00-24:00"", ""late""], [""Su 12:00-24:00"", ""late""]], ""Sa"": [[""15:00-24:00"", ""late""], [""Su 12:00-24:00"", ""late""]]}",Spandau,14089,V0155,11005005
Milchgesicht,cafe,,"Mainzer Straße 1, 10247 Berlin",52.5146574,13.4630543,,,Mo-Su 06:00-18:00,,yes,Friedrichshain,"{""Mo"": [[""06:00"", ""18:00""]], ""Tu"": [[""06:00"", ""18:00""]], ""We"": [[""06:00"", ""18:00""]], ""Th"": [[""06:00"", ""18:00""]], ""Fr"": [[""06:00"", ""18:00""]], ""Sa"": [[""06:00"", ""18:00""]], ""Su"": [[""06:00"", ""18:00""]]}",Friedrichshain-Kreuzberg,10247,V0156,11002002
Chai Ji,restaurant,indian,"Rigaer Straße 30, 10247 Berlin",52.516543,13.4635392,,,Su-Th 12:00-23:00; Fr-Sa 12:00-24:00,,no,Friedrichshain,"{""Fr"": [[""12:00"", ""00:00""]], ""Sa"": [[""12:00"", ""00:00""]]}",Friedrichshain-Kreuzberg,10247,V0157,11002002
Jōnetsu,restaurant,japanese,"Mainzer Straße 10, 10247 Berlin",52.5131538,13.4620486,,,,,,Friedrichshain,,Friedrichshain-Kreuzberg,10247,V0158,11002002
Eatalian,restaurant,italian,"Mainzer Straße 14, 10247 Berlin",52.5122684,13.4614486,,+493039480414,"Su-Th 11:30-24:00, Fr,Sa 11:30-02:00",,no,Friedrichshain,{},Friedrichshain-Kreuzberg,10247,V0159,11002002
Keyif,bar,,"Keyif, Boxhagener Straße, Samariterviertel, Friedrichshain, Friedrichshain-Kreuzberg, Berlin, 10245, Deutschland",52.5120463,13.4613169,,,,,no,Friedrichshain,,Friedrichshain-Kreuzberg,10245,V0160,11002002
Aashish,restaurant,indian,"Niederbarnimstraße 27, 10247 Berlin",52.5149418,13.46027,,,Mo-Su 12:00-23:00,,yes,Friedrichshain,"{""Mo"": [[""12:00"", ""23:00""]], ""Tu"": [[""12:00"", ""23:00""]], ""We"": [[""12:00"", ""23:00""]], ""Th"": [[""12:00"", ""23:00""]], ""Fr"": [[""12:00"", ""23:00""]], ""Sa"": [[""12:00"", ""23:00""]], ""Su"": [[""12:00"", ""23:00""]]}",Friedrichshain-Kreuzberg,10247,V0161,11002002
mausi.,restaurant,,"Richardplatz 1, 12055 Berlin",52.474763,13.4469517,,,,,,Neukölln,,Neukölln,12055,V0162,11008008
Restaurant Villa Rixdorf,restaurant,,"Richardplatz 6, 12055 Berlin",52.4742277,13.4447503,http://www.villa-rixdorf.com,+493068086000,Mo-Su 11:00-01:00,,no,Neukölln,"{""Mo"": [[""11:00"", ""01:00""]], ""Tu"": [[""11:00"", ""01:00""]], ""We"": [[""11:00"", ""01:00""]], ""Th"": [[""11:00"", ""01:00""]], ""Fr"": [[""11:00"", ""01:00""]], ""Sa"": [[""11:00"", ""01:00""]], ""Su"": [[""11:00"", ""01:00""]]}",Neukölln,12055,V0163,11008008
Gambrinus,restaurant,german,"Linienstraße 133, 10115 Berlin",52.5264453,13.3879477,,,,,no,Mitte,,Mitte,10115,V0164,11001001
Sahoi,restaurant,sushi,Linienstraße 134,52.5264338,13.3877486,https://www.sahoi.club/,,Mo-Fr 12:00-23:00; Sa-Su 18:00-23:00,,,Mitte,"{""Mo"": [[""12:00"", ""23:00""]], ""Tu"": [[""12:00"", ""23:00""]], ""We"": [[""12:00"", ""23:00""]], ""Th"": [[""12:00"", ""23:00""]], ""Fr"": [[""12:00"", ""23:00""]], ""Sa"": [[""18:00"", ""23:00""]], ""Su"": [[""18:00"", ""23:00""]]}",Mitte,,V0165,11001001
Amrit,restaurant,indian,"Oranienburger Straße 45, 10117 Berlin",52.5259421,13.3896272,https://www.amrit.de/,+493028884840,"Su-Th 11:30-24:00,Fr-Sa 11:30-01:00; PH off",,no,Mitte,{},Mitte,10117,V0166,11001001
Uferlos,restaurant,italian,"Uferstraße 13, 13357 Berlin",52.5506079,13.3733546,https://restaurantuferlos.de/,,Tu-Sa 18:00-24:00,,yes,Gesundbrunnen,"{""Tu"": [[""18:00"", ""00:00""]], ""We"": [[""18:00"", ""00:00""]], ""Th"": [[""18:00"", ""00:00""]], ""Fr"": [[""18:00"", ""00:00""]], ""Sa"": [[""18:00"", ""00:00""]]}",Mitte,13357,V0167,11001001
Mensa FU Lankwitz Malteserstraße,restaurant,,"Malteserstraße 74, 12249 Berlin",52.425496,13.3573392,https://www.stw.berlin/mensen/mensa-fu-lankwitz-malteserstraße.html,,Mo-Fr 08:00-14:30,,yes,Lankwitz,"{""Mo"": [[""08:00"", ""14:30""]], ""Tu"": [[""08:00"", ""14:30""]], ""We"": [[""08:00"", ""14:30""]], ""Th"": [[""08:00"", ""14:30""]], ""Fr"": [[""08:00"", ""14:30""]]}",Steglitz-Zehlendorf,12249,V0168,11006006
Homey,restaurant,vietnamese;thai;sushi,"Müllerstraße 70, 13349 Berlin",52.5569578,13.3409564,,,Mo-Su 12:00-22:00,,,Wedding,"{""Mo"": [[""12:00"", ""22:00""]], ""Tu"": [[""12:00"", ""22:00""]], ""We"": [[""12:00"", ""22:00""]], ""Th"": [[""12:00"", ""22:00""]], ""Fr"": [[""12:00"", ""22:00""]], ""Sa"": [[""12:00"", ""22:00""]], ""Su"": [[""12:00"", ""22:00""]]}",Mitte,13349,V0169,11001001
Scorpion,restaurant,thai,"Scorpion, 50, Stromstraße, Moabit, Mitte, Berlin, 10551, Deutschland",52.528823,13.342903,,,,,yes,Moabit,,Mitte,10551,V0170,11001001
Konditorei & Eiscafé Engel,cafe,,"Marzahner Promenade 55, 12679 Berlin",52.5467698,13.5567171,https://www.konditorei-engel.de/,+493098639611,Mo-Sa 09:30-18:30; Su 11:00-17:30,,yes,Marzahn,"{""Mo"": [[""09:30"", ""18:30""]], ""Tu"": [[""09:30"", ""18:30""]], ""We"": [[""09:30"", ""18:30""]], ""Th"": [[""09:30"", ""18:30""]], ""Fr"": [[""09:30"", ""18:30""]], ""Sa"": [[""09:30"", ""18:30""]], ""Su"": [[""11:00"", ""17:30""]]}",Marzahn-Hellersdorf,12679,V0171,11010010
Cafe Finovo,cafe,german,"Großgörschenstraße 12-14, 10829 Berlin",52.4910478,13.3675144,http://www.cafe-finovo.de/,03020615520,We-Su 10:00+; Tu 12:00+,,yes,Schöneberg,"{""We"": [[""10:00"", ""late""]], ""Th"": [[""10:00"", ""late""]], ""Fr"": [[""10:00"", ""late""]], ""Sa"": [[""10:00"", ""late""]], ""Su"": [[""10:00"", ""late""]], ""Tu"": [[""12:00"", ""late""]]}",Tempelhof-Schöneberg,10829,V0172,11007007
Tandoori,restaurant,,"Bizetstraße 121, 13088 Berlin",52.5498822,13.4626939,http://www.tandoori-berlin.de/,+493096064850,Mo-Su 12:00-23:00,,limited,Weißensee,"{""Mo"": [[""12:00"", ""23:00""]], ""Tu"": [[""12:00"", ""23:00""]], ""We"": [[""12:00"", ""23:00""]], ""Th"": [[""12:00"", ""23:00""]], ""Fr"": [[""12:00"", ""23:00""]], ""Sa"": [[""12:00"", ""23:00""]], ""Su"": [[""12:00"", ""23:00""]]}",Pankow,13088,V0173,11003003
Il Castello,restaurant,italian,"Karower Straße 1, 13125 Berlin",52.6350391,13.4995197,https://www.il-castello-berlin.de/,+49309413740,"Mo-Sa 12:00-24:00, Su 12:00-23:00",,no,Buch,"{""Mo"": [[""12:00"", ""00:00""], [""Su 12:00"", ""23:00""]], ""Tu"": [[""12:00"", ""00:00""], [""Su 12:00"", ""23:00""]], ""We"": [[""12:00"", ""00:00""], [""Su 12:00"", ""23:00""]], ""Th"": [[""12:00"", ""00:00""], [""Su 12:00"", ""23:00""]], ""Fr"": [[""12:00"", ""00:00""], [""Su 12:00"", ""23:00""]], ""Sa"": [[""12:00"", ""00:00""], [""Su 12:00"", ""23:00""]]}",Pankow,13125,V0174,11003003
Fräulein Kimchi,restaurant,,"Gürtelstraße 10, 13088 Berlin",52.5453918,13.4524178,,,,,,Weißensee,,Pankow,13088,V0175,11003003
Plus Minus Null,restaurant,,"Grünberger Straße 61, 10245 Berlin",52.511776,13.4575389,https://plusminusnull-berlin.de/,+493021239624,Mo-Su 09:00-23:00+,,yes,Friedrichshain,"{""Mo"": [[""09:00-23:00"", ""late""]], ""Tu"": [[""09:00-23:00"", ""late""]], ""We"": [[""09:00-23:00"", ""late""]], ""Th"": [[""09:00-23:00"", ""late""]], ""Fr"": [[""09:00-23:00"", ""late""]], ""Sa"": [[""09:00-23:00"", ""late""]], ""Su"": [[""09:00-23:00"", ""late""]]}",Friedrichshain-Kreuzberg,10245,V0176,11002002
Habana,restaurant,,"Grünberger Straße 57, 10245 Berlin",52.5118836,13.4567958,https://www.habana.berlin/,,,,yes,Friedrichshain,,Friedrichshain-Kreuzberg,10245,V0177,11002002
Gold 79,restaurant,vietnamese,"Frankfurter Allee 97, 10247 Berlin",52.5141004,13.4730329,,,,,,Friedrichshain,,Friedrichshain-Kreuzberg,10247,V0178,11002002
Hannibal,restaurant,italian,"Gärtnerstraße 29a, 10245 Berlin",52.5091398,13.4598832,,,"Su-Th 09:00-02:00, Fr,Sa 09:00-04:00",,yes,Friedrichshain,{},Friedrichshain-Kreuzberg,10245,V0179,11002002
il Ritrovo,restaurant,italian;pizza,"Gabriel-Max-Straße 2, 10245 Berlin",52.5095667,13.4580847,,,Mo-Su 12:00-21:00,,no,Friedrichshain,"{""Mo"": [[""12:00"", ""21:00""]], ""Tu"": [[""12:00"", ""21:00""]], ""We"": [[""12:00"", ""21:00""]], ""Th"": [[""12:00"", ""21:00""]], ""Fr"": [[""12:00"", ""21:00""]], ""Sa"": [[""12:00"", ""21:00""]], ""Su"": [[""12:00"", ""21:00""]]}",Friedrichshain-Kreuzberg,10245,V0180,11002002
Caramello,cafe,ice_cream;coffee_shop,"Wühlischstraße 31, 10245 Berlin",52.5097761,13.457186,,,Su-Th 11:00-22:00; Fr-Sa 11:00-01:00,,no,Friedrichshain,"{""Fr"": [[""11:00"", ""01:00""]], ""Sa"": [[""11:00"", ""01:00""]]}",Friedrichshain-Kreuzberg,10245,V0181,11002002
Himmelreich,bar,,"Simon-Dach-Straße 36, 10245 Berlin",52.5102582,13.4566212,,,,,yes,Friedrichshain,,Friedrichshain-Kreuzberg,10245,V0182,11002002
Intimes,cafe,,"Boxhagener Straße 107, 10245 Berlin",52.5128318,13.4582338,,,10:00+,,yes,Friedrichshain,"{""Mo"": [[""10:00"", ""late""]], ""Tu"": [[""10:00"", ""late""]], ""We"": [[""10:00"", ""late""]], ""Th"": [[""10:00"", ""late""]], ""Fr"": [[""10:00"", ""late""]], ""Sa"": [[""10:00"", ""late""]], ""Su"": [[""10:00"", ""late""]]}",Friedrichshain-Kreuzberg,10245,V0183,11002002
Lemongrass,restaurant,asian,"Simon-Dach-Straße 2, 10245 Berlin",52.5124786,13.4571679,,,"Mo-Su,PH 12:00-23:00",,yes,Friedrichshain,"{""Mo"": [[""12:00"", ""23:00""]], ""Tu"": [[""12:00"", ""23:00""]], ""We"": [[""12:00"", ""23:00""]], ""Th"": [[""12:00"", ""23:00""]], ""Fr"": [[""12:00"", ""23:00""]], ""Sa"": [[""12:00"", ""23:00""]], ""Su"": [[""12:00"", ""23:00""]], ""PH"": [[""12:00"", ""23:00""]]}",Friedrichshain-Kreuzberg,10245,V0184,11002002
TAT,restaurant,asian,"Niederbarnimstr. 17, 10247 Berlin",52.5133893,13.4586453,https://tat-berlin.de,+493029009920,Mo-Su 11:30-23:00,,yes,Friedrichshain,"{""Mo"": [[""11:30"", ""23:00""]], ""Tu"": [[""11:30"", ""23:00""]], ""We"": [[""11:30"", ""23:00""]], ""Th"": [[""11:30"", ""23:00""]], ""Fr"": [[""11:30"", ""23:00""]], ""Sa"": [[""11:30"", ""23:00""]], ""Su"": [[""11:30"", ""23:00""]]}",Friedrichshain-Kreuzberg,10247,V0185,11002002
Ysy,bar,,"Ysy, Liebigstraße, Samariterviertel, Friedrichshain, Friedrichshain-Kreuzberg, Berlin, 10247, Deutschland",52.5158118,13.4591706,,,,,,Friedrichshain,,Friedrichshain-Kreuzberg,10247,V0186,11002002
Meet Saigon,restaurant,vietnamese,"Frankfurter Allee 21, 10247 Berlin",52.5158783,13.458543,,,,,yes,Friedrichshain,,Friedrichshain-Kreuzberg,10247,V0187,11002002
Café Tasso,cafe,,"Café Tasso, Liebigstraße, Samariterviertel, Friedrichshain, Friedrichshain-Kreuzberg, Berlin, 10247, Deutschland",52.5160258,13.4570212,https://www.cafe-tasso.de/,,Mo-Sa 10:00-19:00,,yes,Friedrichshain,"{""Mo"": [[""10:00"", ""19:00""]], ""Tu"": [[""10:00"", ""19:00""]], ""We"": [[""10:00"", ""19:00""]], ""Th"": [[""10:00"", ""19:00""]], ""Fr"": [[""10:00"", ""19:00""]], ""Sa"": [[""10:00"", ""19:00""]]}",Friedrichshain-Kreuzberg,10247,V0188,11002002
Lauschangriff,bar,,"Lauschangriff, Rigaer Straße, Samariterviertel, Friedrichshain, Friedrichshain-Kreuzberg, Berlin, 10247, Deutschland",52.5182491,13.4553049,,,,,,Friedrichshain,,Friedrichshain-Kreuzberg,10247,V0189,11002002
Seth,restaurant,pakistani;indian,"Proskauer Straße 29, 10247 Berlin",52.5172556,13.4608879,,,Sa-Th 12:00-23:00+; Fr 15:30-23:00+,,no,Friedrichshain,"{""Fr"": [[""15:30-23:00"", ""late""]]}",Friedrichshain-Kreuzberg,10247,V0190,11002002
Koy,restaurant,thai,"Rigaer Straße 26, 10247 Berlin",52.5168019,13.4621382,https://koy-restaurant.de,+493040043988,Mo-Su 11:30-23:00,yes,yes,Friedrichshain,"{""Mo"": [[""11:30"", ""23:00""]], ""Tu"": [[""11:30"", ""23:00""]], ""We"": [[""11:30"", ""23:00""]], ""Th"": [[""11:30"", ""23:00""]], ""Fr"": [[""11:30"", ""23:00""]], ""Sa"": [[""11:30"", ""23:00""]], ""Su"": [[""11:30"", ""23:00""]]}",Friedrichshain-Kreuzberg,10247,V0191,11002002
Brunchella,cafe,,"Brunchella, Rigaer Straße, Samariterviertel, Friedrichshain, Friedrichshain-Kreuzberg, Berlin, 10247, Deutschland",52.5166158,13.4631774,,,"Mo-Fr 09:00-17:00; Sa,Su 09:30-17:00",,,Friedrichshain,"{""Mo"": [[""09:00"", ""17:00""]], ""Tu"": [[""09:00"", ""17:00""]], ""We"": [[""09:00"", ""17:00""]], ""Th"": [[""09:00"", ""17:00""]], ""Fr"": [[""09:00"", ""17:00""]], ""Sa"": [[""09:30"", ""17:00""]], ""Su"": [[""09:30"", ""17:00""]]}",Friedrichshain-Kreuzberg,10247,V0192,11002002
Anastasia,restaurant,russian,"Schreinerstraße 51, 10247 Berlin",52.5174079,13.4658508,http://www.restaurant-anastasia.de,,"Mo-Su,PH 12:00+",,yes,Friedrichshain,"{""Mo"": [[""12:00"", ""late""]], ""Tu"": [[""12:00"", ""late""]], ""We"": [[""12:00"", ""late""]], ""Th"": [[""12:00"", ""late""]], ""Fr"": [[""12:00"", ""late""]], ""Sa"": [[""12:00"", ""late""]], ""Su"": [[""12:00"", ""late""]], ""PH"": [[""12:00"", ""late""]]}",Friedrichshain-Kreuzberg,10247,V0193,11002002
Papaleo,restaurant,italian,"Bänschstraße 67, 10247 Berlin",52.517967,13.467624,,,Tu-Sa 16:00-23:00; Su 16:00-22:30,yes,no,Friedrichshain,"{""Tu"": [[""16:00"", ""23:00""]], ""We"": [[""16:00"", ""23:00""]], ""Th"": [[""16:00"", ""23:00""]], ""Fr"": [[""16:00"", ""23:00""]], ""Sa"": [[""16:00"", ""23:00""]], ""Su"": [[""16:00"", ""22:30""]]}",Friedrichshain-Kreuzberg,10247,V0194,11002002
Asahi Sushi,restaurant,sushi;vietnamese,10247 Berlin,52.5153424,13.471852,,,"Mo-Fr 11:00-23:00, Sa,Su 13:00-23:00",,limited,Friedrichshain,"{""Mo"": [[""11:00"", ""23:00""], [""Sa"", """"], [""Su 13:00"", ""23:00""]], ""Tu"": [[""11:00"", ""23:00""], [""Sa"", """"], [""Su 13:00"", ""23:00""]], ""We"": [[""11:00"", ""23:00""], [""Sa"", """"], [""Su 13:00"", ""23:00""]], ""Th"": [[""11:00"", ""23:00""], [""Sa"", """"], [""Su 13:00"", ""23:00""]], ""Fr"": [[""11:00"", ""23:00""], [""Sa"", """"], [""Su 13:00"", ""23:00""]]}",Friedrichshain-Kreuzberg,10247,V0195,11002002
Yogi Haus,restaurant,indian,"Rigaer Straße 52, 10247 Berlin",52.5151203,13.4716078,https://yogihaus.de/,+4917641904779,"PH,Mo-Su 12:00-24:00",,limited,Friedrichshain,"{""PH"": [[""12:00"", ""00:00""]], ""Mo"": [[""12:00"", ""00:00""]], ""Tu"": [[""12:00"", ""00:00""]], ""We"": [[""12:00"", ""00:00""]], ""Th"": [[""12:00"", ""00:00""]], ""Fr"": [[""12:00"", ""00:00""]], ""Sa"": [[""12:00"", ""00:00""]], ""Su"": [[""12:00"", ""00:00""]]}",Friedrichshain-Kreuzberg,10247,V0196,11002002
Shanghai,restaurant,chinese,"Weichselstraße 36, 10247 Berlin",52.5138719,13.4709298,,,Mo-Su 12:00-22:30,,no,Friedrichshain,"{""Mo"": [[""12:00"", ""22:30""]], ""Tu"": [[""12:00"", ""22:30""]], ""We"": [[""12:00"", ""22:30""]], ""Th"": [[""12:00"", ""22:30""]], ""Fr"": [[""12:00"", ""22:30""]], ""Sa"": [[""12:00"", ""22:30""]], ""Su"": [[""12:00"", ""22:30""]]}",Friedrichshain-Kreuzberg,10247,V0197,11002002
Stara Kuća,restaurant,,"Alt-Pichelsdorf 30-32, 13595 Berlin",52.5119508,13.1979481,http://www.stara-kuca.de,+493036432887,Tu-Su 13:00-20:00,,no,Wilhelmstadt,"{""Tu"": [[""13:00"", ""20:00""]], ""We"": [[""13:00"", ""20:00""]], ""Th"": [[""13:00"", ""20:00""]], ""Fr"": [[""13:00"", ""20:00""]], ""Sa"": [[""13:00"", ""20:00""]], ""Su"": [[""13:00"", ""20:00""]]}",Spandau,13595,V0198,11005005
Lagunen-Eck,restaurant,,"Lagunen-Eck, Lagunenweg, Rahnsdorf, Treptow-Köpenick, Berlin, Fredersdorf-Vogelsdorf, 12589, Deutschland",52.4318874,13.7133375,,,,,,Rahnsdorf,,Treptow-Köpenick,12589,V0199,11009009
Restaurant Athos,restaurant,greek,"Gudrunstraße 5A, 10365 Berlin",52.5129887,13.5012738,,+493086388169,"Tu-Su,PH 11:30-23:00",yes,no,Lichtenberg,"{""Tu"": [[""11:30"", ""23:00""]], ""We"": [[""11:30"", ""23:00""]], ""Th"": [[""11:30"", ""23:00""]], ""Fr"": [[""11:30"", ""23:00""]], ""Sa"": [[""11:30"", ""23:00""]], ""Su"": [[""11:30"", ""23:00""]], ""PH"": [[""11:30"", ""23:00""]]}",Lichtenberg,10365,V0200,11011011
Kurhaus Korsakow,restaurant,,"Grünberger Straße 81, 10245 Berlin",52.5112327,13.4608889,,,"Mo-Fr 17:00+, Sa-Su,PH 09:00+",,limited,Friedrichshain,"{""Mo"": [[""17:00"", ""late""], [""Sa"", ""Su""], [""PH 09:00"", ""late""]], ""Tu"": [[""17:00"", ""late""], [""Sa"", ""Su""], [""PH 09:00"", ""late""]], ""We"": [[""17:00"", ""late""], [""Sa"", ""Su""], [""PH 09:00"", ""late""]], ""Th"": [[""17:00"", ""late""], [""Sa"", ""Su""], [""PH 09:00"", ""late""]], ""Fr"": [[""17:00"", ""late""], [""Sa"", ""Su""], [""PH 09:00"", ""late""]]}",Friedrichshain-Kreuzberg,10245,V0201,11002002
Zeitgeist,bar,,"Gärtnerstraße 15, 10245 Berlin",52.5111838,13.4613046,,,,,,Friedrichshain,,Friedrichshain-Kreuzberg,10245,V0202,11002002
Trattoria Cinque,restaurant,italian,"Trattoria Cinque, Grünberger Straße, Samariterviertel, Friedrichshain, Friedrichshain-Kreuzberg, Berlin, 10245, Deutschland",52.5113289,13.4585625,,,Mo-Su 12:00-23:00,,,Friedrichshain,"{""Mo"": [[""12:00"", ""23:00""]], ""Tu"": [[""12:00"", ""23:00""]], ""We"": [[""12:00"", ""23:00""]], ""Th"": [[""12:00"", ""23:00""]], ""Fr"": [[""12:00"", ""23:00""]], ""Sa"": [[""12:00"", ""23:00""]], ""Su"": [[""12:00"", ""23:00""]]}",Friedrichshain-Kreuzberg,10245,V0203,11002002
Euphoria,restaurant,,"Grünberger Straße 60, 10245 Berlin",52.5116145,13.4567297,,+493029004683,Mo-Su 09:00+,,yes,Friedrichshain,"{""Mo"": [[""09:00"", ""late""]], ""Tu"": [[""09:00"", ""late""]], ""We"": [[""09:00"", ""late""]], ""Th"": [[""09:00"", ""late""]], ""Fr"": [[""09:00"", ""late""]], ""Sa"": [[""09:00"", ""late""]], ""Su"": [[""09:00"", ""late""]]}",Friedrichshain-Kreuzberg,10245,V0204,11002002
li.ke,restaurant,thai,"Grünberger Straße 69, 10245 Berlin",52.5115943,13.4586892,https://www.likethaivegan.de,+493029009428,Mo-Su 12:00-22:00,,yes,Friedrichshain,"{""Mo"": [[""12:00"", ""22:00""]], ""Tu"": [[""12:00"", ""22:00""]], ""We"": [[""12:00"", ""22:00""]], ""Th"": [[""12:00"", ""22:00""]], ""Fr"": [[""12:00"", ""22:00""]], ""Sa"": [[""12:00"", ""22:00""]], ""Su"": [[""12:00"", ""22:00""]]}",Friedrichshain-Kreuzberg,10245,V0205,11002002
Aklé,restaurant,,"Kopernikusstraße 22, 10245 Berlin",52.5103281,13.4545378,,,Mo-Su 11:30-24:00,,no,Friedrichshain,"{""Mo"": [[""11:30"", ""00:00""]], ""Tu"": [[""11:30"", ""00:00""]], ""We"": [[""11:30"", ""00:00""]], ""Th"": [[""11:30"", ""00:00""]], ""Fr"": [[""11:30"", ""00:00""]], ""Sa"": [[""11:30"", ""00:00""]], ""Su"": [[""11:30"", ""00:00""]]}",Friedrichshain-Kreuzberg,10245,V0206,11002002
Zeus Pizza & Pide,restaurant,turkish;italian;pizza,"Boxhagener Straße 30, 10245 Berlin",52.5124065,13.459095,https://www.zeuspizzeria.de/,+493029009100,Mo-Sa 15:30-23:00; Su 14:00-23:00,,yes,Friedrichshain,"{""Mo"": [[""15:30"", ""23:00""]], ""Tu"": [[""15:30"", ""23:00""]], ""We"": [[""15:30"", ""23:00""]], ""Th"": [[""15:30"", ""23:00""]], ""Fr"": [[""15:30"", ""23:00""]], ""Sa"": [[""15:30"", ""23:00""]], ""Su"": [[""14:00"", ""23:00""]]}",Friedrichshain-Kreuzberg,10245,V0207,11002002
Ristorante Da Toni,restaurant,italian,"Pariser Straße 18a, 10707 Berlin",52.4982635,13.3190018,,,,,no,Wilmersdorf,,Charlottenburg-Wilmersdorf,10707,V0208,11004004
Hasir,restaurant,turkish,"Hasir, Havelstraße, Spandau, Berlin, 13597, Deutschland",52.5382994,13.2067559,,,"PH,Mo-Su 10:00-24:00",,limited,Spandau,"{""PH"": [[""10:00"", ""00:00""]], ""Mo"": [[""10:00"", ""00:00""]], ""Tu"": [[""10:00"", ""00:00""]], ""We"": [[""10:00"", ""00:00""]], ""Th"": [[""10:00"", ""00:00""]], ""Fr"": [[""10:00"", ""00:00""]], ""Sa"": [[""10:00"", ""00:00""]], ""Su"": [[""10:00"", ""00:00""]]}",Spandau,13597,V0209,11005005
Aroma,restaurant,chinese,"Kantstraße 35, 10625 Berlin",52.5063437,13.3155769,https://www.aroma-kantstrasse.de/,+443037591628,Th-Tu 14:00-02:00,,yes,Charlottenburg,{},Charlottenburg-Wilmersdorf,10625,V0210,11004004
Tapas Bar,restaurant,spanish,"Grolmanstraße 52, 10623 Berlin",52.507193,13.3216137,,,"Mo-Th 16:00-01:00, Fr-Sa 16:00-02:00, Su 11:00-01:00",,no,Charlottenburg,{},Charlottenburg-Wilmersdorf,10623,V0211,11004004
Café Lutetia,cafe,,"Jüdenstraße 10, 13597 Berlin",52.5370841,13.2019954,,,"Mo off; Tu-Th,Su 10:00 - 00:00; Fr,Sa 10:00 - 2:00",,limited,Spandau,"{""Su"": [[""10:00"", ""00:00""]], ""Fr"": [[""10:00"", ""02:00""]], ""Sa"": [[""10:00"", ""02:00""]]}",Spandau,13597,V0212,11005005
Charlotte,bar,,"Charlottenstraße 14a, 13597 Berlin",52.5372124,13.2022687,http://www.cbb-charlotte.de,+49303331000,,,limited,Spandau,,Spandau,13597,V0213,11005005
Lalibela,restaurant,,"Lalibela, Reichenberger Straße, Luisenstadt, Kreuzberg, Friedrichshain-Kreuzberg, Berlin, 10999, Deutschland",52.4953274,13.4303555,,,Mo-Su 14:00-22:00+,,,Kreuzberg,"{""Mo"": [[""14:00-22:00"", ""late""]], ""Tu"": [[""14:00-22:00"", ""late""]], ""We"": [[""14:00-22:00"", ""late""]], ""Th"": [[""14:00-22:00"", ""late""]], ""Fr"": [[""14:00-22:00"", ""late""]], ""Sa"": [[""14:00-22:00"", ""late""]], ""Su"": [[""14:00-22:00"", ""late""]]}",Friedrichshain-Kreuzberg,10999,V0214,11002002
Cocochu,restaurant,vietnamese,"Paul-Lincke-Ufer 23, 10999 Berlin",52.4940969,13.4286005,,,Mo-Su 11:30-23:30,,yes,Kreuzberg,"{""Mo"": [[""11:30"", ""23:30""]], ""Tu"": [[""11:30"", ""23:30""]], ""We"": [[""11:30"", ""23:30""]], ""Th"": [[""11:30"", ""23:30""]], ""Fr"": [[""11:30"", ""23:30""]], ""Sa"": [[""11:30"", ""23:30""]], ""Su"": [[""11:30"", ""23:30""]]}",Friedrichshain-Kreuzberg,10999,V0215,11002002
Olivio,restaurant,italian,Schönleinstraße 29,52.4919428,13.4211845,,+493061101695,"Mo-Fr 12:00-22:00, Su 12:00-22:00",yes,no,Kreuzberg,"{""Mo"": [[""12:00"", ""22:00""], [""Su 12:00"", ""22:00""]], ""Tu"": [[""12:00"", ""22:00""], [""Su 12:00"", ""22:00""]], ""We"": [[""12:00"", ""22:00""], [""Su 12:00"", ""22:00""]], ""Th"": [[""12:00"", ""22:00""], [""Su 12:00"", ""22:00""]], ""Fr"": [[""12:00"", ""22:00""], [""Su 12:00"", ""22:00""]]}",Friedrichshain-Kreuzberg,,V0216,11002002
La La,restaurant,,"Dieffenbachstraße 11, 10967 Berlin",52.4929941,13.4143954,,,,,,Kreuzberg,,Friedrichshain-Kreuzberg,10967,V0217,11002002
Melissa,restaurant,kebab,"Corinthstraße 58, 10245 Berlin",52.4989849,13.4642845,,,"Mo-Su,PH 08:00-02:00",,no,Friedrichshain,"{""Mo"": [[""08:00"", ""02:00""]], ""Tu"": [[""08:00"", ""02:00""]], ""We"": [[""08:00"", ""02:00""]], ""Th"": [[""08:00"", ""02:00""]], ""Fr"": [[""08:00"", ""02:00""]], ""Sa"": [[""08:00"", ""02:00""]], ""Su"": [[""08:00"", ""02:00""]], ""PH"": [[""08:00"", ""02:00""]]}",Friedrichshain-Kreuzberg,10245,V0218,11002002
Das kleine Eiswerk,cafe,ice_cream,"Hultschiner Damm 76, 12623 Berlin",52.4820047,13.6015579,https://www.kleines-eiswerk.de/,+4915207001419,"Mo-Su,PH 12:00-18:00",,no,Mahlsdorf,"{""Mo"": [[""12:00"", ""18:00""]], ""Tu"": [[""12:00"", ""18:00""]], ""We"": [[""12:00"", ""18:00""]], ""Th"": [[""12:00"", ""18:00""]], ""Fr"": [[""12:00"", ""18:00""]], ""Sa"": [[""12:00"", ""18:00""]], ""Su"": [[""12:00"", ""18:00""]], ""PH"": [[""12:00"", ""18:00""]]}",Marzahn-Hellersdorf,12623,V0219,11010010
Athena Roma,restaurant,,"Jenny-Lind-Straße 7, 13189 Berlin",52.5609827,13.4237284,https://www.athena-roma.de/,+493040106840,Mo-Su 12:00-23:00,,limited,Pankow,"{""Mo"": [[""12:00"", ""23:00""]], ""Tu"": [[""12:00"", ""23:00""]], ""We"": [[""12:00"", ""23:00""]], ""Th"": [[""12:00"", ""23:00""]], ""Fr"": [[""12:00"", ""23:00""]], ""Sa"": [[""12:00"", ""23:00""]], ""Su"": [[""12:00"", ""23:00""]]}",Pankow,13189,V0220,11003003
Chay Long,restaurant,asian,"Graefestraße 20, 10967 Berlin",52.4925901,13.4171934,,,,,,Kreuzberg,,Friedrichshain-Kreuzberg,10967,V0221,11002002
Pars,cafe,,"Grolmanstraße 53, 10623 Berlin",52.5074506,13.3213947,https://www.pars.berlin/,+493044708386,We-Sa 18:30-23:00,,limited,Charlottenburg,"{""We"": [[""18:30"", ""23:00""]], ""Th"": [[""18:30"", ""23:00""]], ""Fr"": [[""18:30"", ""23:00""]], ""Sa"": [[""18:30"", ""23:00""]]}",Charlottenburg-Wilmersdorf,10623,V0222,11004004
Gaststätte G7,restaurant,german,"Gatower Straße 7, 13595 Berlin",52.5203123,13.1877687,,,,,no,Wilhelmstadt,,Spandau,13595,V0223,11005005
Trattoria Da Pia,restaurant,italian,"Naugarder Straße 45 II, 10409 Berlin",52.542687,13.4382723,https://www.trattoria-da-pia.de,,,,yes,Prenzlauer Berg,,Pankow,10409,V0224,11003003
booze bar berlin,bar,,"Boxhagener Straße 105, 10245 Berlin",52.5127422,13.458706,,,Su-Th 19:00-02:00; Fr-Sa 19:00-04:00,,limited,Friedrichshain,"{""Fr"": [[""19:00"", ""04:00""]], ""Sa"": [[""19:00"", ""04:00""]]}",Friedrichshain-Kreuzberg,10245,V0225,11002002
The Hummus Club,restaurant,falafel;lebanese,"Boxhagener Straße 29, 10245 Berlin",52.5124653,13.4588561,,,,,yes,Friedrichshain,,Friedrichshain-Kreuzberg,10245,V0226,11002002
Burger Jam,restaurant,sausage,"Boxhagener Straße 29, 10245 Berlin",52.5124787,13.4587818,,,Mo-Su 12:30-18:00+,,limited,Friedrichshain,"{""Mo"": [[""12:30-18:00"", ""late""]], ""Tu"": [[""12:30-18:00"", ""late""]], ""We"": [[""12:30-18:00"", ""late""]], ""Th"": [[""12:30-18:00"", ""late""]], ""Fr"": [[""12:30-18:00"", ""late""]], ""Sa"": [[""12:30-18:00"", ""late""]], ""Su"": [[""12:30-18:00"", ""late""]]}",Friedrichshain-Kreuzberg,10245,V0227,11002002
Zoena,cafe,austrian,Berlin,52.4978961,13.3230488,,,Mo-Su 10:00-20:00,,limited,Wilmersdorf,"{""Mo"": [[""10:00"", ""20:00""]], ""Tu"": [[""10:00"", ""20:00""]], ""We"": [[""10:00"", ""20:00""]], ""Th"": [[""10:00"", ""20:00""]], ""Fr"": [[""10:00"", ""20:00""]], ""Sa"": [[""10:00"", ""20:00""]], ""Su"": [[""10:00"", ""20:00""]]}",Charlottenburg-Wilmersdorf,,V0228,11004004
Sweet2go,cafe,ice_cream;cake,"Pfalzburger Straße 79, 10719 Berlin",52.4979575,13.3228653,https://sweet-2-go.com/,+493053051519,Mo-Su 10:00-18:00,,yes,Wilmersdorf,"{""Mo"": [[""10:00"", ""18:00""]], ""Tu"": [[""10:00"", ""18:00""]], ""We"": [[""10:00"", ""18:00""]], ""Th"": [[""10:00"", ""18:00""]], ""Fr"": [[""10:00"", ""18:00""]], ""Sa"": [[""10:00"", ""18:00""]], ""Su"": [[""10:00"", ""18:00""]]}",Charlottenburg-Wilmersdorf,10719,V0229,11004004
Asiana Village,restaurant,asian,"Asiana Village, Wilhelmsruher Damm, Wittenau, Reinickendorf, Berlin, 13435, Deutschland",52.5953151,13.3353055,,,Tu-Th 12:00-21:00; Fr-Sa 12:00-22:00; Su 12:00-21:00,,yes,Wittenau,"{""Fr"": [[""12:00"", ""22:00""]], ""Sa"": [[""12:00"", ""22:00""]], ""Su"": [[""12:00"", ""21:00""]]}",Reinickendorf,13435,V0230,11012012
Müggelsee-Terrassen Rübezahl,restaurant,,"Müggelsee-Terrassen Rübezahl, Müggelseepromenade, Köpenick, Treptow-Köpenick, Berlin, 12559, Deutschland",52.4268637,13.6290994,,,May-Sep: We-Su 11:30-21:00; Oct-Apr: We-Su 12:00-19:30,,yes,Köpenick,{},Treptow-Köpenick,12559,V0231,11009009
Pascarella,restaurant,italian,"Schlüterstraße 69, 10625 Berlin",52.5076989,13.3180576,,,12:00-24:00,,yes,Charlottenburg,"{""Mo"": [[""12:00"", ""00:00""]], ""Tu"": [[""12:00"", ""00:00""]], ""We"": [[""12:00"", ""00:00""]], ""Th"": [[""12:00"", ""00:00""]], ""Fr"": [[""12:00"", ""00:00""]], ""Sa"": [[""12:00"", ""00:00""]], ""Su"": [[""12:00"", ""00:00""]]}",Charlottenburg-Wilmersdorf,10625,V0232,11004004
George's Steakhouse,restaurant,steak_house,"George's Steakhouse, Ludwigkirchstraße, Wilmersdorf, Charlottenburg-Wilmersdorf, Berlin, 10719, Deutschland",52.4977937,13.3246353,,,"PH,Mo-Su 11:30-23:59",,,Wilmersdorf,"{""PH"": [[""11:30"", ""23:59""]], ""Mo"": [[""11:30"", ""23:59""]], ""Tu"": [[""11:30"", ""23:59""]], ""We"": [[""11:30"", ""23:59""]], ""Th"": [[""11:30"", ""23:59""]], ""Fr"": [[""11:30"", ""23:59""]], ""Sa"": [[""11:30"", ""23:59""]], ""Su"": [[""11:30"", ""23:59""]]}",Charlottenburg-Wilmersdorf,10719,V0233,11004004
Berlin Burrito Company,restaurant,mexican,"Kantstraße 51, 10625 Berlin",52.506665,13.3098529,https://www.berlin-burrito-company.de/,03055608087,"Mo-Th,Su 12:00-22:00; Fr-Sa 12:00-23:00",,limited,Charlottenburg,"{""Su"": [[""12:00"", ""22:00""]], ""Fr"": [[""12:00"", ""23:00""]], ""Sa"": [[""12:00"", ""23:00""]]}",Charlottenburg-Wilmersdorf,10625,V0234,11004004
Quasimodo,bar,,"Kantstraße 12A, 10623 Berlin",52.5059347,13.3283712,,,,,no,Charlottenburg,,Charlottenburg-Wilmersdorf,10623,V0235,11004004
Da Mingiu,restaurant,italian,"Da Mingiu, Alt-Wittenau, Wittenau, Reinickendorf, Berlin, 13437, Deutschland",52.5924426,13.3263936,,,"PH,Mo-Su 12:00-23:00",,yes,Wittenau,"{""PH"": [[""12:00"", ""23:00""]], ""Mo"": [[""12:00"", ""23:00""]], ""Tu"": [[""12:00"", ""23:00""]], ""We"": [[""12:00"", ""23:00""]], ""Th"": [[""12:00"", ""23:00""]], ""Fr"": [[""12:00"", ""23:00""]], ""Sa"": [[""12:00"", ""23:00""]], ""Su"": [[""12:00"", ""23:00""]]}",Reinickendorf,13437,V0236,11012012
Jäger & Lustig,restaurant,regional,"Grünberger Straße 1, 10243 Berlin",52.5134101,13.4480647,,,Mo-Su 12:00-00:00,,yes,Friedrichshain,"{""Mo"": [[""12:00"", ""00:00""]], ""Tu"": [[""12:00"", ""00:00""]], ""We"": [[""12:00"", ""00:00""]], ""Th"": [[""12:00"", ""00:00""]], ""Fr"": [[""12:00"", ""00:00""]], ""Sa"": [[""12:00"", ""00:00""]], ""Su"": [[""12:00"", ""00:00""]]}",Friedrichshain-Kreuzberg,10243,V0237,11002002
Plancha II,restaurant,,"Plancha II, Roonstraße, Spandau, Berlin, 13585, Deutschland",52.5417561,13.1993753,,+493035304415,,,no,Spandau,,Spandau,13585,V0238,11005005
Schützen-Wirtin,restaurant,regional,"Schützen-Wirtin, 12, Stahnsdorfer Damm, Wannsee, Steglitz-Zehlendorf, Berlin, Teltow, 14109, Deutschland",52.4147548,13.1769686,,,"We-Fr 12:00-18:00; Sa 10:00-18:00; Su 12:00-18:00; Mo,Tu off",,,Wannsee,"{""We"": [[""12:00"", ""18:00""]], ""Th"": [[""12:00"", ""18:00""]], ""Fr"": [[""12:00"", ""18:00""]], ""Sa"": [[""10:00"", ""18:00""]], ""Su"": [[""12:00"", ""18:00""]]}",Steglitz-Zehlendorf,14109,V0239,11006006
Sommercafé Kladow,cafe,coffee_shop;cake;regional,"Lüdickeweg 1, 14089 Berlin",52.4445732,13.1306758,,,"Apr Fr[1]-Oct Su[1] PH,Fr-Su 10:00-18:00",,yes,Kladow,{},Spandau,14089,V0240,11005005
QBA,restaurant,cuban,"Oranienburger Straße 45, 10117 Berlin",52.5259949,13.3894424,http://www.qba-restaurant.de/,,"Mo-Th 16:00-00:00, Fr,Sa 16:00-03:00, Su 16:00-24:00",,no,Mitte,{},Mitte,10117,V0241,11001001
The Coffee Shop,cafe,coffee_shop,"Werderscher Markt 1, 10117 Berlin",52.5152592,13.3983179,,,Mo–Fr 08:00-17:00,,yes,Mitte,"{""Mo"": [[""08:00"", ""17:00""]], ""Tu"": [[""08:00"", ""17:00""]], ""We"": [[""08:00"", ""17:00""]], ""Th"": [[""08:00"", ""17:00""]], ""Fr"": [[""08:00"", ""17:00""]]}",Mitte,10117,V0242,11001001
Café im Alten Museum,cafe,,"Museumsinsel, Hinter dem Gießhaus, Friedrichswerder, Mitte, Berlin, 10117, Deutschland",52.5191167,13.3985266,,,"PH,Tu-Su 10:00-18:00",,limited,Mitte,"{""PH"": [[""10:00"", ""18:00""]], ""Tu"": [[""10:00"", ""18:00""]], ""We"": [[""10:00"", ""18:00""]], ""Th"": [[""10:00"", ""18:00""]], ""Fr"": [[""10:00"", ""18:00""]], ""Sa"": [[""10:00"", ""18:00""]], ""Su"": [[""10:00"", ""18:00""]]}",Mitte,10117,V0243,11001001
Il Casolare,restaurant,italian;pizza,"Grimmstraße 30, 10967 Berlin",52.4949133,13.4155131,,,"17:00-24:00, Su 12:00-24:00",,limited,Kreuzberg,"{""Mo"": [[""17:00"", ""00:00""], [""Su 12:00"", ""00:00""]], ""Tu"": [[""17:00"", ""00:00""], [""Su 12:00"", ""00:00""]], ""We"": [[""17:00"", ""00:00""], [""Su 12:00"", ""00:00""]], ""Th"": [[""17:00"", ""00:00""], [""Su 12:00"", ""00:00""]], ""Fr"": [[""17:00"", ""00:00""], [""Su 12:00"", ""00:00""]], ""Sa"": [[""17:00"", ""00:00""], [""Su 12:00"", ""00:00""]], ""Su"": [[""17:00"", ""00:00""], [""Su 12:00"", ""00:00""]]}",Friedrichshain-Kreuzberg,10967,V0244,11002002
Bar im Wasserturm,bar,,"Waldowstraße 20, 13053 Berlin",52.547659,13.4887104,,,,,,Alt-Hohenschönhausen,,Lichtenberg,13053,V0245,11011011
Tales Untold,cafe,,"Am Comeniusplatz 1, 10243 Berlin",52.5123446,13.4479958,https://talesuntold.de/,,Di-Su 10:00-23:00,,yes,Friedrichshain,{},Friedrichshain-Kreuzberg,10243,V0246,11002002
Tudo,cafe,bubble_tea,"Tudo, Panoramastraße, Spandauer Vorstadt, Mitte, Berlin, 10178, Deutschland",52.5213767,13.4096608,https://tudo.berlin/,03027592932,Mo 11:00-21:00; Tu-Su 11:00-22:00,,yes,Mitte,"{""Mo"": [[""11:00"", ""21:00""]], ""Tu"": [[""11:00"", ""22:00""]], ""We"": [[""11:00"", ""22:00""]], ""Th"": [[""11:00"", ""22:00""]], ""Fr"": [[""11:00"", ""22:00""]], ""Sa"": [[""11:00"", ""22:00""]], ""Su"": [[""11:00"", ""22:00""]]}",Mitte,10178,V0247,11001001
Kiez Kaffee Kraft,cafe,coffee_shop,"Schivelbeiner Straße 23, 10439 Berlin",52.5511873,13.4040715,https://www.kiezkaffeekraft.de/,,08:30-18:00,yes,limited,Prenzlauer Berg,"{""Mo"": [[""08:30"", ""18:00""]], ""Tu"": [[""08:30"", ""18:00""]], ""We"": [[""08:30"", ""18:00""]], ""Th"": [[""08:30"", ""18:00""]], ""Fr"": [[""08:30"", ""18:00""]], ""Sa"": [[""08:30"", ""18:00""]], ""Su"": [[""08:30"", ""18:00""]]}",Pankow,10439,V0248,11003003
Rossini III,restaurant,german;italian;mexican,"Hultschiner Damm 238, 12623 Berlin",52.4955607,13.6113563,,+49305675283,,,limited,Mahlsdorf,,Marzahn-Hellersdorf,12623,V0249,11010010
Marjan Grill,restaurant,croatian,"Bartningallee , 10557 Berlin",52.5200654,13.3469194,,,"We,Th,Su,Mo 12:00-23:00, Fr,Sa 12:00-24:00",,yes,Hansaviertel,"{""We"": [[""12:00"", ""23:00""], [""Fr"", """"], [""Sa 12:00"", ""00:00""]], ""Su"": [[""12:00"", ""23:00""], [""Fr"", """"], [""Sa 12:00"", ""00:00""]], ""Mo"": [[""12:00"", ""23:00""], [""Fr"", """"], [""Sa 12:00"", ""00:00""]]}",Mitte,10557,V0250,11001001
Overcomer Bubble Tea,cafe,,"Overcomer Bubble Tea, Landoltwegbrücke, Dahlem, Steglitz-Zehlendorf, Berlin, Teltow, 14195, Deutschland",52.4513354,13.2825941,,,Mo-Sa 11:00-19:00,,,Dahlem,"{""Mo"": [[""11:00"", ""19:00""]], ""Tu"": [[""11:00"", ""19:00""]], ""We"": [[""11:00"", ""19:00""]], ""Th"": [[""11:00"", ""19:00""]], ""Fr"": [[""11:00"", ""19:00""]], ""Sa"": [[""11:00"", ""19:00""]]}",Steglitz-Zehlendorf,14195,V0251,11006006
Billardsalon Köh,bar,,"Sophienstraße 6, 10178 Berlin",52.5252025,13.4018544,,,"Mo-Sa 17:00+, Su 16:00+",,yes,Mitte,"{""Mo"": [[""17:00"", ""late""], [""Su 16:00"", ""late""]], ""Tu"": [[""17:00"", ""late""], [""Su 16:00"", ""late""]], ""We"": [[""17:00"", ""late""], [""Su 16:00"", ""late""]], ""Th"": [[""17:00"", ""late""], [""Su 16:00"", ""late""]], ""Fr"": [[""17:00"", ""late""], [""Su 16:00"", ""late""]], ""Sa"": [[""17:00"", ""late""], [""Su 16:00"", ""late""]]}",Mitte,10178,V0252,11001001
Fourty Years,restaurant,,"Dieffenbachstraße 52, 10967 Berlin",52.4923209,13.4182784,,,,,,Kreuzberg,,Friedrichshain-Kreuzberg,10967,V0253,11002002
Schönes Café,cafe,,"Dieffenbachstraße 54, 10967 Berlin",52.4923642,13.418062,http://www.schoenescafe.de,+493091442410,Mo-Fr 11:00-16:00,,no,Kreuzberg,"{""Mo"": [[""11:00"", ""16:00""]], ""Tu"": [[""11:00"", ""16:00""]], ""We"": [[""11:00"", ""16:00""]], ""Th"": [[""11:00"", ""16:00""]], ""Fr"": [[""11:00"", ""16:00""]]}",Friedrichshain-Kreuzberg,10967,V0254,11002002
datscha,restaurant,russian,"Graefestraße 83, 10967 Berlin",52.4938768,13.4186675,,,"Mo-Su,PH 10:00-01:00",,no,Kreuzberg,"{""Mo"": [[""10:00"", ""01:00""]], ""Tu"": [[""10:00"", ""01:00""]], ""We"": [[""10:00"", ""01:00""]], ""Th"": [[""10:00"", ""01:00""]], ""Fr"": [[""10:00"", ""01:00""]], ""Sa"": [[""10:00"", ""01:00""]], ""Su"": [[""10:00"", ""01:00""]], ""PH"": [[""10:00"", ""01:00""]]}",Friedrichshain-Kreuzberg,10967,V0255,11002002
Narr-Bar,cafe,,"Böckhstraße 24, 10967 Berlin",52.4931596,13.4203993,,,,,no,Kreuzberg,,Friedrichshain-Kreuzberg,10967,V0256,11002002
Bahar Restaurant,restaurant,afghan;persian,"Hauptstraße 112, 10827 Berlin",52.4814663,13.3483784,https://bahar-berlin.de/,,Mo-Th 11:00-23:00; Fr-Su 11:00-24:00,,no,Schöneberg,"{""Fr"": [[""11:00"", ""00:00""]], ""Sa"": [[""11:00"", ""00:00""]], ""Su"": [[""11:00"", ""00:00""]]}",Tempelhof-Schöneberg,10827,V0257,11007007
Ristorante Pantalone,restaurant,italian,"Ristorante Pantalone, Ludolfingerplatz, Frohnau, Reinickendorf, Berlin, 13465, Deutschland",52.6331209,13.2886358,,,12:00-24:00,yes,no,Frohnau,"{""Mo"": [[""12:00"", ""00:00""]], ""Tu"": [[""12:00"", ""00:00""]], ""We"": [[""12:00"", ""00:00""]], ""Th"": [[""12:00"", ""00:00""]], ""Fr"": [[""12:00"", ""00:00""]], ""Sa"": [[""12:00"", ""00:00""]], ""Su"": [[""12:00"", ""00:00""]]}",Reinickendorf,13465,V0258,11012012
Ristorante Da Guiliano,restaurant,italian,"Berliner Straße 92, 13507 Berlin",52.5881097,13.2855979,,,,,no,Tegel,,Reinickendorf,13507,V0259,11012012
"Hax`nhaus
Tegernseer Tönnchen",restaurant,german,"Alt-Tegel 2, 13507 Berlin",52.5897918,13.2822617,https://www.haxnhaus-tegel.de/,+49304339034,"PH,Mo-Su 11:30-23:00",,no,Tegel,"{""PH"": [[""11:30"", ""23:00""]], ""Mo"": [[""11:30"", ""23:00""]], ""Tu"": [[""11:30"", ""23:00""]], ""We"": [[""11:30"", ""23:00""]], ""Th"": [[""11:30"", ""23:00""]], ""Fr"": [[""11:30"", ""23:00""]], ""Sa"": [[""11:30"", ""23:00""]], ""Su"": [[""11:30"", ""23:00""]]}",Reinickendorf,13507,V0260,11012012
Restorante Pescara,restaurant,italian,"Falkenhagener Straße 1, 13585 Berlin",52.5442796,13.2040241,https://www.ristorante-pescara.de/,+49303354081,"Mo-Fr 17:00-24:00; Sa, Su 12:00-24:00",,no,Spandau,"{""Mo"": [[""17:00"", ""00:00""]], ""Tu"": [[""17:00"", ""00:00""]], ""We"": [[""17:00"", ""00:00""]], ""Th"": [[""17:00"", ""00:00""]], ""Fr"": [[""17:00"", ""00:00""]], ""Sa"": [[""12:00"", ""00:00""]], ""Su"": [[""12:00"", ""00:00""]]}",Spandau,13585,V0261,11005005
Omonia Treff,restaurant,greek,"Schönwalder Straße 111, 13585 Berlin",52.544422,13.2043698,,+49303361621,Mo-Su 14:00-22:00,,limited,Spandau,"{""Mo"": [[""14:00"", ""22:00""]], ""Tu"": [[""14:00"", ""22:00""]], ""We"": [[""14:00"", ""22:00""]], ""Th"": [[""14:00"", ""22:00""]], ""Fr"": [[""14:00"", ""22:00""]], ""Sa"": [[""14:00"", ""22:00""]], ""Su"": [[""14:00"", ""22:00""]]}",Spandau,13585,V0262,11005005
Yes Haus,restaurant,thai,"Berliner Straße 109, 13467 Berlin",52.6196845,13.3134918,,,Tu-Su 12:00-22:00,yes,limited,Hermsdorf,"{""Tu"": [[""12:00"", ""22:00""]], ""We"": [[""12:00"", ""22:00""]], ""Th"": [[""12:00"", ""22:00""]], ""Fr"": [[""12:00"", ""22:00""]], ""Sa"": [[""12:00"", ""22:00""]], ""Su"": [[""12:00"", ""22:00""]]}",Reinickendorf,13467,V0263,11012012
Zum Kühlen Grunde,restaurant,,"Lotosweg 88, 13467 Berlin",52.6178576,13.3270593,,+493040584815,,,,Hermsdorf,,Reinickendorf,13467,V0264,11012012
Gasthof Alter Dorfkrug Lübars,restaurant,,"Alt-Lübars 8, 13469 Berlin",52.6201531,13.3563271,http://www.gasthof-alter-dorfkrug.de,+493092210230,We-Su 12:00-22:00,,yes,Lübars,"{""We"": [[""12:00"", ""22:00""]], ""Th"": [[""12:00"", ""22:00""]], ""Fr"": [[""12:00"", ""22:00""]], ""Sa"": [[""12:00"", ""22:00""]], ""Su"": [[""12:00"", ""22:00""]]}",Reinickendorf,13469,V0265,11012012
Graffiti,restaurant,international;ice_cream,"Kurfürstendamm 69, 10707 Berlin",52.5003573,13.3075025,,,,,limited,Charlottenburg,,Charlottenburg-Wilmersdorf,10707,V0266,11004004
Café Bilderbuch,cafe,breakfast;coffee_shop,"Akazienstraße 28, 10823 Berlin",52.4866549,13.3551643,,,Mo-Sa 09:00-00:00; Su 10:00-00:00,,limited,Schöneberg,"{""Mo"": [[""09:00"", ""00:00""]], ""Tu"": [[""09:00"", ""00:00""]], ""We"": [[""09:00"", ""00:00""]], ""Th"": [[""09:00"", ""00:00""]], ""Fr"": [[""09:00"", ""00:00""]], ""Sa"": [[""09:00"", ""00:00""]], ""Su"": [[""10:00"", ""00:00""]]}",Tempelhof-Schöneberg,10823,V0267,11007007
Sotto,restaurant,italian;noodles;pizza,"Neue Hochstraße 25, 13347 Berlin",52.5428561,13.3764121,,+493074783419,We-Su 17:00-22:00,yes,limited,Gesundbrunnen,"{""We"": [[""17:00"", ""22:00""]], ""Th"": [[""17:00"", ""22:00""]], ""Fr"": [[""17:00"", ""22:00""]], ""Sa"": [[""17:00"", ""22:00""]], ""Su"": [[""17:00"", ""22:00""]]}",Mitte,13347,V0268,11001001
Julius,restaurant,coffee_shop,"Gerichtstraße 31, 13347 Berlin",52.544969,13.3682112,https://juliusberlin.de/,,"We 19:00-23:00; Th-Su 10:00-17:00, 19:00-23:00",,yes,Wedding,"{""We"": [[""19:00"", ""23:00""]]}",Mitte,13347,V0269,11001001
Rocco,restaurant,international,"Kaiserdamm 109, 14057 Berlin",52.5103534,13.291892,,,09:00-24:00,,yes,Charlottenburg,"{""Mo"": [[""09:00"", ""00:00""]], ""Tu"": [[""09:00"", ""00:00""]], ""We"": [[""09:00"", ""00:00""]], ""Th"": [[""09:00"", ""00:00""]], ""Fr"": [[""09:00"", ""00:00""]], ""Sa"": [[""09:00"", ""00:00""]], ""Su"": [[""09:00"", ""00:00""]]}",Charlottenburg-Wilmersdorf,14057,V0270,11004004
Metropol,cafe,,"Metropol, Landsberger Allee, Hausburgviertel, Friedrichshain, Friedrichshain-Kreuzberg, Berlin, 10249, Deutschland",52.5254302,13.4455523,,,,,,Friedrichshain,,Friedrichshain-Kreuzberg,10249,V0271,11002002
Il Giardino,restaurant,italian,"Hackerstraße 3, 12161 Berlin",52.4666443,13.3249631,https://il-giardino-berlin.com,+493098430257,"Mo-Su,PH 12:00-00:00",,no,Friedenau,"{""Mo"": [[""12:00"", ""00:00""]], ""Tu"": [[""12:00"", ""00:00""]], ""We"": [[""12:00"", ""00:00""]], ""Th"": [[""12:00"", ""00:00""]], ""Fr"": [[""12:00"", ""00:00""]], ""Sa"": [[""12:00"", ""00:00""]], ""Su"": [[""12:00"", ""00:00""]], ""PH"": [[""12:00"", ""00:00""]]}",Tempelhof-Schöneberg,12161,V0272,11007007
Ristorante Italiano,restaurant,italian,"Landsberger Allee 101, 10407 Berlin",52.5278248,13.4517323,https://italiano-ristorante.de/,+49-30-4234236,Mo-Su 11:30-24:00,,,Prenzlauer Berg,"{""Mo"": [[""11:30"", ""00:00""]], ""Tu"": [[""11:30"", ""00:00""]], ""We"": [[""11:30"", ""00:00""]], ""Th"": [[""11:30"", ""00:00""]], ""Fr"": [[""11:30"", ""00:00""]], ""Sa"": [[""11:30"", ""00:00""]], ""Su"": [[""11:30"", ""00:00""]]}",Pankow,10407,V0273,11003003
Viet Bowl,restaurant,vietnamese,"Straßmannstraße 41, 10249 Berlin",52.5232113,13.4533349,,,Mo-Su 11:30-23:00,,no,Friedrichshain,"{""Mo"": [[""11:30"", ""23:00""]], ""Tu"": [[""11:30"", ""23:00""]], ""We"": [[""11:30"", ""23:00""]], ""Th"": [[""11:30"", ""23:00""]], ""Fr"": [[""11:30"", ""23:00""]], ""Sa"": [[""11:30"", ""23:00""]], ""Su"": [[""11:30"", ""23:00""]]}",Friedrichshain-Kreuzberg,10249,V0274,11002002
Ja Dilo,cafe,cake,"Petersburger Straße 45, 10249 Berlin",52.5223054,13.4509232,,,,,no,Friedrichshain,,Friedrichshain-Kreuzberg,10249,V0275,11002002
Lemongrass,restaurant,asian,"Anklamer Straße 38, 10115 Berlin",52.5352762,13.3993689,,,Mo-Su 12:00-23:00,yes,limited,Mitte,"{""Mo"": [[""12:00"", ""23:00""]], ""Tu"": [[""12:00"", ""23:00""]], ""We"": [[""12:00"", ""23:00""]], ""Th"": [[""12:00"", ""23:00""]], ""Fr"": [[""12:00"", ""23:00""]], ""Sa"": [[""12:00"", ""23:00""]], ""Su"": [[""12:00"", ""23:00""]]}",Mitte,10115,V0276,11001001
caffe e cioccolata,cafe,,"Anklamer Straße 41, 10115 Berlin",52.5351623,13.3986537,,,Mo-Fr 09:37-17:54; Sa 10:28-15:20,,no,Mitte,"{""Mo"": [[""09:37"", ""17:54""]], ""Tu"": [[""09:37"", ""17:54""]], ""We"": [[""09:37"", ""17:54""]], ""Th"": [[""09:37"", ""17:54""]], ""Fr"": [[""09:37"", ""17:54""]], ""Sa"": [[""10:28"", ""15:20""]]}",Mitte,10115,V0277,11001001
La Lúcuma,cafe,,"Granseer Straße 8, 10435 Berlin",52.536814,13.402935,,,Tu-Fr 14:30-24:00; Sa 13:00-23:00; Su 15:00-21:00,,no,Mitte,"{""Tu"": [[""14:30"", ""00:00""]], ""We"": [[""14:30"", ""00:00""]], ""Th"": [[""14:30"", ""00:00""]], ""Fr"": [[""14:30"", ""00:00""]], ""Sa"": [[""13:00"", ""23:00""]], ""Su"": [[""15:00"", ""21:00""]]}",Mitte,10435,V0278,11001001
Cup Arkona,cafe,,"Arkonaplatz 10, 10435 Berlin",52.5373544,13.4007116,http://www.cup-arkona.de/,,"Mo-Fr 08:00-19:30; Sa-Su,PH 09:00-19:30",yes,limited,Mitte,"{""Mo"": [[""08:00"", ""19:30""]], ""Tu"": [[""08:00"", ""19:30""]], ""We"": [[""08:00"", ""19:30""]], ""Th"": [[""08:00"", ""19:30""]], ""Fr"": [[""08:00"", ""19:30""]], ""Sa"": [[""09:00"", ""19:30""]], ""Su"": [[""09:00"", ""19:30""]], ""PH"": [[""09:00"", ""19:30""]]}",Mitte,10435,V0279,11001001
Restaurant Meteora,restaurant,greek,"Jacobsohnstraße 23, 13086 Berlin",52.5557801,13.4342268,,,,,limited,Weißensee,,Pankow,13086,V0280,11003003
Lakeside,restaurant,german,"Wilkestraße 1, 13507 Berlin",52.5884273,13.2747189,,,Mo-Su 12:00+,,limited,Tegel,"{""Mo"": [[""12:00"", ""late""]], ""Tu"": [[""12:00"", ""late""]], ""We"": [[""12:00"", ""late""]], ""Th"": [[""12:00"", ""late""]], ""Fr"": [[""12:00"", ""late""]], ""Sa"": [[""12:00"", ""late""]], ""Su"": [[""12:00"", ""late""]]}",Reinickendorf,13507,V0281,11012012
