name,category,cuisine,address,lat,lon,website,phone,opening_hours,takeaway,wheelchair
Aida,restaurant,italian;pizza,"Knesebeckstraße , 10623 Berlin",52.5068638,13.3228585,https://www.aida-restaurant.de/,+49 30 318 06 750,Mo-Sa 11:30-21:00; Su 15:00-21:00,,no
Madame Ngo,restaurant,asian,"Kantstraße 30, 10623 Berlin",52.5062119,13.3180811,,+49 157 53604089,"Mo-Sa 12:00-16:30, 18:00-22:00; Su 12:00-16:30, 18:00-21:30",,limited
Nam Thuân,restaurant,vietnamese,"Pestalozzistraße 106, 10625 Berlin",52.5073199,13.3207804,,,,,no
La Rose,restaurant,italian,"Neue Kantstraße 19, 14057 Berlin",52.5063184,13.2846256,,,,,
Eiscafe Eisberg,cafe,,"Brunnenstraße 55, 13355 Berlin",52.5388551,13.3960965,http://www.eis-berg.de/,,,,yes
Tibet Haus,restaurant,tibetan,"Zossener Straße 19, 10961 Berlin",52.4907103,13.3939814,,,12:00-24:00,,no
Coffee Star,cafe,,"Müllerstraße 146, 13353 Berlin",52.5476798,13.3563426,https://coffeestar.net/,+49 30 45482893,Mo-Fr 08:00-19:00; Sa 10:00-16:00,,no
Paella,restaurant,mexican,"Wundtstraße 72, 14057 Berlin",52.5068889,13.2839198,,,Mo-Su 11:00-23:00+,,limited
Cancún,restaurant,mexican,"Kaiserdamm 24, 14057 Berlin",52.5103223,13.2829535,https://www.cancun-restaurant.de/,+493030111105,Mo-Su 11:00-03:00,,limited
Schatulle,restaurant,regional,13351 Berlin,52.5542713,13.3311277,,+49 30 4513071,"Tu-Fr 12:00-22:00, Sa,Su 10:00-22:00, PH 10:00-22:00",,limited
Haus der 100 Biere,restaurant,german,"Kurfürstendamm 100, 10709 Berlin",52.4983826,13.2969979,https://100biere.de/,+49 30 25092901,Mo-Su 11:00-00:00,,yes
Ach!NikO!Ach!,restaurant,greek,"Kurfürstendamm 97-98, 10709 Berlin",52.4985867,13.2982491,,,Mo-Su 12:00-24:00,,no
Ristorante Salve,restaurant,pizza,"Damaschkestraße 31, 10711 Berlin",52.5009791,13.2976442,,,Tu-Su 16:00-22:00; Mo off,,limited
Starbucks,cafe,coffee_shop,,52.5194029,13.3887381,,,Mo-Fr 07:00-21:00; Sa 08:00-21:00; Su 09:00-19:30,yes,yes
Starbucks,cafe,coffee_shop,"Pariser Platz 4A, 10117 Berlin",52.5167295,13.3797732,https://www.starbucks.de/store-locator/store/2099/pariser-platz-pariser-platz-4-a-berlin-be-10117-de,+49 30 20617990,"Mo-Fr 08:00-21:00; Sa,Su 09:00-21:00",yes,yes
Brammibal's Donuts,cafe,donut,"Alte Potsdamer Straße 7, 10785 Berlin",52.507931,13.3737316,,,"Mo-Fr 09:00-21:00; Sa 10:00-21:00; Su,PH 10:00-20:00",,yes
Espresso House,cafe,coffee_shop,"Potsdamer Platz 5, 10785 Berlin",52.5105871,13.3764297,,,Mo-Fr 07:30-20:00; Sa-Su 08:30-20:00,yes,yes
Dalmacija,restaurant,balkan,"Quäkerstraße 2, 13403 Berlin",52.572519,13.3082697,https://restaurant-dalmacija.wixsite.com/restaurant-dalmacija,+49304134103,Tu-Su 12:00-22:00,,yes
Schlemmerküche,restaurant,german,"Wittestraße 49, 13509 Berlin",52.5771153,13.3073153,https://www.schlemmerkueche.de/,+493043605808,Mo-Fr 11:30-13:30,,limited
Taverna Athos,restaurant,greek,"Bundesplatz 2, 10715 Berlin",52.4800304,13.3277157,https://www.taverna-athos-berlin.de,+49 30 81487870,Mo-Su 12:00-23:00,,
Albert's,bar,,"Scharnweberstraße 16, 13405 Berlin",52.56382,13.328849,https://www.alberts-restaurants.de/,+49 30 36726707,,,yes
Pizzaria Tamara,restaurant,italian;pizza,"Zobeltitzstraße 90, 13403 Berlin",52.5701303,13.3098188,,,,,no
BLOCK HOUSE,restaurant,steak_house,"Theodor-Heuss-Platz 12, 14052 Berlin",52.5096736,13.2707607,https://www.block-house.de/restaurants/berlin/theodor-heuss-platz/,+49 30 3017091,Mo-Sa 12:00-23:00; Su 12:00-22:00,,yes
Café & Reisebüro - Eishandwerk,cafe,,"Heerstraße 1, 14052 Berlin",52.5089075,13.2708507,,,Mo-Fr 10:00-17:00,,yes
JOE'S Restaurant & Wirtshaus,restaurant,german,"Theodor-Heuss-Platz 10, 14052 Berlin",52.509874,13.2708833,https://www.joes-berlin.de,+49 30 262 10 20,10:00-24:00,,limited
Lindenwirtin,restaurant,regional,"Lindenallee 28, 14050 Berlin",52.5106205,13.2716607,,+49 30 3027747,"Mo-Su,PH 15:00+",,yes
Cancun,restaurant,,"Anhalter Straße 1, 10963 Berlin",52.5044686,13.3827465,https://cancun-potsdamerplatz.de/,,"PH,Mo-Su 11:30-02:00",,yes
Espresso House,cafe,coffee_shop,"Potsdamer Platz 10, 10785 Berlin",52.5082693,13.3770044,,,Mo-Fr 06:00-23:00; Sa 07:00-24:00; Su 07:30-22:00,yes,yes
Bocca di Bacco,restaurant,italian,"Friedrichstraße 167;168, 10117 Berlin",52.5151119,13.3889084,,,Mo-Sa 12:00-24:00,,no
Restaurant Borchardt,restaurant,,"Französische Straße 47, 10117 Berlin",52.5150034,13.3903882,https://www.borchardt-restaurant.de/,,11:30-24:00,,limited
Heritage,restaurant,,"Französische Straße 25, 10117 Berlin",52.514689,13.3909281,,,Mo-Su 06:30-23:00,,no
Lutter & Wegner,restaurant,german,"Charlottenstraße 56, 10117 Berlin",52.5132123,13.3911782,http://www.l-w-berlin.de,+49 30 20 29 54 0,"Mo-Su,PH 12:00-24:00",,no
Victor & Victoria,restaurant,,"Charlottenstraße 59, 10117 Berlin",52.5124049,13.3913074,https://victorvictoriaberlin.com/,+49 30 992115611,,,yes
Bellboy Berlin,bar,,"Mohrenstraße 30, 10117 Berlin",52.512033,13.3919416,https://bellboybar.com/,+49 30 20077070,Tu-Su 18:00+,,yes
Fellini,restaurant,,,52.5120539,13.3922763,,,,,no
Newton Bar,bar,,"Charlottenstraße 57, 10117 Berlin",52.5129305,13.3912298,http://www.newton-bar.de,,,,no
Espresso House,cafe,coffee_shop,"Invalidenstraße 35, 10115 Berlin",52.5307598,13.3831456,,,"Mo-Fr 06:30-19:30; Sa,Su 08:00-20:00",yes,limited
Starbucks,cafe,coffee_shop,"Friedrichstraße 61, 10117 Berlin",52.5110724,13.3900182,,,Mo-Fr 07:00-20:00; Sa 08:00-20:00; Su 09:00-19:00,yes,yes
Einstein Kaffee,cafe,coffee_shop,,52.5113571,13.3894708,,,"Mo-Fr 07:00-20:00; PH,Sa-Su 09:00-19:00",yes,yes
Maximilians,restaurant,bavarian,"Friedrichstraße 185-190, 10117 Berlin",52.5113441,13.3891811,,,Mo-Su 11:30-23:30,,yes
Izumi Sushi Bar,restaurant,japanese,"Kronenstraße 66, 10117 Berlin",52.511292,13.3887116,https://www.sushi-izumi.de/,+49 30 20649938,Mo-Fr 11:00-23:00; Sa 12:00-23:00; Su 01:00-23:00,,yes
Beast Berlin,restaurant,steak_house,"Karl-Liebknecht-Straße 29, 10178 Berlin",52.52429,13.4118534,,,"Tu-Sa 17:00-02:00; Su,Mo off",,no
Aapka - Restaurant Alexanderplatz,restaurant,indian,"Karl-Liebknecht-Straße 23, 10178 Berlin",52.5235991,13.4109696,,,11:30+,,
Der Alte Fritz,restaurant,german,"Panoramastraße 1, 10178 Berlin",52.5214304,13.4092065,https://der-alte-fritz.eatbu.com/,+49 30 96200600,"PH,Mo-Su 12:00-22:00",yes,
Carambar,restaurant,,"Rathausstraße 1, 10178 Berlin",52.5203514,13.4122196,https://carambar.de,,"Mo-Su,PH 12:00-18:00+",,yes
Matzbach,restaurant,,,52.5202106,13.4118079,,,,,
Segafredo,cafe,coffee_shop,,52.5195321,13.4103508,,,,yes,
Azem,restaurant,turkish,,52.5180123,13.4071626,,,,,
Mutter Hoppe,restaurant,german,"Rathausstraße 21, 10178 Berlin",52.5175872,13.4058989,,,Mo-Sa 11:30-22:00+,,no
Julchen Hoppe,restaurant,regional,"Rathausstraße 25, 10178 Berlin",52.5172681,13.4050245,https://julchen-hoppe.eatbu.com/?lang=de,,Mo-Fr 11:30+,,yes
Shezan,restaurant,indian,"Neue Roßstraße 13, 10179 Berlin",52.512146,13.4081288,,,Mo-Su 11:30-23:30,,limited
Trattoria Monticchiello,restaurant,italian,"Berliner Straße 70, 13507 Berlin",52.5827216,13.2901148,,,Mo off; Tu-Th 12:00-22:00; Fr-Su 15:00-22:00,,no
No Limit Shishabar,bar,,,52.5655612,13.3209279,,+4915788084160,,,
Caffè Kamee,cafe,,"Rudower Chaussee 25, 12489 Berlin",52.4296874,13.530639,https://www.kamee-caffe.de/,+493063922144,PH off; Mo-Fr 08:00-15:00,,limited
Oase Adlershof,restaurant,,"Rudower Chaussee 25, 12489 Berlin",52.4293751,13.5301027,,,Mo-Fr 11:00-15:00,,yes
Pula-Grill,restaurant,balkan,"Auguste-Viktoria-Allee 79, 13403 Berlin",52.5701846,13.3206599,,,Mo-Su 11:30-23:00,,limited
Paris-Moskau,restaurant,regional,"Alt-Moabit 141, 10557 Berlin",52.5225899,13.3644784,https://www.paris-moskau.de/,,"Mo-Fr 12:00-15:00,18:00+, Sa 18:00+",,yes
en passant,bar,,"Schönhauser Allee 58, 10437 Berlin",52.5442253,13.4128822,,,,,yes
Strandlust,restaurant,fish,"Seddinpromenade 3A, 12527 Berlin",52.3762307,13.657224,,,Tu-Su 12:00-dusk; Mo off,,no
Can,bar,,"Ollenhauerstraße 139, 13403 Berlin",52.5646418,13.327947,,,24/7,,yes
Chalet Suisse,restaurant,suisse,"Im Jagen 5, 14195 Berlin",52.461902,13.269189,https://chalet-suisse.de/,+49 30 8326362,Mo-Su 12:00+,,no
Jasper's,restaurant,austrian;german,"Anklamer Straße 27, 10115 Berlin",52.536584,13.40069,,,"Tu-Sa 17:00-23:00, Su 12:00-20:00",,no
Maestral,restaurant,,"Eichborndamm 236, 13437 Berlin",52.5893726,13.3257329,,,"""Für Veranstaltungen nach Vereinbarung""",,yes
Bier-Stub'n,restaurant,,,52.5723826,13.3594023,,,Mo-Su 17:00-18:00+,,
Irmak Grillhaus,restaurant,,,52.5674603,13.3627545,,,,,
Zur kleinen Remise,restaurant,german,"Oberfeldstraße 24, 12683 Berlin",52.5189237,13.5553974,,,"We-Su 11:00-24:00;""nach Vereinbarung""",,yes
Herkules I,restaurant,greek,"Oberfeldstraße 30, 12683 Berlin",52.5202629,13.5556526,https://www.herkules1.de/,+49 30 54396797,"Mo-Su,PH 12:00-24:00",yes,yes
Schollenkrug,restaurant,noodles;pasta;deli;german;barbecue;tapas;local,"Waidmannsluster Damm 77, 13509 Berlin",52.6006677,13.3030043,https://schollenkrug.com/,+493094870300,Mo-Su 09:00-23:00,,no
The Leaf,cafe,,"Residenzstraße 109, 13409 Berlin",52.5640793,13.3644914,,,,,
Z-Bar,bar,,"Bergstraße 2, 10115 Berlin",52.5295259,13.3956385,,,19:00+,,no
I Due Forni,restaurant,italian,"Schönhauser Allee 12, 10119 Berlin",52.5308311,13.412464,,,Mo-Su 12:00-24:00,yes,yes
Mad Meals,restaurant,mexican,"Knaackstraße 99, 10435 Berlin",52.5406178,13.414039,,,,,
SowohlAlsAuch,cafe,german;coffee_shop,"Kollwitzstraße 88, 10435 Berlin",52.5382237,13.4204986,http://www.tortenundkuchen.de/kaffeehaus-sowohlalsauch.html,+49 30 4429311,Mo-Su 08:00-23:00,,no
Akemi,restaurant,asian,"Rykestraße 39, 10405 Berlin",52.5376526,13.4212143,,,,,
Anjoy,restaurant,vietnamese,,52.5361423,13.4205337,https://www.anjoy-restaurant.de/,+49 30 54861357,"Mo-Sa, PH 12:00-23:30; Su 11:00-23:30",,limited
Seepalast,restaurant,asian,"Fürstenwalder Allee 17, 12589 Berlin",52.4417119,13.6872536,http://www.seepalast.de,+49 30 76905555,12:00-22:30,,yes
DoubleEye,cafe,coffee_shop,"Akazienstraße 22, 10823 Berlin",52.4879922,13.3540483,,,Mo-Fr 08:18-18:29; Sa 08:33-17:57; Su off,yes,no
Yogi-Haus,restaurant,indian,"Eisenacher Straße 54, 10823 Berlin",52.486278,13.3506678,http://www.restaurant-yogihaus.de/,+49 30 7829223,"Mo-Th, Su 11:30-23:00; Fr,Sa 11:30-24:00",,yes
La Residencia,restaurant,,"Kurfürstendamm 27, 10719 Berlin",52.5031309,13.3271435,,,,,no
Bristol Grill,restaurant,,"Kurfürstendamm 27, 10719 Berlin",52.5033238,13.3272963,,,,,
Le Faubourg,restaurant,french,"Augsburger Straße 41, 10789 Berlin",52.5026926,13.3318821,,,,,yes
Floh,restaurant,regional;german,"Am Bahnhof Grunewald 4, 14193 Berlin",52.4880029,13.2634284,,,Tu-Su 12:00-18:00,,
Trattoria Gioachino,restaurant,italian,,52.4878837,13.2628406,,,,,yes
Fook Lam Mun,restaurant,,,52.4206302,13.165528,,,,,yes
Blockhaus Nikolskoe,restaurant,german,"Nikolskoer Weg 15, 14109 Berlin",52.4244424,13.1163106,,,Mo-Su 11:00-19:00,,yes
Agua TexMex,restaurant,mexican,"Frieda-Arnheim-Promenade 7, 13585 Berlin",52.5462582,13.2119152,,,Mo-Su 11:00-23:00,,yes
Restaurant Hasenheide,restaurant,,,52.4877929,13.4196583,https://www.wirtshaus-hasenheide.de/,,Mo-Su 09:00-24:00,,no
Eden,restaurant,asian,"Rosenstraße 19, 10178 Berlin",52.5219316,13.4047999,,,Mo-Fr 12:00-23:00; Sa 13:00-23:00; Su 17:00-23:00,,yes
Unvernunft,restaurant,international,,52.5355167,13.2020525,https://kulturhaus-spandau.de/index.php?option=com_content&task=view&id=37&Itemid=49,+49 30 333 30 02,Mo-Th 12:00-20:00; Fr 12:00-22:00,,
Taverna Teloneio,restaurant,greek,"Möllentordamm 1, 13597 Berlin",52.5399218,13.207419,,,Mo-Su 12:00-23:00; Jan 01 14:00-21:00; Dec 31 12:00-18:00,yes,limited
Weisser Elefant,restaurant,,"Wegenerstraße 1, 10713 Berlin",52.4895627,13.3191979,https://www.weisser-elefant.de/,+493039896060,Mo-Fr 11:00-17:00,,limited
Garcon,restaurant,french,"Fechnerstraße 30, 10717 Berlin",52.4894921,13.3196727,,,10:00-01:00,,yes
Frederick‘s,restaurant,,,52.5098082,13.3743411,https://fredericksberlin.com,,"Mo-Th 12:00-14:30,18:00-01:00, Fr 12:00-14:30,18:00-01:30, Sa 11:00-14:30,18:00-01:30",,no
Lindenbräu,restaurant,german,"Bellevuestraße 3-5, 10785 Berlin",52.5102921,13.3726675,,,"Su-Th 11:30-01:30, Fr-Sa 11:30-02:30",,yes
Dittmanns Drogerie,restaurant,german,,52.4029635,13.5856652,,,,,yes
Schönbrunn,restaurant,,"1, 10249 Berlin",52.528035,13.4339677,,,"Apr-Sep Mo-Fr 12:00-22:00; Apr-Sep Sa,Su,PH 10:00-22:00",,limited
Tropica Grillhaus,restaurant,,"Frankfurter Allee 73, 10247 Berlin",52.5152058,13.4687505,,,Mo-Su 11:00-22:00,,
Ristorante a Mano,restaurant,italian,"Strausberger Platz 2, 10243 Berlin",52.5193726,13.4275085,https://www.amano-ristorante.de/,+49 30 95598243,Mo-Su 12:00-23:00,,limited
Hangmee,restaurant,asian,"Boxhagener Straße 108, 10245 Berlin",52.5129554,13.4576396,,+493082717447,12:00-24:00,,yes
Gaststätte zur S-Bahn,restaurant,german,"Heinrich-Grüber-Straße 1, 12621 Berlin",52.5124404,13.5878692,https://www.zur-s-bahn.de/,+49 30 5627003,"Mo-Su,PH 12:00-22:00; Jan-Mar Mo off",yes,no
Gasthof zum Oberfeld,restaurant,regional,"Zanderstraße 27, 12621 Berlin",52.5157169,13.5935903,,,"Mo-Su,PH 12:00-22:00",,no
Pizza Pasta Gatow,restaurant,pizza,,52.5114588,13.1813993,,,"PH,Mo-Su 11:00-23:00",,yes
La Posta Trattoria,restaurant,,"Weinmeisterhornweg 42, 13595 Berlin",52.5093453,13.1811526,,,,,yes
Die Henne - Alt-Berliner Wirtshaus,restaurant,chicken,Leuschnerdamm 25,52.504153,13.4177503,https://www.henne-berlin.de,+49306147730,Tu-Su 17:00-24:00,,limited
Immertreu,bar,,"Christburger Straße 6, 10405 Berlin",52.5363657,13.425073,,,Mo-Sa 20:00-24:00+,,no
Hoa Rong,restaurant,vietnamese,Georgenstraße 25,52.5197141,13.3877509,https://www.hoa-rong.com/,+493043666683,Mo-Fr 11:30-23:00; Sa 13:00-23:00,,yes
Machiavelli,restaurant,international,"Clayallee 1, 14195 Berlin",52.4747998,13.2781793,,+49 3053157176,,,limited
Andaz,restaurant,indian,,52.5993861,13.3011493,https://andazberlin.de/,,https://andazberlin.de/,,limited
Sida,restaurant,thai,"Ahornstraße 32, 12163 Berlin",52.4605144,13.3231312,https://www.sidathai.de,+49 30 7923670,Mo-Su 12:00-22:00,,no
Café Meta,cafe,german,"Am Falkplatz 1, 10437 Berlin",52.545836,13.4061087,https://www.restaurant-meta.de/,,Mo-Fr 16:00-24:00; Sa-Su 12:00-24:00,,limited
Kuno 15,cafe,coffee_shop;ice_cream,"Kuno-Fischer-Straße 15, 14057 Berlin",52.5038988,13.2909804,,+49 179 2369063,Mo-Fr 09:00-20:00; Sa-Su 10:00-20:00,yes,limited
Eiffel,restaurant,french;mediterranean,"Kurfürstendamm 105, 10711 Berlin",52.4979888,13.2944721,,,Mo-Su 09:00-23:00,,yes
Xantener Eck,restaurant,german,"Xantener Straße 1, 10707 Berlin",52.4988221,13.3076456,,,,,limited
Casa di Maria,restaurant,italian,"Uhlandstraße 149, 10719 Berlin",52.4968112,13.3244465,,,Mo-Sa 12:00-23:00,,no
Tiger Karaoke,bar,,Müllerstraße 6,52.5414032,13.3684921,,,,,no
Shaan,restaurant,indian,"Richardplatz 20, 12055 Berlin",52.4739548,13.4468535,https://shaan-berlin.de/#!/bilder-neukoelln/,+49 30 68089382,Mo-Su 12:00-18:00+,yes,no
Restaurant Louis,restaurant,austrian,"Richardplatz 5, 12055 Berlin",52.4743381,13.4452803,https://cafe-restaurant-louis.de/,+49 30 6810210,"We-Su 11:30-23:00; Mo, Tu 12:15-23:00",,limited
Da Ponte,restaurant,pizza;italian,"Helgoländer Ufer 7, 10557 Berlin",52.5220908,13.3488231,https://daponte-berlin.de/,,Tu-Su 16:00-23:00,,yes
Trattoria Fidelia,restaurant,italian;pizza,"Lüneburger Straße 390, 10557 Berlin",52.5194762,13.3556992,https://pages.resmio.com/trattoria-fidelia/en,+493039809451,"Mo-Sa 11:30-23:00, Su 12:00-23:00",,no
Zollpackhof,restaurant,german,"Elisabeth-Abegg-Straße 1, 10557 Berlin",52.5212821,13.3668503,https://zollpackhof.de/,,Mo-Su 11:00-00:00,,yes
Schleusenkrug,restaurant,german,"Müller-Breslau-Straße 1, 10623 Berlin",52.5112754,13.335988,,,Mo-Su 11:00-23:00,,yes
Bistro in der Akademie der Künste,cafe,,"Hanseatenweg 10, 10557 Berlin",52.5183945,13.3464153,,,,,yes
Britzer Mühle,restaurant,,"Buckower Damm 130, 12349 Berlin",52.4322035,13.4346212,,,Mo-Su 09:00-23:00,,no
Schloss Britz,restaurant,,"Alt-Britz 73, 12359 Berlin",52.4468121,13.4377895,,,We-Sa 11:30-22:00; Su 11:00-20:00,,limited
Rüya Gemüse Kebab,restaurant,kebab,10585 Berlin,52.5137921,13.3170309,,,Mo-Sa 11:00-21:00,yes,limited
Totto Land,cafe,asian,"Potsdamer Chaussee 80, 14129 Berlin",52.4272121,13.2172579,https://www.tottoland.de,+49 30 689 003 05,Mo-Fr 10:00-20:00; Sa 09:00-18:00,,
Patatas,restaurant,mexican,,52.4262934,13.2092834,https://patatasrestaurant.de,,Tu-Fr 16:00-22:00; Sa-Su 12:00-22:00,,no
Restaurant Angkor Wat,restaurant,,"Paulstraße 22, 10557 Berlin",52.5201925,13.3558888,https://www.angkorwatrestaurant.de/,+49303933922,"Tu-Fr 18:00-23:00, Sa,Su,PH 12:00-23:00; Mo off",,limited
mokka & juice house,cafe,,,52.4882026,13.3609478,,,,,
Aspendos,restaurant,turkish,"Hauptstraße 11, 10827 Berlin",52.4883451,13.3580098,,,,,yes
Wirtshaus Zur Pfaueninsel,restaurant,,"Pfaueninselchaussee 100, 14109 Berlin",52.4283069,13.1223345,https://www.pfaueninsel.de/,+49 30 8052225,We-Su 12:00-18:00,,limited
Trattoria Piazza Siciliana,restaurant,italian,"Lindenthaler Allee 46, 14163 Berlin",52.4303789,13.2306024,http://www.trattoria-piazza-siciliana.de,+49-30-23944046,"Mo-Sa 17:00-24:00, Su,PH 12:00-24:00",yes,yes
eßkultur,cafe,,"Lansstraße 8, 14195 Berlin",52.456348,13.2925424,,,Mo-Fr 9:00-16:00,,yes
Kante,restaurant,,"Skalitzer Straße 64, 10997 Berlin",52.5001321,13.4387908,,,Mo-Su 18:00-00:00,,no
Bizim Kiez,cafe,,,52.4980559,13.4435002,https://www.bizim-kiez.de/,,,,limited
Restaurant Freischwimmer,restaurant,,"Vor dem Schlesischen Tor 2, 10997 Berlin",52.4973483,13.4507972,,,Mo-Fr 12:00+; Sa-Su 15:00+,,no
cielo di berlino,restaurant,italian,"Monumentenstraße 31, 10829 Berlin",52.4881781,13.370321,http://cielo-di-berlino.de,+49-30-78 00 17 38,"Tu-Fr 13:00-24:00; Mo,Sa 16:00-24:00; Su 14:00-23:00",,limited
Café Nostalgie,bar,,"Crellestraße 22, 10827 Berlin",52.4882652,13.361927,,,,,no
Espresso House,cafe,coffee_shop,"Friedrichstraße 125, 10117 Berlin",52.525912,13.3869997,https://de.espressohouse.com/find-us/b-friedrichstrase,+493027582577,"Mo-Fr 07:30-20:00; Sa,Su 08:30-20:00",yes,no
Doree 65,restaurant,pizza;steak,"Torfstraße 9, 13353 Berlin",52.5400018,13.3527311,https://www.doree-berlin.de,+49 30 91546566,Mo-Su 12:00-24:00,,limited
Bardolino,restaurant,italian,"Wedellstraße 31, 12249 Berlin",52.4339798,13.3592072,https://bardolino-online.de/,+49307751014,"Tu-Fr 16:00-22:00+, Sa,Su,PH 12:00-22:00+",,limited
Restaurant Rhodos,restaurant,greek,"Richterstraße 9, 12526 Berlin",52.4113317,13.5730007,https://www.rhodos-berlin.de/,+49 30 67689577,"Su-Th,PH 12:00-23:00, Fr,Sa 12:00-24:00",,no
Schloss Neuschweinsteiger,bar,,"Emser Straße 122, 12051 Berlin",52.4689788,13.4354663,https://www.schloss-neuschweinsteiger.de/,,19:00-03:00,,no
Schön 14,restaurant,,"Schöneberger Straße 14, 12163 Berlin",52.4645273,13.3298271,https://schoen14.de/,,Mo-Su 10:00-23:00,,limited
Alter Krug,restaurant,german,"Königin-Luise-Straße 52, 14195 Berlin",52.4578483,13.2882349,,,Mo-Sa 11:00-23:00; Su 10:00-23:00,,yes
Mario,restaurant,italian,"Südwestkorso 10, 12161 Berlin",52.4750769,13.3234069,,,Mo-Su 12:00-24:00,,no
Kiez-Bäckerei,cafe,turkish;italian;regional;pastry,"Sonnenallee 293, 12057 Berlin",52.4686515,13.4677356,,,,,
Schneeweiß,restaurant,austrian,"Simplonstraße 16, 10245 Berlin",52.5086453,13.4582032,https://www.schneeweiss-berlin.de/,,Mo-Sa 17:00-24:00,,no
Uebereck,cafe,regional,"Sonntagstraße 31, 10245 Berlin",52.5054349,13.4663979,,,09:30-02:00,,limited
Alte Turnhalle Berlin,restaurant,international,"Holteistraße 6-9, 10245 Berlin",52.5071989,13.4652987,https://www.dieturnhalle.de/,+49 30 29364816,"May-Sep: Su-Th 10:00-00:00, Fr-Sa 09:00-01:00; Oct-Apr: Sa-Su 10:00-15:00; PH 10:00-15:00",,yes
Vereinszimmer,restaurant,italian,,52.4900001,13.3825068,,,"Mo-Fr 08:00-20:00; Sa,Su 09:00-20:00",,yes
Osteria Nº 1,restaurant,italian,"Kreuzbergstraße 71, 10965 Berlin",52.489775,13.3832177,,,,,limited
Barcomi's Café & Kaffeerösterei,cafe,coffee_shop,"Bergmannstraße 21, 10961 Berlin",52.4890118,13.3935082,https://www.barcomis.de/,,"Mo-Th 10:00-18:00; Fr-Su,PH 10:00-19:00; Dec 24 ""bis 16:00""; Dec 25-26 off; Dec 31 ""bis 18:00""; Jan 01 ""ab 11:00""",,no
Pagode,restaurant,asian,,52.4893112,13.3933939,https://pagode-thaifood.de/,+49 30 69001374,Mo-Su 12:00-23:00,,no
Bootshaus,restaurant,,"Verlängerte Uferpromenade 21, 14089 Berlin",52.4586339,13.1126606,,+49 30 25561644,"We-Sa 15:00-24:00+, Su 12:00-24:00+",,yes
Milchgesicht,cafe,,"Mainzer Straße 1, 10247 Berlin",52.5146574,13.4630543,,,Mo-Su 06:00-18:00,,yes
Chai Ji,restaurant,indian,"Rigaer Straße 30, 10247 Berlin",52.516543,13.4635392,,,Su-Th 12:00-23:00; Fr-Sa 12:00-24:00,,no
Jōnetsu,restaurant,japanese,"Mainzer Straße 10, 10247 Berlin",52.5131538,13.4620486,,,,,
Eatalian,restaurant,italian,"Mainzer Straße 14, 10247 Berlin",52.5122684,13.4614486,,+49 30 39480414,"Su-Th 11:30-24:00, Fr,Sa 11:30-02:00",,no
Keyif,bar,,,52.5120463,13.4613169,,,,,no
Aashish,restaurant,indian,"Niederbarnimstraße 27, 10247 Berlin",52.5149418,13.46027,,,Mo-Su 12:00-23:00,,yes
mausi.,restaurant,,"Richardplatz 1, 12055 Berlin",52.474763,13.4469517,,,,,
Restaurant Villa Rixdorf,restaurant,,"Richardplatz 6, 12055 Berlin",52.4742277,13.4447503,http://www.villa-rixdorf.com,+49 30 68086000,Mo-Su 11:00-01:00,,no
Gambrinus,restaurant,german,"Linienstraße 133, 10115 Berlin",52.5264453,13.3879477,,,,,no
Sahoi,restaurant,sushi,Linienstraße 134,52.5264338,13.3877486,https://www.sahoi.club/,,Mo-Fr 12:00-23:00; Sa-Su 18:00-23:00,,
Amrit,restaurant,indian,"Oranienburger Straße 45, 10117 Berlin",52.5259421,13.3896272,https://www.amrit.de/,+49 30 28884840,"Su-Th 11:30-24:00,Fr-Sa 11:30-01:00; PH off",,no
Uferlos,restaurant,italian,"Uferstraße 13, 13357 Berlin",52.5506079,13.3733546,https://restaurantuferlos.de/,,Tu-Sa 18:00-24:00,,yes
Mensa FU Lankwitz Malteserstraße,restaurant,,"Malteserstraße 74, 12249 Berlin",52.425496,13.3573392,https://www.stw.berlin/mensen/mensa-fu-lankwitz-malteserstraße.html,,Mo-Fr 08:00-14:30,,yes
Homey,restaurant,vietnamese;thai;sushi,"Müllerstraße 70, 13349 Berlin",52.5569578,13.3409564,,,Mo-Su 12:00-22:00,,
Scorpion,restaurant,thai,,52.528823,13.342903,,,,,yes
Konditorei & Eiscafé Engel,cafe,,"Marzahner Promenade 55, 12679 Berlin",52.5467698,13.5567171,https://www.konditorei-engel.de/,+493098639611,Mo-Sa 09:30-18:30; Su 11:00-17:30,,yes
Cafe Finovo,cafe,german,"Großgörschenstraße 12-14, 10829 Berlin",52.4910478,13.3675144,http://www.cafe-finovo.de/,030 20615520,We-Su 10:00+; Tu 12:00+,,yes
Tandoori,restaurant,,"Bizetstraße 121, 13088 Berlin",52.5498822,13.4626939,http://www.tandoori-berlin.de/,+493096064850,Mo-Su 12:00-23:00,,limited
Il Castello,restaurant,italian,"Karower Straße 1, 13125 Berlin",52.6350391,13.4995197,https://www.il-castello-berlin.de/,+49 30 9413740,"Mo-Sa 12:00-24:00, Su 12:00-23:00",,no
Fräulein Kimchi,restaurant,,"Gürtelstraße 10, 13088 Berlin",52.5453918,13.4524178,,,,,
Plus Minus Null,restaurant,,"Grünberger Straße 61, 10245 Berlin",52.511776,13.4575389,https://plusminusnull-berlin.de/,+49 30 21239624,Mo-Su 09:00-23:00+,,yes
Habana,restaurant,,"Grünberger Straße 57, 10245 Berlin",52.5118836,13.4567958,https://www.habana.berlin/,,,,yes
Gold 79,restaurant,vietnamese,"Frankfurter Allee 97, 10247 Berlin",52.5141004,13.4730329,,,,,
Hannibal,restaurant,italian,"Gärtnerstraße 29a, 10245 Berlin",52.5091398,13.4598832,,,"Su-Th 09:00-02:00, Fr,Sa 09:00-04:00",,yes
il Ritrovo,restaurant,italian;pizza,"Gabriel-Max-Straße 2, 10245 Berlin",52.5095667,13.4580847,,,Mo-Su 12:00-21:00,,no
Caramello,cafe,ice_cream;coffee_shop,"Wühlischstraße 31, 10245 Berlin",52.5097761,13.457186,,,Su-Th 11:00-22:00; Fr-Sa 11:00-01:00,,no
Himmelreich,bar,,"Simon-Dach-Straße 36, 10245 Berlin",52.5102582,13.4566212,,,,,yes
Intimes,cafe,,"Boxhagener Straße 107, 10245 Berlin",52.5128318,13.4582338,,,10:00+,,yes
Lemongrass,restaurant,asian,"Simon-Dach-Straße 2, 10245 Berlin",52.5124786,13.4571679,,,"Mo-Su,PH 12:00-23:00",,yes
TAT,restaurant,asian,"Niederbarnimstr. 17, 10247 Berlin",52.5133893,13.4586453,https://tat-berlin.de,+493029009920,Mo-Su 11:30-23:00,,yes
Ysy,bar,,,52.5158118,13.4591706,,,,,
Meet Saigon,restaurant,vietnamese,"Frankfurter Allee 21, 10247 Berlin",52.5158783,13.458543,,,,,yes
Café Tasso,cafe,,,52.5160258,13.4570212,https://www.cafe-tasso.de/,,Mo-Sa 10:00-19:00,,yes
Lauschangriff,bar,,,52.5182491,13.4553049,,,,,
Seth,restaurant,pakistani;indian,"Proskauer Straße 29, 10247 Berlin",52.5172556,13.4608879,,,Sa-Th 12:00-23:00+; Fr 15:30-23:00+,,no
Koy,restaurant,thai,"Rigaer Straße 26, 10247 Berlin",52.5168019,13.4621382,https://koy-restaurant.de,+49 30 40043988,Mo-Su 11:30-23:00,yes,yes
Brunchella,cafe,,,52.5166158,13.4631774,,,"Mo-Fr 09:00-17:00; Sa,Su 09:30-17:00",,
Anastasia,restaurant,russian,"Schreinerstraße 51, 10247 Berlin",52.5174079,13.4658508,http://www.restaurant-anastasia.de,,"Mo-Su,PH 12:00+",,yes
Papaleo,restaurant,italian,"Bänschstraße 67, 10247 Berlin",52.517967,13.467624,,,Tu-Sa 16:00-23:00; Su 16:00-22:30,yes,no
Asahi Sushi,restaurant,sushi;vietnamese,10247 Berlin,52.5153424,13.471852,,,"Mo-Fr 11:00-23:00, Sa,Su 13:00-23:00",,limited
Yogi Haus,restaurant,indian,"Rigaer Straße 52, 10247 Berlin",52.5151203,13.4716078,https://yogihaus.de/,+49 176 41904779,"PH,Mo-Su 12:00-24:00",,limited
Shanghai,restaurant,chinese,"Weichselstraße 36, 10247 Berlin",52.5138719,13.4709298,,,Mo-Su 12:00-22:30,,no
Stara Kuća,restaurant,,"Alt-Pichelsdorf 30-32, 13595 Berlin",52.5119508,13.1979481,http://www.stara-kuca.de,+49 30 36432887,Tu-Su 13:00-20:00,,no
Lagunen-Eck,restaurant,,,52.4318874,13.7133375,,,,,
Restaurant Athos,restaurant,greek,"Gudrunstraße 5A, 10365 Berlin",52.5129887,13.5012738,,+49 30 86388169,"Tu-Su,PH 11:30-23:00",yes,no
Kurhaus Korsakow,restaurant,,"Grünberger Straße 81, 10245 Berlin",52.5112327,13.4608889,,,"Mo-Fr 17:00+, Sa-Su,PH 09:00+",,limited
Zeitgeist,bar,,"Gärtnerstraße 15, 10245 Berlin",52.5111838,13.4613046,,,,,
Trattoria Cinque,restaurant,italian,,52.5113289,13.4585625,,,Mo-Su 12:00-23:00,,
Euphoria,restaurant,,"Grünberger Straße 60, 10245 Berlin",52.5116145,13.4567297,,+49 30 29004683,Mo-Su 09:00+,,yes
li.ke,restaurant,thai,"Grünberger Straße 69, 10245 Berlin",52.5115943,13.4586892,https://www.likethaivegan.de,+49 30 29009428,Mo-Su 12:00-22:00,,yes
Aklé,restaurant,,"Kopernikusstraße 22, 10245 Berlin",52.5103281,13.4545378,,,Mo-Su 11:30-24:00,,no
Zeus Pizza & Pide,restaurant,turkish;italian;pizza,"Boxhagener Straße 30, 10245 Berlin",52.5124065,13.459095,https://www.zeuspizzeria.de/,+49 30 29009100,Mo-Sa 15:30-23:00; Su 14:00-23:00,,yes
Ristorante Da Toni,restaurant,italian,"Pariser Straße 18a, 10707 Berlin",52.4982635,13.3190018,,,,,no
Hasir,restaurant,turkish,,52.5382994,13.2067559,,,"PH,Mo-Su 10:00-24:00",,limited
Aroma,restaurant,chinese,"Kantstraße 35, 10625 Berlin",52.5063437,13.3155769,https://www.aroma-kantstrasse.de/,+443037591628,Th-Tu 14:00-02:00,,yes
Tapas Bar,restaurant,spanish,"Grolmanstraße 52, 10623 Berlin",52.507193,13.3216137,,,"Mo-Th 16:00-01:00, Fr-Sa 16:00-02:00, Su 11:00-01:00",,no
Café Lutetia,cafe,,"Jüdenstraße 10, 13597 Berlin",52.5370841,13.2019954,,,"Mo off; Tu-Th,Su 10:00 - 00:00; Fr,Sa 10:00 - 2:00",,limited
Charlotte,bar,,"Charlottenstraße 14a, 13597 Berlin",52.5372124,13.2022687,http://www.cbb-charlotte.de,+49 30 3331000,,,limited
Lalibela,restaurant,,,52.4953274,13.4303555,,,Mo-Su 14:00-22:00+,,
Cocochu,restaurant,vietnamese,"Paul-Lincke-Ufer 23, 10999 Berlin",52.4940969,13.4286005,,,Mo-Su 11:30-23:30,,yes
Olivio,restaurant,italian,Schönleinstraße 29,52.4919428,13.4211845,,+493061101695,"Mo-Fr 12:00-22:00, Su 12:00-22:00",yes,no
La La,restaurant,,"Dieffenbachstraße 11, 10967 Berlin",52.4929941,13.4143954,,,,,
Melissa,restaurant,kebab,"Corinthstraße 58, 10245 Berlin",52.4989849,13.4642845,,,"Mo-Su,PH 08:00-02:00",,no
Das kleine Eiswerk,cafe,ice_cream,"Hultschiner Damm 76, 12623 Berlin",52.4820047,13.6015579,https://www.kleines-eiswerk.de/,+49 1520 7001419,"Mo-Su,PH 12:00-18:00",,no
Athena Roma,restaurant,,"Jenny-Lind-Straße 7, 13189 Berlin",52.5609827,13.4237284,https://www.athena-roma.de/,+49 30 40 10 68 40,Mo-Su 12:00-23:00,,limited
Chay Long,restaurant,asian,"Graefestraße 20, 10967 Berlin",52.4925901,13.4171934,,,,,
Pars,cafe,,"Grolmanstraße 53, 10623 Berlin",52.5074506,13.3213947,https://www.pars.berlin/,+49 30 44708386,We-Sa 18:30-23:00,,limited
Gaststätte G7,restaurant,german,"Gatower Straße 7, 13595 Berlin",52.5203123,13.1877687,,,,,no
Trattoria Da Pia,restaurant,italian,"Naugarder Straße 45 II, 10409 Berlin",52.542687,13.4382723,https://www.trattoria-da-pia.de,,,,yes
booze bar berlin,bar,,"Boxhagener Straße 105, 10245 Berlin",52.5127422,13.458706,,,Su-Th 19:00-02:00; Fr-Sa 19:00-04:00,,limited
The Hummus Club,restaurant,falafel;lebanese,"Boxhagener Straße 29, 10245 Berlin",52.5124653,13.4588561,,,,,yes
Burger Jam,restaurant,sausage,"Boxhagener Straße 29, 10245 Berlin",52.5124787,13.4587818,,,Mo-Su 12:30-18:00+,,limited
Zoena,cafe,austrian,Berlin,52.4978961,13.3230488,,,Mo-Su 10:00-20:00,,limited
Sweet2go,cafe,ice_cream;cake,"Pfalzburger Straße 79, 10719 Berlin",52.4979575,13.3228653,https://sweet-2-go.com/,+49 30 530 51 519,Mo-Su 10:00-18:00,,yes
Asiana Village,restaurant,asian,,52.5953151,13.3353055,,,Tu-Th 12:00-21:00; Fr-Sa 12:00-22:00; Su 12:00-21:00,,yes
Müggelsee-Terrassen Rübezahl,restaurant,,,52.4268637,13.6290994,,,May-Sep: We-Su 11:30-21:00; Oct-Apr: We-Su 12:00-19:30,,yes
Pascarella,restaurant,italian,"Schlüterstraße 69, 10625 Berlin",52.5076989,13.3180576,,,12:00-24:00,,yes
George's Steakhouse,restaurant,steak_house,,52.4977937,13.3246353,,,"PH,Mo-Su 11:30-23:59",,
Berlin Burrito Company,restaurant,mexican,"Kantstraße 51, 10625 Berlin",52.506665,13.3098529,https://www.berlin-burrito-company.de/,030 55 60 80 87,"Mo-Th,Su 12:00-22:00; Fr-Sa 12:00-23:00",,limited
Quasimodo,bar,,"Kantstraße 12A, 10623 Berlin",52.5059347,13.3283712,,,,,no
Da Mingiu,restaurant,italian,,52.5924426,13.3263936,,,"PH,Mo-Su 12:00-23:00",,yes
Jäger & Lustig,restaurant,regional,"Grünberger Straße 1, 10243 Berlin",52.5134101,13.4480647,,,Mo-Su 12:00-00:00,,yes
Plancha II,restaurant,,,52.5417561,13.1993753,,+49 30 35304415,,,no
Schützen-Wirtin,restaurant,regional,,52.4147548,13.1769686,,,"We-Fr 12:00-18:00; Sa 10:00-18:00; Su 12:00-18:00; Mo,Tu off",,
Sommercafé Kladow,cafe,coffee_shop;cake;regional,"Lüdickeweg 1, 14089 Berlin",52.4445732,13.1306758,,,"Apr Fr[1]-Oct Su[1] PH,Fr-Su 10:00-18:00",,yes
QBA,restaurant,cuban,"Oranienburger Straße 45, 10117 Berlin",52.5259949,13.3894424,http://www.qba-restaurant.de/,,"Mo-Th 16:00-00:00, Fr,Sa 16:00-03:00, Su 16:00-24:00",,no
The Coffee Shop,cafe,coffee_shop,"Werderscher Markt 1, 10117 Berlin",52.5152592,13.3983179,,,Mo–Fr 08:00-17:00,,yes
Café im Alten Museum,cafe,,,52.5191167,13.3985266,,,"PH,Tu-Su 10:00-18:00",,limited
Il Casolare,restaurant,italian;pizza,"Grimmstraße 30, 10967 Berlin",52.4949133,13.4155131,,,"17:00-24:00, Su 12:00-24:00",,limited
Bar im Wasserturm,bar,,"Waldowstraße 20, 13053 Berlin",52.547659,13.4887104,,,,,
Tales Untold,cafe,,"Am Comeniusplatz 1, 10243 Berlin",52.5123446,13.4479958,https://talesuntold.de/,,Di-Su 10:00-23:00,,yes
Tudo,cafe,bubble_tea,,52.5213767,13.4096608,https://tudo.berlin/,03027592932,Mo 11:00-21:00; Tu-Su 11:00-22:00,,yes
Kiez Kaffee Kraft,cafe,coffee_shop,"Schivelbeiner Straße 23, 10439 Berlin",52.5511873,13.4040715,https://www.kiezkaffeekraft.de/,,08:30-18:00,yes,limited
Rossini III,restaurant,german;italian;mexican,"Hultschiner Damm 238, 12623 Berlin",52.4955607,13.6113563,,+49305675283,,,limited
Marjan Grill,restaurant,croatian,"Bartningallee , 10557 Berlin",52.5200654,13.3469194,,,"We,Th,Su,Mo 12:00-23:00, Fr,Sa 12:00-24:00",,yes
Overcomer Bubble Tea,cafe,,,52.4513354,13.2825941,,,Mo-Sa 11:00-19:00,,
Billardsalon Köh,bar,,"Sophienstraße 6, 10178 Berlin",52.5252025,13.4018544,,,"Mo-Sa 17:00+, Su 16:00+",,yes
Fourty Years,restaurant,,"Dieffenbachstraße 52, 10967 Berlin",52.4923209,13.4182784,,,,,
Schönes Café,cafe,,"Dieffenbachstraße 54, 10967 Berlin",52.4923642,13.418062,http://www.schoenescafe.de,+49 30 91442410,Mo-Fr 11:00-16:00,,no
datscha,restaurant,russian,"Graefestraße 83, 10967 Berlin",52.4938768,13.4186675,,,"Mo-Su,PH 10:00-01:00",,no
Narr-Bar,cafe,,"Böckhstraße 24, 10967 Berlin",52.4931596,13.4203993,,,,,no
Bahar Restaurant,restaurant,afghan;persian,"Hauptstraße 112, 10827 Berlin",52.4814663,13.3483784,https://bahar-berlin.de/,,Mo-Th 11:00-23:00; Fr-Su 11:00-24:00,,no
Ristorante Pantalone,restaurant,italian,,52.6331209,13.2886358,,,12:00-24:00,yes,no
Ristorante Da Guiliano,restaurant,italian,"Berliner Straße 92, 13507 Berlin",52.5881097,13.2855979,,,,,no
"Hax`nhaus
Tegernseer Tönnchen",restaurant,german,"Alt-Tegel 2, 13507 Berlin",52.5897918,13.2822617,https://www.haxnhaus-tegel.de/,+49 30 4339034,"PH,Mo-Su 11:30-23:00",,no
Restorante Pescara,restaurant,italian,"Falkenhagener Straße 1, 13585 Berlin",52.5442796,13.2040241,https://www.ristorante-pescara.de/,+49 30 3354081,"Mo-Fr 17:00-24:00; Sa, Su 12:00-24:00",,no
Omonia Treff,restaurant,greek,"Schönwalder Straße 111, 13585 Berlin",52.544422,13.2043698,,+49 30 3361621,Mo-Su 14:00-22:00,,limited
Yes Haus,restaurant,thai,"Berliner Straße 109, 13467 Berlin",52.6196845,13.3134918,,,Tu-Su 12:00-22:00,yes,limited
Zum Kühlen Grunde,restaurant,,"Lotosweg 88, 13467 Berlin",52.6178576,13.3270593,,+493040584815,,,
Gasthof Alter Dorfkrug Lübars,restaurant,,"Alt-Lübars 8, 13469 Berlin",52.6201531,13.3563271,http://www.gasthof-alter-dorfkrug.de,+49 30 92210230,We-Su 12:00-22:00,,yes
Graffiti,restaurant,international;ice_cream,"Kurfürstendamm 69, 10707 Berlin",52.5003573,13.3075025,,,,,limited
Café Bilderbuch,cafe,breakfast;coffee_shop,"Akazienstraße 28, 10823 Berlin",52.4866549,13.3551643,,,Mo-Sa 09:00-00:00; Su 10:00-00:00,,limited
Sotto,restaurant,italian;noodles;pizza,"Neue Hochstraße 25, 13347 Berlin",52.5428561,13.3764121,,+49 3074783419,We-Su 17:00-22:00,yes,limited
Julius,restaurant,coffee_shop,"Gerichtstraße 31, 13347 Berlin",52.544969,13.3682112,https://juliusberlin.de/,,"We 19:00-23:00; Th-Su 10:00-17:00, 19:00-23:00",,yes
Rocco,restaurant,international,"Kaiserdamm 109, 14057 Berlin",52.5103534,13.291892,,,09:00-24:00,,yes
Metropol,cafe,,,52.5254302,13.4455523,,,,,
Il Giardino,restaurant,italian,"Hackerstraße 3, 12161 Berlin",52.4666443,13.3249631,https://il-giardino-berlin.com,+49 30 98430257,"Mo-Su,PH 12:00-00:00",,no
Ristorante Italiano,restaurant,italian,"Landsberger Allee 101, 10407 Berlin",52.5278248,13.4517323,https://italiano-ristorante.de/,+49-30-423 4236,Mo-Su 11:30-24:00,,
Viet Bowl,restaurant,vietnamese,"Straßmannstraße 41, 10249 Berlin",52.5232113,13.4533349,,,Mo-Su 11:30-23:00,,no
Ja Dilo,cafe,cake,"Petersburger Straße 45, 10249 Berlin",52.5223054,13.4509232,,,,,no
Lemongrass,restaurant,asian,"Anklamer Straße 38, 10115 Berlin",52.5352762,13.3993689,,,Mo-Su 12:00-23:00,yes,limited
caffe e cioccolata,cafe,,"Anklamer Straße 41, 10115 Berlin",52.5351623,13.3986537,,,Mo-Fr 09:37-17:54; Sa 10:28-15:20,,no
La Lúcuma,cafe,,"Granseer Straße 8, 10435 Berlin",52.536814,13.402935,,,Tu-Fr 14:30-24:00; Sa 13:00-23:00; Su 15:00-21:00,,no
Cup Arkona,cafe,,"Arkonaplatz 10, 10435 Berlin",52.5373544,13.4007116,http://www.cup-arkona.de/,,"Mo-Fr 08:00-19:30; Sa-Su,PH 09:00-19:30",yes,limited
Restaurant Meteora,restaurant,greek,"Jacobsohnstraße 23, 13086 Berlin",52.5557801,13.4342268,,,,,limited
Lakeside,restaurant,german,"Wilkestraße 1, 13507 Berlin",52.5884273,13.2747189,,,Mo-Su 12:00+,,limited
Cafe Fräulein Dietrich,cafe,,"Fürstenberger Straße 14, 10435 Berlin",52.5373736,13.4040229,,+49 176 34538424,Tu-Su 09:00-18:00,yes,limited
Fedora,cafe,ice_cream,"Müllerstraße 28, 13353 Berlin",52.5472409,13.3580798,,,Mo-Th 15:00-22:00; Fr 15:00-23:00; Sa 13:00-23:00; Su 13:00-22:30,,yes
Krua Thai,restaurant,thai,"Luxemburger Straße 4, 13353 Berlin",52.5458705,13.3578292,,,Mo-Fr 12:00-23:00; Su 15:00-23:00,,limited
Machiavelli,restaurant,italian,"Albrechtstraße 13, 10117 Berlin",52.5213052,13.385266,,,10:00-01:00,,limited
BLOCK HOUSE,restaurant,steak_house,"Karl-Marx-Allee 91, 10243 Berlin",52.5177087,13.440444,https://www.block-house.de/,,"Su-Th 12:00-22:00; Fr,Sa 12:00-23:00",,limited
Gerdan's Café,cafe,regional,"Rudower Chaussee 26, 12489 Berlin",52.4310052,13.5319872,,,Mo-Fr 09:00-15:00,,yes
Green Curve,restaurant,regional,"Volmerstraße 9, 12489 Berlin",52.4296331,13.5374711,https://vecu-berlin.com/green-curve-berlin,+4915170828695,Mo-Fr 8:80-14:80,,yes
Nawab,restaurant,indian,"Mühsamstraße 54, 10249 Berlin",52.5201134,13.449987,,,Mo-Su 12:00-23:00,,yes
Pomodorino,restaurant,pizza;italian,"Straßmannstraße 21, 10249 Berlin",52.5222924,13.4497069,https://www.pomodorino.de,+49 30 60930449,Mo-Su 13:00-24:00,yes,no
Hee Lam Mun,restaurant,chinese,,52.4599593,13.3121913,http://www.heelammun.de/,,"Tu-Su,PH 12:00-23:00; Mo off",,no
Viale dei Tigli,restaurant,italian,"Wilhelmstraße 75, 10117 Berlin",52.5148686,13.3811135,,,Mo-Su 12:00-24:00,,limited
Deck 5,bar,,Greifenhagener Straße 47,52.5493859,13.4164647,http://www.freiluftrebellen.de/en/,,,,no
Ristorante Avellino,restaurant,italian,"Grunowstraße 21, 13187 Berlin",52.5689318,13.4089817,https://ristorante-avellino.de,+49 30 505 669 80,Mo-Su 12:00-23:00,,yes
Espresso House,cafe,coffee_shop,"Schönhauser Allee 116, 10439 Berlin",52.5498572,13.4132889,https://de.espressohouse.com/find-us/schonhauser-allee,,Mo-Fr 06:30-21:00; Sa-Su 07:30-21:00,yes,yes
Erdton Zen,restaurant,,"Friedrichsberger Straße 39 / 1, 10249 Berlin",52.5217,13.4352292,,,Mo-Fr 11:00-22:00; Sa 12:00-22:00; Su 10:00-22:00,,no
Qadmous,restaurant,oriental;lebanese;arabic,"Am Friedrichshain 1, 10407 Berlin",52.5296371,13.4363335,https://www.qadmous.de/,+49 30 4246255,"Mo-Th 12:00-24:00, Fr-Sa 12:00-01:00, Su 11:00-24:00",,no
Lang Van II,restaurant,,"Karl-Marx-Allee 108, 10243 Berlin",52.5163455,13.4455639,,,"Mo-Fr 10:00-22:00; Sa,Su 11:00-22:00; PH 12:00-22:00",,
Nauta,restaurant,peruvian;japanese;nikkei,"Kastanienallee 49, 10119 Berlin",52.534207,13.405011,http://nautaberlin.com/,,We-Sa 19:30-00:00 off,,no
Aapka,restaurant,indian,"Kastanienallee 50, 10119 Berlin",52.5339909,13.4048341,,,"Mo-Fr 16:00-23:00; Sa,Su 12:00-23:00",,no
macke prinz,bar,,"Zionskirchstraße 39, 10119 Berlin",52.534462,13.404733,,,Mo-Su 13:00-03:00,,yes
Dubrovnik-Grill,restaurant,,"Berliner Straße 54, 13507 Berlin",52.5767714,13.2936581,,,"Mo-Sa 11:30-22:30, Su,PH 11:30-22:00",,limited
Cantina,restaurant,,,52.5326585,13.4528749,,,,,no
W Der Imbiss,restaurant,indian;mexican;italian,"Kastanienallee 49, 10119",52.5342862,13.4050916,https://w-derimbiss.de/,,"Su-Th 12:00-22:00; Fr,Sa 12:00-23:00",,no
Al Parco,restaurant,italian,"Danziger Straße 209, 10407 Berlin",52.5298272,13.4447868,,,,,limited
Sportsbar,restaurant,,,52.5963736,13.3461978,,,,,
Blaue Adria,restaurant,croatian,,52.5286027,13.4491113,,,"Tu-Fr 16:00-23:30; PH,Sa,Su 11:30-23:30; Mo off",,no
Café Viktoria,cafe,,,52.4562032,13.307115,,,,,yes
Happy Buddha,restaurant,chinese,"Marienfelder Allee 145, 12279",52.4137071,13.3637958,,,"We-Su 12:00-22:00; Mo,Tu off",,limited
Colombina,restaurant,italian;pasta;pizza,"Marienfelder Allee 146, 12279",52.4134914,13.3624551,https://colombina.eatbu.com/?lang=de,+49307216016,Su 13:00-21:00; Tu-Sa 16:00-23:00,,yes
Adrijana Grill,restaurant,croatian,,52.4131836,13.3634937,,,Mo-Su 12:00-21:00,,limited
Eiscafe Europa,cafe,ice_cream;coffee_shop,"Marienfelder Allee 146, 12279 Berlin",52.4133405,13.3629671,https://www.ital-eis-europa.de/,+49 30 721 74 95,,,yes
La Luna,restaurant,italian,,52.4141666,13.3635792,,,,,
Salon Babette,bar,,"Karl-Marx-Allee 36, 10178 Berlin",52.5195057,13.4234314,,,"Tu-Th 18:00-24:00; Fr,Sa 17:00-01:00",,
Palace,restaurant,lebanese,"Spandauer Damm 3, 14059 Berlin",52.5192592,13.2986637,,,,,limited
La Bigoudène,restaurant,crepe;french,"Zionskirchstraße 28, 10119 Berlin",52.534363,13.403029,,+493024729110,Mo-Sa 18:00-23:00; Su 12:00-23:00,,no
Lotus Cafe,cafe,,,52.5175686,13.4238976,https://www.lotos-vihara.de/,+49 30 27583212,Mo-Fr 12:00-19:00; Su 15:00-19:00,,
Atame,restaurant,spanish,"Dircksenstraße 40, 10178 Berlin",52.5235718,13.4068594,http://atame-tapasbar.de,+49 30 98390591,Mo-Fr 13:00-24:00; Sa 16:00-24:00; Su off,,no
Hangi Sushi,restaurant,asian,,52.534069,13.404568,,,"Tu-Fr 12:00-15:00,17:00-22:00; Sa,Su,PH 17:00-22:00; Mo off",,yes
La Focacceria,restaurant,italian,"Fehrbelliner Straße 24, 10119 Berlin",52.5336497,13.4034671,,,Mo-Su 11:00-19:00,,limited
Thai Sushi & More,restaurant,thai,"Zionskirchstraße 44, 10119 Berlin",52.533767,13.405399,,,"Mo-Fr 12:00-22:00; Su,PH 13:00-22:00; Sa off",,no
St. Oberholz,cafe,coffee_shop,"Rosenthaler Straße 72, 10119 Berlin",52.5295304,13.4017825,,,"Mo-Th 08:00-24:00, Fr 08:00-03:00, Sa 09:00-03:00, Su 09:00-24:00",yes,limited
Satyam,restaurant,indian,"Goethestraße 5, 10623 Berlin",52.5089244,13.3220054,,,Mo-Sa 12:00-24:00; Su 11:00-24:00,,yes
Moghul,restaurant,indian,"Akazienstraße 5, 10823 Berlin",52.4870643,13.3552616,http://moghul-berlin.de,,"Mo-Su,PH 12:00-24:00",,no
papaya,restaurant,thai,"Südstern 14, 10965 Berlin",52.4885454,13.4073498,,,"Mo-Su,PH 12:00-16:00, 17:00-23:00",,yes
Süß war gestern,bar,,"Wühlischstraße 43, 10245 Berlin",52.5086027,13.4610994,,,Mo-Su 19:00-05:00,,limited
Ständige Vertretung,restaurant,german,"Schiffbauerdamm 8, 10117 Berlin",52.5212101,13.3853311,,,10:30-01:00,,limited
Adonia,restaurant,,"Albrechtstraße 14b, 10117 Berlin",52.5215872,13.3850713,,,,,no
Volver,restaurant,spanish,"Luisenstraße 41, 10117 Berlin",52.5223526,13.379881,http://www.volver-tapas.de/,,Mo-Fr 18:00-23:00; Sa 18:00-24:00,,no
Vincent Piano Bar,bar,,"Schiffbauerdamm 6, 10117 Berlin",52.5215879,13.38609,http://vincent-bar.de/hauptseite/,,,,no
Vaporetto,restaurant,italian,"Albrechtstraße 12, 10117 Berlin",52.5210049,13.3850412,https://www.vaporetto-berlin.de,,Mo-Su 12:00+,,yes
Zimt & Zucker,cafe,,"Schiffbauerdamm 12, 10117 Berlin",52.5206164,13.384282,https://zimtundzucker.com,,Mo-Su 08:00-17:00,,limited
Anand,restaurant,indian,"Albrechtstraße 12, 10117",52.5212138,13.3849693,https://restaurant-anand.de/,+49 30 40054759,Mo-Su 12:00-22:30,,yes
Vapiano,restaurant,italian,,52.5101889,13.376349,,,"Mo-Th 11:00-22:30; Fr,Sa 11:00-23:00; Su,PH 11:00-22:30",,limited
Cinque,restaurant,italian,"Reinhardtstraße 27 D, 10117 Berlin",52.5228146,13.3824135,https://www.ristorante-cinque.de/,+49 30 28096224,"Mo-Sa 11:30-01:00, Su 16:00+",,yes
Café Albrecht,cafe,german,"Reinhardtstraße 23, 10117 Berlin",52.5230929,13.3837544,https://www.cafe-albrecht.com/,,Mo-Fr 07:00-18:00; Sa 08:00-17:00; Su 08:00-16:00,,yes
Dehlers,restaurant,,"Reinhardtstraße 14, 10117 Berlin",52.5236266,13.3853444,,,,,
Van-Long,restaurant,thai;vietnamese,,52.5238004,13.3865223,http://www.van-long.de/,,Mo-Fr 11:30-21:00; Sa 17:00-22:00; Su off,,no
Akito,restaurant,japanese,,52.5238713,13.3868725,,,"Mo-Fr 10:30-22:15; Sa 13:00-22:15; Su 13:00-21:00 ""nur Express""; PH off",,no
Roma,restaurant,italian,"Friedrichstraße 129, 10117 Berlin",52.5250993,13.3871462,,,Mo-Su 11:30-00:00,,limited
Espresso Ambulanz,cafe,coffee_shop,"Oranienburger Straße 51, 10117 Berlin",52.5260119,13.3880152,,,08:00-20:00,,no
Sausalitos,restaurant,mexican,"Oranienburger Straße 50, 10117 Berlin",52.5261784,13.3886693,,,"Mo-Th 12:00-24:00, Fr 12:00-02:00, Sa 17:00-02:00, Su 17:00-24:00",,limited
Bombay,restaurant,indian,"Friedrichstraße 106c, 10117 Berlin",52.5231491,13.3884968,https://www.bombay-berlin.de/,+49 30 28484953,,,yes
Peter Pane,restaurant,burger,"Friedrichstraße 101, 10117 Berlin",52.5208138,13.3884622,,,11:00+,,yes
Wolke,cafe,german;turkish,"Rubensstraße 108, 12157 Berlin",52.4650127,13.3441689,,+49 30 80107657,Apr-Oct: 08:00-18:30; Nov-Mar: 08:00-17:30,,limited
N/A,cafe,,"Lucy-Lameck-Straße 32, 12049 Berlin",52.4838008,13.4225619,,,,,yes
Saigon Kitchen 1985,restaurant,vietnamese,"Kaiser-Wilhelm-Straße 3, 12247 Berlin",52.4297742,13.3333174,,,,,
La Montanara,restaurant,italian,"Leonorenstraße 67, 12247 Berlin",52.4390321,13.3440299,http://www.montanara.de/,+49 30 7741729,Mo-Su 12:00-24:00,,limited
Zoki's,restaurant,,,52.4396315,13.3422947,,,"PH,Mo-Su 09:30-23:00+",,yes
Monsieur Toche,cafe,german,"Albrechtstraße 19, 10117 Berlin",52.5223826,13.384463,,,7:30-18:00,,no
Aux Delices Normands,cafe,,,52.4483263,13.276018,,,Mo-Fr 06:30-18:00; Sa-Su 07:00-18:00,,limited
Feuerstein,cafe,,"Veteranenstraße 22, 10119 Berlin",52.5331919,13.4008848,,,,,yes
Café Fleury,cafe,breakfast;cake;french,"Weinbergsweg 20, 10119 Berlin",52.5312177,13.4022416,https://cafe-fleury.eatbu.com/?lang=en,+49 30 44034144,Mo-Su 09:00-19:00,,no
Lokal,restaurant,german,"Linienstraße 160, 10115",52.5278753,13.394901,http://lokal-berlin.blogspot.com,+49 30 28449500,Mo-Su 17:00-24:00,,no
Bötzow Privat,restaurant,,"Linienstraße 113, 10115 Berlin",52.5274962,13.3926644,https://www.boetzow-privat.de,,Mo-Su 17:00-24:00,,no
Brechts,restaurant,german;steak_house,"Schiffbauerdamm 6-7, 10117 Berlin",52.521472,13.385871,https://www.brechts.de,+49 30 27572037,Mo-Su 12:00-00:00,,no
Ganymed,restaurant,french,"Schiffbauerdamm 5, 10117 Berlin",52.521721,13.3863157,https://www.ganymed-brasserie.de/,,Mo-Su 10:00-24:00,,
Bonjour Vietnam,restaurant,japanese;vietnamese,"Rosmarinstraße 8, 10117",52.5161429,13.3899146,https://www.bonjourvietnam.berlin/,+49 30 31165537,Mo-Fr 11:30-22:00; Su 11:30-22:00,,no
Cafe & Konditorei,cafe,regional,"Alt-Marzahn 71, 12685 Berlin",52.5423416,13.5634074,,,,,no
Sohnemann,bar,,"Niederbarnimstraße 23, 10247 Berlin",52.5142681,13.4595488,,,"Tu-Th 01:00-01:30, Fr,Sa 18:00-03:00, Mo 18:00-01:00",,no
3 minutes sur mer,restaurant,french,"Torstraße 167, 10115 Berlin",52.5291046,13.3954604,https://www.3minutessurmer.de/,,We-Sa 18:00-24:00,,no
Napoljonska,cafe,ice_cream,"Kastanienallee 43, 10119 Berlin",52.5349278,13.4057256,,,Mo-Fr 08:00-18:00;Sa-Su 09:00-19:00;PH 09:00-19:00,,no
Landhaus Botanischer Garten,restaurant,german,,52.4517727,13.309887,,,"Mo,Th,Fr 11:00-16:00; Sa,Su 11:00-18:00",,yes
Piaggio,restaurant,italian,"Königin-Luise-Straße 44, 14195 Berlin",52.4576996,13.2907097,,,Mo 12:00-22:00; We-Su 12:00-22:00,,no
Nett,restaurant,vietnamese,"Rheingaustraße 1, 12161 Berlin",52.4673215,13.3217196,,,,,
Havanna Bar,bar,,"Treskowallee 111, 10318 Berlin",52.4816878,13.5257159,https://www.havannabar-berlin.de/,+49 30 50378144,"Mo-Fr 15:00+, Sa,Su 12:00+",,no
Macedonia,restaurant,international,"Hans-Sachs-Straße 4f, 12205 Berlin",52.443374,13.2951737,,,Mo-Su 12:00-23:00,,no
Pino,restaurant,italian,"Rheingaustraße 14, 12161 Berlin",52.4726746,13.3217637,https://restaurant-pino.de/,+49 30 34067407,"Tu-Su,PH 12:00-23:00",,no
Ice Angels,cafe,ice_cream,"Blumberger Damm 90, 12685 Berlin",52.5412048,13.5705532,,,,,
Cafe Surf Inn,restaurant,mexican,"Parallelstraße 11, 12209 Berlin",52.4246828,13.330777,https://cafe-surf-inn.eatbu.com/,,,,limited
bei Maria,cafe,,"Veteranenstraße 11, 10119 Berlin",52.5331417,13.4018075,,+49 30 33851541,Mo-Su 08:00-18:00,,no
Friedhard's,restaurant,german,"Königsberger Straße 46, 12207 Berlin",52.4280707,13.3247457,http://www.friedhards.de,+49 30 772 08 500,Mo-Sa 12:00+; Su 10:00+,yes,no
Genç,cafe,,"Königsberger Straße 4a, 12207 Berlin",52.4290088,13.3234863,,+49 30 7721689,"We-Su 07:00-15:00; Mo,Tu off",,yes
Caffé Maura,cafe,,,52.4428752,13.3113788,,,Mo-Fr 10:00-18:00; Sa 09:00-15:00,,yes
Tillmann's Café Krone,cafe,coffee_shop;cake,"Argentinische Allee 2, 14163 Berlin",52.4383177,13.2327133,,,"Mo-Fr 07:00-18:00; Sa,Su 08:00-18:00",,limited
Opera Italiana,restaurant,italian,"Spandauer Damm 5, 14059 Berlin",52.5192482,13.2984365,,,12:00+,,no
La Trattoria Toscana,restaurant,italian,"Schloßstraße 45, 14059 Berlin",52.5140217,13.2973968,https://www.speisekarte.de/berlin/restaurant/la_trattoria_toscana,,"Tu-Fr,PH 17:00-22:00; Sa,Su 12:00-22:00",,yes
Restaurant Gourmet Sud,restaurant,french,"Selmaplatz 1, 14163 Berlin",52.4458169,13.2428177,https://www.gourmet-sud-berlin.de/,+49 30 8134124,Mo-Su 08:00-24:00,,
Café Monaco,cafe,,"Mansteinstraße 17, 10783 Berlin",52.49307,13.367236,,,"Su-Th,PH 09:00-24:00, Fr,Sa 09:00-02:00",,yes
Plan,bar,,"Lausitzer Platz 12, 10997 Berlin",52.5006932,13.4316156,,,Mo-Su 13:00-22:00,,limited
Bistro,restaurant,,,52.4710833,13.5652273,,,,,
MÊLI,restaurant,asian;sushi,"Edisonstraße 34, 12459 Berlin",52.4682137,13.5142493,,,Mo-Su 12:00-22:30,,
Stella del Köp,restaurant,italian,"An der Wuhlheide 228B, 12459 Berlin",52.4557061,13.552511,,,11:30-24:00,,limited
Standard Pizza,restaurant,pizza,"Templiner Straße 7, 10119 Berlin",52.5328438,13.4086146,,,"Mo-Fr 17:00-24:00; PH,Sa,Su 13:00-24:00",,limited
Zen Garden,restaurant,asian;sushi,"Wiesenschlag 4, 14129 Berlin",52.427003,13.2180894,,,Mo-Su 10:00-22:00,,limited
Parkcafé Pusteblume,cafe,,"Durlacher Straße 2, 10715 Berlin",52.4802048,13.3365051,,,10:00+,,limited
Felicia,cafe,,"Weisestraße 8, 12049 Berlin",52.4788003,13.42333,,,Mo-Su 09:00-22:00,,no
Golden Garden,restaurant,chinese,,52.4171466,13.3244761,,,Tu-Su 12:00-22:00,,yes
λ,cafe,,"Simon-Dach-Straße 1, 10245 Berlin",52.5127816,13.4573118,,,,,
Asia Restaurant Sonne,restaurant,asian,"Neue Kantstraße 16, 14057 Berlin",52.5066568,13.2845552,,,11:30-23:00,,no
Thomas-Eck,restaurant,german,"Pestalozzistraße 25, 10627 Berlin",52.5079886,13.3092361,,,Mo-Su 11:00-23:00,,no
Wernesgrüner B,restaurant,,"Treskowallee 68, 10318 Berlin",52.4864913,13.5265088,https://www.wernesgruener-b.de/,,"We,Th,Su,Mo 11:30-22:00; Fr,Sa 11:30-22:00",,yes
Steakhaus Barbecue,restaurant,steak_house,"Treskowallee 65, 10318 Berlin",52.4866452,13.5272764,https://www.steakhaus-barbecue.de/home-karlshorst.html,+49 30 50159890,11:30-24:00,,no
TreBo,cafe,,"Treskowallee 75, 10318 Berlin",52.4857307,13.526982,https://www.cafetrebo.de/,+49 30 58885325,Mo-Sa 13:00-18:00; Su 12:00-18:00,,limited
Ulteamate,cafe,bubble_tea,"Kantstraße 40, 10625 Berlin",52.5065004,13.3133688,,,12:00-21:00,,no
Ristorante Pizzeria Dino,restaurant,italian,"Pestalozzistraße 88, 10625 Berlin",52.507721,13.3113863,,,"Tu-Sa 18:00-23:00, Sa 10:00-15:00 open ""Café""",,
Don Giovanni,restaurant,italian,"Alt-Moabit 129, 10557 Berlin",52.5230939,13.3597499,,+49 30 39835610,Mo-Su 11:30-24:00,,limited
Die Schule,restaurant,german,Kastanienallee 82,52.5370279,13.4084251,http://www.gls-berlin.com/restaurant,+49 30 780 089 550,Mo-Su 11:00-00:00,,yes
Cafe Lisboa,cafe,portuguese,"Goethestraße 34, 10625 Berlin",52.5090275,13.3077924,,,"Mo-Fr,Su 14:00-23:00; Sa 10:00-23:00",,no
Homera,cafe,,"Pestalozzistraße 33, 10627 Berlin",52.5080285,13.3054849,,,Mo-Fr 08:00-18:00; Sa 09:00-18:00; Su 11:00-17:30,,no
Le midi,cafe,french;corsican,"Greifenhagener Straße 17, 10437 Berlin",52.5470948,13.4153599,https://www.midi-berlin.de/,+49 30 23912307,Th-Tu 10:00-17:00,,limited
Knödelwirtschaft Nord,restaurant,regional;austrian,"Stargarder Straße 3, 10437 Berlin",52.5474445,13.4143029,,,Tu-Mo 17:00-23:00,,yes
Van Hoa,restaurant,vietnamese,"Stargarder Straße 79, 10437 Berlin",52.5476774,13.4147301,,,Mo-Su 12:00-23:30,,no
Rosati,restaurant,italian,"Bismarckstraße 88, 10627 Berlin",52.5113714,13.3078414,,,"Mo-Su,PH 12:00-24:00",,limited
Café Kali,cafe,,"Schillerstraße 35, 10627 Berlin",52.5102468,13.3075842,,,Mo-Fr 08:00-18:00; Sa 09:00-18:00; Su 10:00-18:00; PH off,,no
Sadhu,restaurant,indian,"Stargarder Straße 60, 10437 Berlin",52.5452831,13.4214478,,,12:00-23:00,,yes
Frau Mittenmang,restaurant,german,"Rodenbergstraße 37, 10439 Berlin",52.550285,13.4193202,https://www.fraumittenmang.de,+49 152 21393678,We-Su 18:00-22:00,,yes
Papà Pane di Sorrento,restaurant,italian,"Ackerstraße 23, 10115 Berlin",52.53209,13.396302,http://www.papàpane.com,+49 30 28092701,12:00-24:00,,limited
Asman,restaurant,indian,"Ackerstraße 20, 10115 Berlin",52.5315752,13.3965969,,+493027907167,12:00 - 24:00,,no
Treffpunkt Berlin,restaurant,regional,"Mittelstraße 55, 10117 Berlin",52.5178945,13.3882827,,+49 30 204 1819,"Mo-We 16:00-24:00, Th-Sa 12:00-24:00",no,no
Bar Voyage,bar,,"Nollendorfstraße 1, 10783 Berlin",52.4979752,13.3562993,https://www.barvoyage.de/,+4930-33 98 42 27,Tu-Su 17:00-24:00+,,yes
44 Brekkie,restaurant,breakfast,"Gabriel-Max-Straße 1, 10245 Berlin",52.5093265,13.4579704,https://44brekkie.com,,Fr-Su 09:00-16:00; Mo-Th 09:00-15:00,,no
Boccadoro,restaurant,italian,"Ferdinandstraße 15, 12209 Berlin",52.4239489,13.3306356,https://www.boccadoro-berlin.de/,+4930 49989880,Mo-Su 12:00-24:00,,limited
Alimentari,restaurant,italian,,52.5339232,13.4020087,,,,,limited
Monster Ronson's Ichiban Karaoke,bar,,"Warschauer Straße 34, 10243 Berlin",52.5051922,13.448422,,,"Mo-Su 19:00-04:00, Fr-Mo 18:00-06:00",,limited
eleven,cafe,,"Leipziger Platz 11, 10117 Berlin",52.5095598,13.3797813,https://www.elevenbar.de/,,"Mo-Fr 08:00+; Sa,Su 10:00+",,yes
Italofritzen,restaurant,pizza;italian,"Friedrichstraße 106,  Berlin",52.5226168,13.3882443,,,07:00-24:00,,yes
Tugra,restaurant,,"Kurfürstendamm 96, 10709 Berlin",52.4987072,13.2987243,,,,,
Siena,restaurant,italian,"Friedrich-Engels-Straße 149, 13158 Berlin",52.5931545,13.3819714,,,"Mo,We-Su 12:00-24:00",,yes
Zur alten Backstube,cafe,,"Hauptstraße 155, 13158 Berlin",52.6004376,13.3790095,,+49 30 47488482,"Sa,Su 13:00-17:00",,
Salt & Pepper,restaurant,indian,"Neue Bahnhofstraße 33, 10245 Berlin",52.5050491,13.468952,,,"Mo-Su,PH 12:00-24:00",,yes
Binnbonn Café,cafe,,"Lenbachstraße 13b, 10245 Berlin",52.505529,13.4670037,,,Th-Su 10:00-18:00,,
Roberta,cafe,ice_cream,"Dahlmannstraße , 10629 Berlin",52.4999162,13.30369,,,,,no
Pizzeria La Riviera,restaurant,italian,"Imchenallee 48, 14089 Berlin",52.4508283,13.1466473,,+49303654381,11:30-23:00,yes,limited
Viet Duc,restaurant,asian,,52.6140483,13.4695365,,+49 30 34626407; +49 30 92120475,Tu-Su 11:00-22:00,,no
Poco Loco,restaurant,mexican,"Alt-Karow 35, 13125 Berlin",52.6151487,13.4846529,,,,,
Ristorante Da Giovanni,restaurant,,,52.432327,13.713346,,,Mo-Sa 16:00-23:00; Su 12:00-23:00,,
Neu Venedig,restaurant,german,"Finkenweg 348, 12589 Berlin",52.431252,13.7085775,http://www.neuvenedig.de,+49 30 6489309,Tu-Su 10:00-22:00,,
ChiMi asia fusion,restaurant,asian,"Behaimstraße 64, 13086 Berlin",52.5524002,13.4487348,,,Tu-Su 12:00-23:00,,
Trattoria Zoe,restaurant,italian,"Senefelderstraße 10, 10437 Berlin",52.5420573,13.4232648,,,12:00-24:00,,yes
Café Morgenlicht,cafe,cake,"Schloßstraße 13, 14059 Berlin",52.51579,13.295969,,,Mo 13:00-19:00; Tu-Su 10:00-20:00,,no
Il Ducato,restaurant,italian,"Reisstraße 27, 13629 Berlin",52.5351839,13.2710239,,,11:00-23:00,,limited
Francucci’s Ristorante,restaurant,italian,"Kurfürstendamm 90, 10709 Berlin",52.4992112,13.3016415,,,Mo-Su 12:00-24:00,,limited
Gasthaus Renger-Patzsch,restaurant,alsatian,"Wartburgstraße 54, 10823 Berlin",52.4874226,13.3521024,,,Mo-Sa 18:00-23:00; Su off,,no
La Fattoria,restaurant,italian,"Grunewaldstraße 8, 12165 Berlin",52.4585364,13.3165662,http://www.la-fattoria.berlin/,+49 30 7914665,Th-Tu 12:00-23:00; We off,yes,no
BigPan,restaurant,vietnamese,"Dietzgenstraße 119, 13158 Berlin",52.5933981,13.4025984,https://bigpan.berlin/,030 12379168,Tu-Su 11:30-22:00,,yes
Dietrich,bar,,"Reichenberger Straße 103, 10999 Berlin",52.4935555,13.43778,,,,,
Sorrel,restaurant,,"Pannierstraße 40, 12047 Berlin",52.4900553,13.4338383,https://www.sorrel.berlin/,,"Mo-We, Su 10:00-17:00; Th-Sa 10:00-23:00",,
Vamos!,restaurant,mexican,,52.4999531,13.4435706,,,Mo-Su 12:00-01:00,,no
Life Berlin,restaurant,japanese,"Maybachufer 39, 12047 Berlin",52.4917372,13.4331113,,,Tu-Th 17:00-21:30; Fr-Su 12:00-21:30,,yes
Frau Luna,bar,,"Paul-Lincke-Ufer 44, 10999 Berlin",52.4963129,13.4211347,,,Mo-Sa 17:00+,,
Bagdad,restaurant,turkish,"Schlesische Straße 2, 10997 Berlin",52.5006645,13.4422489,,,,,limited
Golden Ginkgo,restaurant,japanese,"Schlesische Straße 35, 10997",52.4994429,13.4454305,,,,,limited
Ristorante Cascina,restaurant,italian,,52.6202937,13.3137992,,,,,limited
Zum Torhaus,restaurant,german,"Nordendstraße 46, 13156 Berlin",52.5884453,13.3872163,,,"Tu-Su,PH 11:00-21:00; Mo off",,limited
Schusterjunge,restaurant,regional,,52.5408964,13.414157,http://www.zumschusterjungen.com/,,Mo-Su 12:00-24:00,,no
Asia Koy Restaurant,restaurant,chinese,"Alt-Kaulsdorf 18, 12621 Berlin",52.5050078,13.5817977,http://www.asia-koy-restaurant.de/,,"PH,Mo-Su 11:30-23:00",,no
Zur Letzten Instanz,restaurant,regional,"Waisenstraße 14-16, 10179 Berlin",52.5174527,13.4137758,,,Mo-Sa 17:30+,,no
Thai Elephant,restaurant,thai,"Fasanenstraße 15, 10623 Berlin",52.5044792,13.327536,,+49 30 88624853,Mo-Fr 11:30-15:00,,no
Klein Schwalbenberg,cafe,,,52.4192605,13.7216644,,,"easter-Oct 3: Fr 12:00-19:00, easter-Oct 3: Sa 11:00-19:00, easter-Oct 3: PH,Su 10:00-19:00",,yes
Hoppegarten,restaurant,german,"Schloßstraße 56, 12165 Berlin",52.4535811,13.3151201,https://www.hoppegarten-berlin.de,+49 30 7918378,"Su-Th 09:00-01:00, Fr-Sa 09:00-02:00",,limited
X-Bar,bar,,"Raumerstraße 17, 10437 Berlin",52.5415754,13.4219013,,,Mo-Su 18:00+,,no
L'Osteria Del Parlamento,restaurant,italian,"Raumerstraße 15, 10437 Berlin",52.541897,13.4204637,https://www.losteria-parlamento.de/,+49 30 498 53 440,Mo-Su 11:30-23:30,,yes
Café Bolacha,cafe,tea;crepe;cake;portuguese;breakfast;coffee_shop,"Senefelderstraße 29, 10437 Berlin",52.5412773,13.4225078,,,Tu-Fr 08:00-17:00; Sa-Su 09:00-17:00,,no
Benedict,restaurant,,"Göhrener Straße 5, 10437 Berlin",52.5416295,13.4214974,,,"Mo,Tu,Th,Fr 09:00-17:00; Sa,Su 08:30-22:00",,yes
Mido Sushi,restaurant,sushi,"Pappelallee 22, 10437 Berlin",52.544443,13.4163098,,,,,limited
Sasaya,restaurant,sushi,"Lychener Straße 50, 10437 Berlin",52.5442713,13.4184056,,,"Mo, Th-Su 12:00-15:00; Mo, Th-Su 18:00-23:00",,yes
Meena Kumari,restaurant,indian,"Lychener Straße 9, 10437 Berlin",52.5415085,13.4148581,,,Mo-Su 17:00+,yes,limited
Gate 57,restaurant,vietnamese;asian,"Pappelallee 57, 10437 Berlin",52.5464705,13.4179349,https://gate57-restaurant.eatbu.com/,+49 30 89547172,12:00-23:00,yes,limited
Vedis,restaurant,mexican,"Pappelallee 56, 10437 Berlin",52.5467004,13.4181417,,,,,yes
The Tiger,restaurant,,"Lychener Straße 41, 10437 Berlin",52.5438549,13.4174888,,,"Tu,We 11:00-18:00; Th,Fr 11:00-19:00; Sa,Su 10:00-19:00",,limited
Dirty Velvet Drinkery,bar,,"Lychener Straße 39, 10437 Berlin",52.5437162,13.417339,,,"Mo-Th 18:00-24:00, Fr,Sa 17:00+, Su 18:00-11:00",,no
Trattoria Felice,restaurant,italian,"Lychener Straße 41, 10437 Berlin",52.5439319,13.4175949,,,"Mo-Th 17:00-24:00; Fr,Sa 12:00-24:00; Su 12:00-23:00",,yes
Sangam,restaurant,indian,"Akazienstraße 19, 10823 Berlin",52.4885059,13.3535892,,,"PH,Mo-Su 12:00-23:00",,no
Trattoria Perla Jonica,restaurant,italian;pizza,"Belziger Straße 20, 10823 Berlin",52.4873737,13.3539428,,,Mo-Su 12:00-24:00,,no
Il Mulino,restaurant,italian,"Adolf-Martens-Straße 2, 12205 Berlin",52.4438246,13.2933907,http://il-mulino-berlin.de/,+49(0)308327793,Mo-Su 12:00-00:00,,limited
Coffee Station,cafe,,,52.4506268,13.2808788,,,Mo-Su 07:00-19:00,,
Villa Franca,restaurant,pizza;italian,"Vorbergstraße 10, 10823 Berlin",52.4891914,13.3546489,https://villafranca-berlin.de/,,,,limited
La Cocotte,restaurant,french,"Vorbergstraße 10, 10823 Berlin",52.4892061,13.3544624,,,We-Sa 18:00-00:00; Mo-Tu off,,limited
Taverna Phaestos,restaurant,greek,"Jagowstraße 16, 10555 Berlin",52.5229748,13.3342,,,Mo-Su 17:30-24:00,,no
Der Weinlobbyist,bar,,"Kolonnenstraße 62, 10827 Berlin",52.48657,13.3592734,https://www.derweinlobbyist.de/,+493030640772,"Mo,Th,Su 17:00-23:00; Fr,Sa 17:00-00:00; Tu,We off",,
Walhalla,restaurant,regional,"Krefelder Straße 6, 10555 Berlin",52.5240477,13.339427,,,"Mo-Th 12:00-01:00, Fr-Su 10:00-01:00, PH 10:00-18:00+",yes,yes
Croccante Al Porto,restaurant,pizza,Puschkinallee 15,52.4931928,13.4651593,https://croccante-alporto.de/,+49-30-20617653,"Su, Tu-Th 12:00-22:00; Fr-Sa 12:00-23:00",,
Papaya,restaurant,thai,"Krossener Straße 11a, 10245 Berlin",52.5107157,13.458063,,,"Mo-Su 12:00-16:00,17:00-22:00",,limited
Girasol,restaurant,mexican,"Raumerstraße 30, 10437",52.5415706,13.4230203,https://www.restaurant-girasol.de/,,"Mo-Sa 12:00-24:00, Su 10:00-24:00",,yes
Bohnenranke,cafe,,"Moltkestraße 50, 12203 Berlin",52.4466712,13.3071263,https://bohnenranke.de/,,,,
Brauhaus Lemke am Schloss,restaurant,german,"Luisenplatz 1, 10585 Berlin",52.5199967,13.2998164,https://schloss.lemke.berlin/,,Mo-Su 12:30-22:00,no,limited
Dante,restaurant,italian,"Tegeler Weg 16,  Berlin",52.5263335,13.2977576,,,,,yes
Ristorante Fratelli,restaurant,italian,"Alt-Pichelsdorf 6a, 13595 Berlin",52.5117446,13.2008364,,+49 30 55471116,,,
Schwarzwaldstuben,restaurant,regional,"Tucholskystraße 48, 10117 Berlin",52.5275979,13.3929966,https://www.schwarzwaldstuben.berlin/,+49 30 500 16266,"Tu-Th 12:00-23:00, Fr-Sa 12:00-24:00",,yes
La Femme,restaurant,breakfast;cake;coffee_shop;turkish,"Badstraße 67, 13357 Berlin",52.5500834,13.3851298,http://www.lafemmeberlin.de/,+49 30 46063979,06:00-20:00,,no
Akiko Sushi,restaurant,sushi,"Ahornstraße 32, 12163 Berlin",52.4604524,13.3232543,,,Su-Th 12:00-21:00; Fr-Sa 12:00-22:00,,no
Yoko Sushi,restaurant,sushi,"Frankfurter Allee 229, 10365 Berlin",52.5122149,13.4954972,,,Mo-Fr 11:30-22:00; Sa-Su 12:00-22:00,,yes
Café Planwirtschaft,cafe,,"Hardenbergstraße 40A, 10623 Berlin",52.5114759,13.3245364,,030 314 280 57,,,yes
Lakshmi,restaurant,indian,"Hindenburgdamm 79, 12203 Berlin",52.4467346,13.3149563,,,Su-Th 11:30-22:00; Fr-Sa 11:30-23:00,,limited
Eiscafé Falsone,cafe,cake;ice_cream,"Hindenburgdamm 58, 12203 Berlin",52.4473524,13.315569,,,,,yes
BRLO Charlottenburg,restaurant,,"Giesebrechtstraße 15, 10629 Berlin",52.5018681,13.3105132,https://www.brlo.de/gastronomien/brlo-charlottenburg,,,,limited
MIO Feinkost,restaurant,italian,"Samariterstraße 36, 10247 Berlin",52.5157506,13.4646065,,+49 30 81725514,Mo-Su 11:00-22:30,yes,no
Yogi-Haus,restaurant,indian,"Rathener Straße 10, 12627 Berlin",52.534622,13.6089419,http://www.yogi-lieferservice.de,+4930 99276280,"Mo-Su,PH 12:00-23:00",,no
Spoonful,cafe,ice_cream,Auguststraße 63,52.527189,13.3969021,https://www.eismanufaktur-berlin.de/berlin-mitte/,+4915124237879,12:00-21:00,yes,no
Bandol sur mer,restaurant,french,Torstraße 167,52.5290596,13.3953395,,+49 30 67302051,,,limited
Kaffee Burger,bar,,"Torstraße 60, 10119 Berlin",52.528762,13.4086025,,,,,limited
Fu Duo,restaurant,chinese,,52.6128827,13.4308377,,,,,yes
Lotus Lounge,restaurant,,"Soorstraße 85, 14050 Berlin",52.5172176,13.2794606,,,Sa 12:00-15:00,,
Trattoria Bellucci,restaurant,italian,"Brandenburgische Straße 35, 10707 Berlin",52.4994072,13.3068303,,,"Mo-Sa 11:00-05:00, Su 17:00-24:00",,
Granat,restaurant,georgian,"Parkstraße 31, 13086 Berlin",52.5549089,13.4584972,,,We-Fr 17:00-22:00; Sa-Su 12:00-22:00,,yes
Siebert’s Back & Café,cafe,coffee_shop;cake;donut;ice_cream,"Achillesstraße 65, 13125 Berlin",52.6174691,13.4897579,,,Mo-Su 07:00-18:00,,yes
India Haus,restaurant,indian,,52.6170996,13.4889601,,,,,limited
Regent,restaurant,chinese,,52.4516006,13.1470106,,+49 30 3655076,,,limited
Endlich Mittag,cafe,,"Helmholtzstraße 23, 10587 Berlin",52.5220903,13.3270868,,,,,no
Restaurant Scheune,restaurant,german,"Eichkampstraße 155, 14055 Berlin",52.4888871,13.2612613,https://scheune-restaurant.de/,+49 30 8924903,11:00-24:00,,no
Mama Trang's KitchenÄä,restaurant,asian,"Helmholtzstraße , 10587 Berlin",52.5211631,13.3218617,,,Mo-Fr 11:00-22:00; Sa off; Su 14:00-23:00,,no
Kaffeehaus Blankenburg,cafe,,"Alt-Blankenburg 44, 13129 Berlin",52.5930118,13.4570289,http://www.kaffeehausblankenburg.de/,+494074398648,Mo-Su 10:00-19:00,,yes
Piazza Rossa,restaurant,italian,"Rathausstraße 5, 10178 Berlin",52.5190043,13.409291,,,11:00-24:00,,yes
Blixen,cafe,,,52.5190506,13.4102575,,,,,
Espresso Eleganza,cafe,coffee_shop,"Unter den Linden 36-38, 10117 Berlin",52.5171785,13.3869064,,,,yes,
Palm Beach,bar,,,52.5205872,13.404595,,,13:00+,,limited
BLOCK HOUSE,restaurant,steak_house,"Karl-Liebknecht-Straße 7, 10178 Berlin",52.5205315,13.4051631,,,Mo-Sa 12:00-23:00; Su 12:00-22:00,,yes
Kartoffelhaus,restaurant,german,"Karl-Liebknecht-Straße 9, 10178 Berlin",52.5211493,13.4062159,,,11:30-23:00,,no
Schlögl's Altberliner Gaststätte,restaurant,german;regional,"Karl-Liebknecht-Straße 9, 10178 Berlin",52.5213454,13.4059828,https://www.berliner-essen.de/,+49 30 2411221,Tu 17:00-21:00; We-Fr 12:00-21:00; Sa 12:00-21:30; Su 12:00-21:00,,yes
China-Restaurant Hua Ting,restaurant,chinese,"Strausberger Platz 13, 10243 Berlin",52.517794,13.428828,http://www.huating.de/,,Mo-Su 12:00-22:00; Tu off,,limited
Trattoria Vesuvio,restaurant,italian,"Strausberger Platz 8, 10243 Berlin",52.5190513,13.4295589,https://www.ristorante-vesuvio-berlin.de,,Mo-Su 12:00-24:00,,limited
Café Shila,cafe,,"Leonida-Zamfirescu-Weg 1, 10623 Berlin",52.514519,13.3258091,,,"""Da wir auch selbst Studenten sind findest du keine offiziellen Öffnungszeiten. Während der Vorlesungszeit, aber auch in den Semesterferien, wirst du äußerst selten enttäuscht das Shila geschlossen vorzufinden.""",,limited
Heidelbeere,restaurant,german,"Heidelberger Platz 1, 14197 Berlin",52.4788039,13.3105291,,+49 30 8212927,,,limited
L'Annam,restaurant,asian;indian,"Bölschestraße 76, 12587 Berlin",52.4559737,13.6250449,,+493064328607,"We-Fr,Su,Mo 11:30-22:00; Sa 16:00-22:00; Tu off",,no
Huttenklause,bar,,"Huttenstraße 23, 10553 Berlin",52.5287452,13.318287,,,,,no
Eve&cat,cafe,lithuanian;russian,"Lausitzer Platz 1, 10997 Berlin",52.5006491,13.4295135,,,Mo-Sa 10:00-22:00,,no
Gia,cafe,ice_cream,"Kurfürstendamm 66, 10707 Berlin",52.5005212,13.3094972,,,,,
Yasmin Alsham,restaurant,,"Karl-Marx-Straße 168, 12043 Berlin",52.4750273,13.4396896,,,,,
Ringbar,bar,,,52.4729715,13.4545924,,,We-Su 19:00-24:00+,,
La Vida Bar,bar,,"Sonnenallee 218, 12059 Berlin",52.473834,13.4555497,,,,,limited
Einstein Kaffee,cafe,coffee_shop,,52.5124847,13.3936722,,,"Mo-Fr 07:00-19:00; Sa,Su 08:00-19:00",yes,yes
Namaste Buddha,restaurant,indian,"Ritterstraße 2, 13597 Berlin",52.5383125,13.2038118,,,12:00-22:00,yes,
Alt-Spandau,restaurant,international,"Moritzstraße 7, 13597 Berlin",52.5381807,13.2021169,http://www.altspandau.de,+49 30 33308092,"PH,Su-Th 11:30-22:00; Fr,Sa 11:30-22:30",,limited
Café Qlis,cafe,,"Hermannstraße 36, 12049 Berlin",52.4803905,13.424959,,,,,
Café Kent,cafe,,,52.4706565,13.4429525,,,,,no
Rauschecafe,bar,,"Braunschweiger Straße 77, 12055 Berlin",52.4704823,13.4434357,,,,,limited
Gepetto,restaurant,,,52.4625588,13.4163784,,,,,
Amma,restaurant,indian,"Tempelhofer Damm 214, 12099 Berlin",52.457185,13.3836821,https://www.amma-berlin.de/,,Mo-Su 11:30-24:00,,limited
Taverna Ta Dio Aderfia,restaurant,greek,"Tempelhofer Damm 218, 12099 Berlin",52.4566994,13.3835339,http://www.tadioaderfia.de/,,"Mo,We-Fr 15:00-23:00; Sa 12:00-23:00; PH,Su 12:00-22:00",,limited
Pomodori,restaurant,italian;pizza,"Tempelhofer Damm 227, 12099 Berlin",52.454788,13.3845074,,,Mo-Su 11:00-21:00,,limited
Makara,cafe,,"Mariendorfer Damm 48, 12109 Berlin",52.4484477,13.3849151,,,,,
Becerro,restaurant,,"Mariendorfer Damm , 12109 Berlin",52.4483231,13.384953,,,,,no
Restaurant Split,restaurant,croatian,"Rixdorfer Straße 89, 12109 Berlin",52.4465056,13.40215,https://www.restaurantsplit-berlin.de/,+49307034042,Tu-Su 12:00-23:00,,limited
Rotes Café,cafe,,"Harnackstraße 1 A, 14195 Berlin",52.4488357,13.2783362,,,,,limited
Herr Rossi,restaurant,italian,"Winsstraße 11, 10405",52.5328024,13.424598,,+49 30 53 06 10 77,Tu-Sa 18:00-23:00,,limited
Silber Cafe Bar,cafe,,"Hermannstraße 117, 12051 Berlin",52.4662556,13.4317552,,,,,
Restaurant Platon,restaurant,greek,"Pistoriusstraße 31, 13086 Berlin",52.553178,13.4485127,https://www.platon-berlin.de/,+49 30 89656223,"Mo-Su,PH 11:30-23:00",,yes
Balgaran 2,restaurant,,"Karl-Marx-Straße 266, 12057 Berlin",52.4651626,13.4424151,,,,,no
Austria,restaurant,austrian,"Bergmannstraße 30, 10961 Berlin",52.4887412,13.3968219,,,"Mo 16:00-23:00; Tu-Th,Su 12:00-23:00; Fr-Sa 12:00-24:00",,limited
Café Schlacht,cafe,,"Breisgauer Straße 2, 14129 Berlin",52.4390629,13.2146898,,,09:00-22:00; Jan 01 10:00+,,yes
La Bottega Da Franco,restaurant,italian,"Breite Straße 56, 13597 Berlin",52.5365752,13.2046599,,,Mo-Su 09:00-24:00,,limited
Eiscafé Millefiori,cafe,italian;ice_cream;pizza,"Breite Straße 35, 13597 Berlin",52.5380486,13.2068219,,+49 30 3337640,Mo-Su 09:00-23:00,,yes
La'Akam,restaurant,african,"Samariterstraße 17, 10247 Berlin",52.5189555,13.4666195,https://laakam.de/,+4915252084842,Th 18:00-23:00; Fr 18:00-24:00; Sa 17:00-24:00; Su 14:00-23:00,,no
Piazza Brà,restaurant,italian,"Kurfürstendamm 94-95, 10709 Berlin",52.4988369,13.2994295,,,"Mo-Su,PH 12:00-24:00",,yes
El Toro,restaurant,,12347 Berlin,52.4566984,13.4374342,,,,,limited
Avala-Grill,restaurant,,12347 Berlin,52.4562254,13.4373731,,,Tu-Su 12:00-20:00,,limited
Mona Mia,restaurant,italian,"Buschkrugallee 32, 12359 Berlin",52.4612374,13.4456038,,,Tu-Su 12:00-20:00,yes,limited
Zerhosh,restaurant,mediterranean,"Glasower Straße 38, 12051 Berlin",52.4640182,13.4341134,,+49 163 233 68 46,,,
Cafeteria im PTZ,cafe,bistro,"Pascalstraße 13-14, 10587 Berlin",52.5232961,13.3234413,,,Mo-Th 11:30-14:00; Fr 11:30-13:30,,no
Seestern,cafe,,"Am Schlachtensee 70, 14129 Berlin",52.4398995,13.2137084,https://www.cafe-seestern.de/,+493080585040,,,no
Cafe Bricks,restaurant,,"Wilhelmstraße 152, 13595 Berlin",52.5255102,13.1943253,,,,,limited
Café Barfly,cafe,,"Brüderstraße 47, 13595 Berlin",52.5241735,13.1932594,,,08:00-24:00,,no
Mikoto,restaurant,sushi;vietnamese,"Skalitzer Straße 73, 10997 Berlin",52.5010555,13.4410413,,,Mo-Su 12:00-24:00,,limited
Mariona,restaurant,spanish,"Skalitzer Straße 94 b, 10997 Berlin",52.499805,13.4326054,,,We-Sa 18:00+,,no
Ông Ćhu,restaurant,vietnamese,"Skalitzer Straße 95A, 10997 Berlin",52.499793,13.4322046,,,"Mo-Fr 11:30-22:00; Sa,Su 12:00-22:00",,
Hühnerhaus 36,restaurant,chicken,Skalitzer Straße 95a,52.4998098,13.4320469,http://xn--hhnerhaus36-thb.de/,+49-03-69004588,"Su-Th 11:00-23:00; Fr,Sa 11:00-24:00",,limited
Esmeralda's Inka-Café,restaurant,peruvian;ice_cream,"Belziger Straße 44, 10823 Berlin",52.4861765,13.3503476,,,We-Su 12:00-19:00,,limited
manno-o-salwa,restaurant,,,52.4700297,13.4418133,,,Mo-Th 11:00-23:00; Fr 15:00-24:00; Sa 11:00-24:00; Su 12:00-23:00,,
By Cengiz,bar,,"Karl-Marx-Straße 210, 12055 Berlin",52.4712939,13.4411312,,,,,limited
Roter Rabe,bar,,"Kottbusser Straße 13, 10999 Berlin",52.4965957,13.4192738,https://www.roter-rabe.berlin/,,"Mo-Su,PH 17:00-03:00+",,no
Marinehaus,restaurant,,"Märkisches Ufer 48-50, 10179 Berlin",52.5140771,13.4158409,https://www.marinehaus.de/,+49302793246,Mo-Sa 15:00-24:00; Su 13:00-24:00,,yes
Ming Dynastie,restaurant,chinese,"Brückenstraße 6, 10179 Berlin",52.5135789,13.418481,,,"PH,Mo-Su 12:00-22:00",,limited
Las Malvinas,restaurant,argentinian;steak_house,"Barnimstraße 18, 10249 Berlin",52.5262122,13.4225694,https://las-malvinas.de/,+49-30-24727004,Mo-Su 12:00-24:00,,yes
Jokers Bar,bar,,"Berliner Straße 117, 13187 Berlin",52.5679576,13.4125434,,,,,no
San Marco,restaurant,italian,"Schönhauser Allee 102, 10439 Berlin",52.5531781,13.4139962,http://www.sanmarcoberlin.de,,"Mo-Su,PH 11:00-01:00",,no
Prima Luna,restaurant,italian,,52.5378953,13.2030051,,+49 30 34357592,,,limited
Taverna Pikilia,restaurant,greek,"Spanische Allee 72, 14129 Berlin",52.4338678,13.2114049,https://pikilia.de/,+49 30 80588207,"Mo-Fr 16:00-24:00; Sa-Su,PH 12:00-24:00",,no
Vuisine,restaurant,vietnamese,"Wilhelmsaue 110, 10715 Berlin",52.4851192,13.3208237,,+49 30 55474733,11:30-21:30,,limited
Dalmacija-Grill,restaurant,,"Seegefelder Straße 42, 13583 Berlin",52.5365469,13.191467,,+49 30 3337570,,,limited
Taverna Argo,restaurant,greek,"Buschkrugallee 54, 12359 Berlin",52.4585746,13.4474894,,+49 30 6069848,"Mo,We-Sa 16:00-24:00; Su 16:00-21:00; Tu off",yes,yes
Afro-Base,restaurant,Nigerian,"Buschkrugallee 103, 12359 Berlin",52.454845,13.4509184,https://ematondo.com/directory/afro-base/,,Mo-Sa 10:00-23:00,,yes
Villa Fellini,restaurant,italian,"Rudower Straße 35, 12351 Berlin",52.4407417,13.4592066,,+49306015376,Tu-Su 12:00-22:00,,no
Santa Lucia,restaurant,italian,"Neuköllner Straße 280, 12357 Berlin",52.4238137,13.4854959,,+493060973920,Mo-Su 11:30-23:00,,limited
Marco Polo Due,restaurant,italian,10369 Berlin,52.5298871,13.4713873,,,Mo-Su 11:00-22:00,,yes
El Pasto,restaurant,,"Maximilianstraße 1, 13187 Berlin",52.5613148,13.4126857,https://elpasto-restaurant.de,+493037464791,Mo-Th 12:00-23:00; Fr 15:00-23:30; Sa 12:00-23:30; Su 10:00-22:00,,limited
Chinarestaurant Hey Cheuk Lau,restaurant,chinese,"Breite Straße 4 A, 13187 Berlin",52.5717079,13.4118228,,+49 30 4851796,"Tu-Fr,Su 11:30-22:00; Sa 11:30-23:00",,limited
Venue,cafe,,"Weserstraße 172, 12045 Berlin",52.4841453,13.439611,,,Mo-Su 10:00-17:00,,no
BigPan,restaurant,international;vietnamese;sushi,"Medebacher Weg 16, 13507 Berlin",52.5869707,13.2810335,https://tegelberlin.bigpan.de/,,Mo-Sa 11:00-22:00,,
Annhi Food,restaurant,,"Karl-Marx-Straße 215, 12055 Berlin",52.470614,13.4417032,,,,,
Il Nuovo,restaurant,italian,"Zadekstraße 1, 12351",52.4373884,13.4626701,,,Mo-Su 12:00-23:00,,limited
SuBo Club,restaurant,,,52.4670789,13.436535,,,,,
Café Rosenrot,cafe,coffe_shop,,52.5713907,13.4090296,,,Mo-Su 10:00-18:00,,no
Hua Li Du,restaurant,chinese,"Dietzgenstraße 11a,  Berlin",52.580804,13.403633,,,Mo 12:00-20:00; We-Su 12:00-21:00; Tu off,yes,no
Mamma Mia,restaurant,pizza,,52.5814344,13.4050901,,,"Mo-Fr 12:00-22:00; Sa,Su 17:00-22:00",,no
Eis-Cafe Kubitza,cafe,,"Dietzgenstraße 22, 13156 Berlin",52.5819179,13.4043582,https://www.cafe-kubitza.de/,+49 30 4762033,Mo-Su 13:00-18:00,yes,no
Johns,cafe,,,52.5834832,13.4034581,,,Mo-Fr 06:00-18:00; Sa 07:00-12:00; Su 08:00-11:00,,yes
Acapulco,restaurant,mexican,"Karl-Marx-Allee 115, 10243 Berlin",52.5170849,13.4469255,,,"Mo-Fr 16:00-24:00+, Sa,Su,PH 11:00-24:00+",,yes
Prager Hopfenstube,restaurant,german;international,"Karl-Marx-Allee 127, 10243 Berlin",52.5169088,13.4483943,,+49304267367,Sa 11:00-24:00; Mo-Th 14:00-24:00; Fr 12:00-24:00; Su 11:00-22:00,,no
Kos House,restaurant,greek,"Karl-Marx-Allee , 10243 Berlin",52.5168612,13.4488232,https://koshouse.de/,+49 30 4225949,Mo-Su 12:00-24:00,,no
Alpenwirt,restaurant,german,"Karl-Marx-Allee 90a, 10243 Berlin",52.5163737,13.4413767,,,Mo-Su 11:30+,,yes
Luise,restaurant,german,"Königin-Luise-Straße 40-42, 14195 Berlin",52.4578205,13.2913928,,,Tu-Su 11:00-23:30,,limited
Espresso House,cafe,coffee_shop,"Albrechtstraße 131, 12165 Berlin",52.4571248,13.3219704,https://de.espressohouse.com/,,,yes,no
Zagreb,restaurant,croatian,"Steglitzer Damm 54, 12169 Berlin",52.4500364,13.3452012,,,Mo-Su 11:30-23:00,,no
Taverna Olympia,restaurant,greek,"Emser Straße 73, 12051 Berlin",52.4672469,13.4212943,https://taverna-olympia.de,+49 30 6262192,"We-Mo,PH 16:30-23:00",,yes
Neue Zukunft Ostkreuz,bar,,"Alt-Stralau 68, 10245 Berlin",52.4974597,13.4658621,https://neue-zukunft.org/,,"Mo-Fr 17:30-03:00, Sa,Su 15:30-03:00",,
Roderich,bar,,,52.5706008,13.409664,,,Mo-Su 17:00+,,limited
Café Impuls,cafe,,"Breite Straße 49, 13187 Berlin",52.5717507,13.4147236,https://cafeimpuls.de/,+49 30 91422017,"Mo-Tu 10:00-11:30,19:30-21:30; We 10:00-11:30,15:00-18:00; Th 16:00-18:00; Fr 19:30+",,limited
Ga Ya Ya,restaurant,asian,"Reinhartstraße 11,  Berlin",52.5691046,13.4112185,https://www.gayaya-berlin.de/,01749882269,,,
Eatalian Trattoria,restaurant,italian,"Oderstraße 8, 10247 Berlin",52.5111372,13.4685991,,+49 30 26948191,Tu off; We-Mo 16:00-23:00,,
Kane Mam,restaurant,greek,"Weichselstraße 20a, 10247 Berlin",52.51085,13.4687486,,,Tu-Sa 16:00-18:00+; Su 12:00-18:00+,,yes
Dopamine Café,cafe,,"Grußdorfstraße 12-13, 13507 Berlin",52.5885781,13.2855239,,,Mo-Sa 09:00-19:00; Su 10:00-19:00,,yes
Seeblick,cafe,,,52.5619796,13.2462072,,,,,
Fährhaus Saatwinkel,restaurant,german,"Im Saatwinkel 15, 13599 Berlin",52.5592936,13.2394321,,,May-Sep Tu-Su 12:00+,,yes
Society,bar,,"Stendaler Straße 25, 12627 Berlin",52.5380648,13.6040719,,+49-30-9953921,,,limited
Hellersdorfer Krug,restaurant,,,52.5384826,13.591563,,,,,
Steakrestaurant Rivado,restaurant,steak_house,,52.4133986,13.4215367,https://www.rivado-steakhaus.de/,,,,yes
Trattoria RetroGusto,restaurant,italian,"Ernst-Arndt-Weg 13, 12349 Berlin",52.4144675,13.4215254,http://www.retrogusto.de,+4930897740395,Tu-Fr 15:00-22:00; Sa-Su 12:00-22:00,,yes
Maya,restaurant,indian,"Türrschmidtstraße 36, 10317 Berlin",52.5032338,13.4806506,,,Tu-Su 12:00-23:00; Mo 16:00-23:00,yes,no
Trattoria Lugana,restaurant,italian,,52.4210262,13.2976603,,,Tu-Sa 16:00-23:00; Su 12:00-23:00,,no
Thai by thai,restaurant,thai,Goerzallee 111,52.4222197,13.2993941,,+49 30 862037337,Mo-Su 12:00-22:00,,
La Rocca,restaurant,pizza,,52.4176497,13.3046587,,,,,limited
Dolce Vita,cafe,ice_cream,"Lindenstraße 1, 12207 Berlin",52.4175822,13.3053628,,,"Oct-Mar PH,Mo-Su 09:00-19:00; Apr-Sep PH,Mo-Su 09:00-22:00",yes,yes
Quanto Basta,restaurant,italian,"Leibnizstraße 74, 10625 Berlin",52.5073318,13.3138018,https://quantobastaberlin.com/,+49 30 32303997,We-Mo 17:00-23:00; PH We-Mo 17:00-23:00,,no
Café Rix,cafe,german,"Karl-Marx-Straße 141, 12043 Berlin",52.4770501,13.4396823,,,10:00-24:00,,yes
Jolesch,restaurant,austrian,"Muskauer Straße 1, 10997 Berlin",52.50062,13.4338915,,,Mo-Su 17:00-22:00,,no
Der Berliner,restaurant,,12051 Berlin,52.4630606,13.4344472,,,,,
Mekan 36,restaurant,,,52.5034483,13.4298539,,,,,
Antica Roma,restaurant,italian,"Am Treptower Park 37, 12435 Berlin",52.4863289,13.4651538,https://www.antica-roma-treptow.de/,+49 30 5337456,Mo-Su 11:00-23:00,yes,yes
Cafe Tribune,cafe,,12059 Berlin,52.4792298,13.4455331,,,,,
Café & Restaurant OHA,restaurant,breakfast;burger;cake;coffee_shop;sandwich,"Sonnenallee 127, 12059 Berlin",52.4802644,13.4434219,https://www.ohaberlin.de/,015773675565,We-Sa 10:00-19:00; Su 10:00-19:00; Tu 12:00-19:00,,limited
19:77,restaurant,american;mexican,"Weserstraße 159, 12045 Berlin",52.4824529,13.4430471,https://www.ramonesmuseum.com/19-77-vegan-diner-bar/,+49 171 6877336,Mo-Th 16:00-23:00; Fr 16:00-01:00; Sa 12:00-01:00; Su 12:00-23:00,,limited
Cafe Sgaminegg,cafe,coffee_shop,"Seelower Straße 2, 10439 Berlin",52.5504144,13.4104738,https://sgaminegg.de,,Tu-Fr 09:00-18:00; Sa 09:30-18:00,,no
Enjoy,cafe,,,52.4265984,13.3038598,,,,,limited
Blechbilderbar,bar,,"Simon-Dach-Straße 35, 10245 Berlin",52.5099802,13.4564546,,,"Mo-Fr 15:00-24:00+, Sa,Su 10:00-24:00+",,yes
Thai Curry,restaurant,thai,"Schreinerstraße 51, 10247 Berlin",52.5173776,13.4661322,,,"Mo-Fr 11:30-23:30; PH,Su 12:00-22:30; Sa 17:00-22:30",,no
Suppengrün,restaurant,soup;salad;quiche,"Inselstraße 1, 10179 Berlin",52.5120914,13.412762,,,"Mo-Fr 07:30-15:00,Sa 08:00-13:00",,limited
Kuchi,restaurant,sushi,"Gipsstraße 3, 10119 Berlin",52.527223,13.3992573,,+49 30 28386622,Mo-Sa 12:00-23:00,,limited
Anabelas Kitchen,restaurant,,"Pestalozzistraße 2, 10625 Berlin",52.5075921,13.3199919,https://www.anabelas-kitchen.de/,+4930 2870122 4,We-Sa 18:00-23:30,,limited
5 SENSES Restaurant,restaurant,vietnamese,"Rothenbachstraße 30, 13089 Berlin",52.5698316,13.4370207,,+493047376293,"Mo-Su, 11:00-22:00",,yes
Villa Medici,restaurant,italian,"Spanische Allee 1-3, 14129 Berlin",52.4299557,13.2239573,http://www.villa-medici-berlin.de/,+49 30 8021143,Tu-Su 11:30-00:00,,limited
Crispy's Chicken,restaurant,,"Sonntagstraße 3, 10245 Berlin",52.5047761,13.4676942,,,,,no
Escobar,bar,,,52.4974062,13.4538746,,,,,
Jalla Jalla,restaurant,,,52.548903,13.412019,https://www.jallajalla-restaurant-berlin.de/,+49 30 4486388,Mo-Su 16:00-24:00,,limited
Coffeebar,cafe,,,52.4553114,13.5246833,,,Mo-Th 11:00-17:15; Fr 11:00-16:00,,yes
Aftab,restaurant,persian,"Kastanienallee 90, 10435 Berlin",52.5381002,13.409471,https://aftab-persianstreetfood.de/,+49 177 36 93 89 5,"PH,Mo-Su 11:00-22:00",yes,no
Chi Dang,restaurant,vietnamese,"Lausanner Straße 79, 12205 Berlin",52.4269354,13.3023649,,+49 30 81098660,"Mo-Fr 11:00-23:00, Sa,Su 12:00-23:00",yes,yes
Pratirio,restaurant,greek,"Knesebeckstraße , 10623 Berlin",52.5070766,13.3223211,https://www.pratirio.de/,+49 30 54710930,"Mo-Th 16:00-24:00, Fr,Sa 16:00-01:00, Su 13:00-24:00",,no
Berlin Pavillon am Reichstag,cafe,,"Scheidemannstraße 1, 10557 Berlin",52.5176023,13.3737245,,,Mo-Su 09:00-20:00,,yes
Mathe Caféteria,restaurant,,"Straße des 17. Juni 136, 10623 Berlin",52.5133975,13.326166,https://mathe-cafe-tu.de/,,Mo-Fr 08:00-15:00,,no
Pianocafé am Lietzensee,cafe,,"Neue Kantstraße 20, 14057 Berlin",52.5063206,13.2850956,,,"Mo-Fr 08:00-19:00; Sa,Su 09:00-19:00",,no
Hongkong Canteen,restaurant,chinese,"Leonorenstraße 60, 12247 Berlin",52.4397858,13.3427571,,,Mo-Fr 12:00-22:00; Sa-Su 11:00-22:00,yes,limited
Café Morgenrot,cafe,,"Kastanienallee 85, 10435 Berlin",52.5375349,13.4088525,,,Mo off; Tu-Th 15:00-02:00; Fr-Su 11:00-02:00,,limited
Trattoria Libau,restaurant,italian;pizza,"Libauer Straße 10, 10245 Berlin",52.5085763,13.4527813,https://www.trattoria-libau-berlin.de/,,,,limited
Schnitzelei,restaurant,german,"Landauer Straße 8, 14197 Berlin",52.473023,13.317513,https://schnitzelei.de/wilmersdorf/,+49 30 8217615,Mo-Sa 16:00-23:00; Su 12:00-23:00,,no
Country Cheers,bar,,"Karl-Marx-Allee 63, 10243 Berlin",52.5184638,13.4322518,,,"Mo-Th 16:00-24:00, Fr 15:00-24:00, Sa 12:00-24:00, Su 12:00-22:00",,limited
Tapiocaria,cafe,brazilian,"Samariterstraße 34a, 10247",52.5163204,13.4648762,,,,,limited
Roma,restaurant,italian;pizza,"Belziger Straße 60, 10823 Berlin",52.4854106,13.3476879,,+49 30 7811580,11:30-23:00,,limited
Zart,bar,,"Schinkestraße 14, 12047 Berlin",52.4943163,13.4250735,,,"Tu-Su 15:00-22:00, Tu,Fr 10:00-15:00 ""on market days""",,limited
Taverna Odysseus,restaurant,greek,"Friedelstraße 37, 12047 Berlin",52.4924787,13.4277676,,,Mo-Su 16:00-23:00,,no
Pho Phan,restaurant,vietnamese,"Hermannstraße 151, 12051 Berlin",52.4656864,13.4326075,,,Mo-Sa 11:30-23:00; Su 12:00-23:30,,limited
Mr. Minsch,cafe,,"Yorckstraße 15, 10965 Berlin",52.493531,13.3820141,,,"Mo-Fr 11:00-18:00; Sa, Su 10:00-18:00",,limited
Yorckschlösschen,restaurant,burger;fries;mediterranean;french;bavarian;regional;german;salad;sandwich,"Yorckstraße 15, 10965 Berlin",52.4936224,13.3822703,https://www.yorckschloesschen.de/,+49 30 2158070,"Su-Th 18:00-24:00, Fr,Sa 18:00-01:00",,no
Yolanda,bar,,"Senefelderstraße 27, 10437 Berlin",52.5419559,13.4228267,,,,,no
N/A,cafe,,,52.5269736,13.5084488,,,,,yes
Albert’s Restaurant,restaurant,,,52.5054658,13.3022107,https://www.alberts-restaurants.de/,+49 30 41996940,Su-Th 16:30-24:00;Fr-Sa 16:30-02:00,,yes
Vogelweide,restaurant,french,13507 Berlin,52.5882819,13.281368,,,,,no
Waffle Brothers,cafe,,,52.5880587,13.2849445,,,,,
Rüan-Thai,restaurant,thai,"Brunowstraße 8, 13507 Berlin",52.5879682,13.2861453,,,,,limited
Darjiling,restaurant,indian,"Alt-Tegel 25, 13507 Berlin",52.5885132,13.2792435,https://www.restaurant-darjiling.de/,+493043004565,Mo-Su 12:00-24:00,,limited
Lucky chinese,restaurant,chinese,"Alt-Tegel 29, 13507 Berlin",52.5882734,13.2785483,http://www.lucky-chinese.de/,+49304335033,Mo-Su 11:30-23:00,,limited
Bricole,restaurant,french;fine_dining,"Senefelderstraße 30, 10437 Berlin",52.5410039,13.422396,,,Tu-Sa 18:00+,,no
Cafeteria,cafe,,,52.5139107,13.4952827,,,"Mo-Fr 09:00-13:30,14:00-18:00",,yes
Gasthaus Bielefeldt,restaurant,german,,52.517483,13.5167687,,,"Tu-Su,PH 11:00+",,yes
Rodelhütte,restaurant,,,52.4555788,13.2504993,,,,,
Asia Rong-Vang,restaurant,,"Frankfurter Allee 73, 10247 Berlin",52.5148421,13.4683911,https://www.rong-vang.de/,,Mo-Fr 10:00-21:00; Su 15:00-21:00; Sa off,,yes
Café Kent 3,cafe,,"Weisestraße 64, 12049 Berlin",52.4799669,13.423336,,,,,
Burger World,restaurant,burger,Oderberger Straße 16,52.5392981,13.408303,,,,,no
Kiezkantine,restaurant,regional,Oderberger Straße 50,52.5387906,13.4085542,http://www.pinel-online.de/index.php?id=1048,+49-30-4484484,Mo-Fr 10:00 - 15:45,,no
Eastmoon,restaurant,vietnamese,"Eberswalder Straße 1, 10437 Berlin",52.5405635,13.4050687,,,Mo-Su 11:30-23:00,,no
Desha - Aceto Lokanta,restaurant,pizza;pasta,"Elsenstraße 26, 12435 Berlin",52.4891404,13.4539282,http://www.acetolokanta.de,+49 30 53 21 91 10,,,limited
"Trude, Ruth und Goldammer",bar,,"Flughafenstraße 38, 12053 Berlin",52.4812916,13.4279168,https://www.ruthgoldammer.de/,+49 30 6248390,"Mo 17:00-2:30, Tu,We 17:00-2:00, Th 17:00-3:00, Fr-Sa 17:00-4:00, Su 17:00-1:00",,limited
Thanh Nam Restaurant,restaurant,asian,"Alfred-Kowalke-Straße 38, 10315 Berlin",52.5058596,13.5162528,,,Mo-Th 11:00-22:00; Fr-Su 11:00-23:00,yes,yes
Asado,restaurant,steak_house,"Scharnweberstraße 67, 13405 Berlin",52.5682073,13.3103493,http://www.asado-steakhaus.de,+49 30 4138313,Mo-Su 11:00-24:00,,yes
Restaurant Breslau,restaurant,polish,"Prenzlauer Allee 205, 10405 Berlin",52.5374936,13.4227315,,±49 30 91441017,Mo-Fr 17:00-22:00; Sa 16:00 - 23:00; Su 12:00-22:00,,no
Thai Aroma,restaurant,vietnamese;thai,"Dunckerstraße 18, 10437 Berlin",52.5435082,13.421911,,,Tu-Su 12:00-22:30,,no
Bar Misirlou,bar,,"Dunckerstraße 10, 10437 Berlin",52.5423488,13.4208673,,,"Mo-Th 14:30-03:00, Fr 14:30-05:00, Sa 12:30-05:00, Su 12:30-03:00",,no
Café Liebling,cafe,,"Raumerstraße 36a, 10437 Berlin",52.5421007,13.4206554,http://www.cafe-liebling.de,,"Mo-Fr 09:00+; Sa,Su 10:00+",,no
Trattoria Ischia,restaurant,italian,"Mecklenburgische Straße 85, 10713 Berlin",52.4820229,13.3169195,,,,,
Tulum,restaurant,mexican,"Am Volkspark 85, 10715 Berlin",52.4830042,13.3206303,http://www.tulum-restaurant.de,+493085967092,"Mo-Fr 16:00+, Sa-Su 12:00+",,yes
Ristorante Ischia,restaurant,italian;pizza,"Berliner Straße 124, 10713 Berlin",52.486403,13.3190161,http://www.ristoranteischia.de/,+49 0308221178,Mo-Fr 11:30-24:00; Sa 17:00-24:00,yes,no
Ristorante Botticelli,restaurant,italian,"Badensche Straße 33, 10715 Berlin",52.4861096,13.3290308,https://ristorante-botticelli.de,,Tu-Su 11:30-23:30; Mo off,,yes
Latichte,restaurant,german,"Alt-Reinickendorf 29a, 13407 Berlin",52.5761007,13.3487877,https://www.latichte-alt-reinickendorf.de/,+49 30 4952168,Mo-Sa 16:00-24:00,,no
Al Hamra,restaurant,arab,"Raumerstraße 16, 10437 Berlin",52.54176,13.4211058,,,"Mo-Th 10:00-02:00, Fr-Su 10:00-03:00",,limited
Đống Đa,restaurant,vietnamese,"Pfarrstraße 121, 10317 Berlin",52.5044617,13.4765842,,,Tu-Su 11:30-21:30,,no
Ausbildungsrestaurant Am Kuhgraben,restaurant,regional,"Pfarrstraße 111, 10317 Berlin",52.5053318,13.4776931,https://www.sozdia.de/Kuhgraben.87.0.html,+49 30 5530463,Mo-Fr 09:00-15:00,,limited
Jelänger Jelieber,restaurant,regional,"Kaskelstraße 49, 10317 Berlin",52.5037992,13.4818809,,+49 30 55576067,Tu 11:30-14:30; We-Fr 11:30-23:00; Sa 17:00-23:00,,no
JAS,restaurant,regional,"Kaskelstraße 27, 10317 Berlin",52.504447,13.4792013,,,17:00-18:00+,,no
Liberda,bar,,"Pflügerstraße 19, 12047 Berlin",52.4915467,13.4287957,,,Mo-Su 17:00-23:30,,no
Goa II,restaurant,indian,"Gleimstraße 17-18, 10437 Berlin",52.5471344,13.4088007,https://www.goa2-berlin.de/,,Mo-Su 12:00-24:00,,yes
Blaue Laguna,restaurant,,"Alt-Tegel 28, 13507 Berlin",52.5885603,13.2782886,,+49304339744,Tu-Su 12:00-22:00,,no
Kalogria,restaurant,greek,"Brunowstraße 50, 13507 Berlin",52.5874588,13.2845068,,,,,no
Don Giuseppe,restaurant,italian,"Berliner Straße 13, 13507 Berlin",52.5874017,13.2855961,,,,,no
Sun Wah,restaurant,chinese,"Alt-Tegel 4, 13507 Berlin",52.5897292,13.2821161,https://www.chinarestaurant-berlin-tegel.de/,+49 30 4335063,"Mo,We-Su 11:30-22:00",,limited
Vinpearl,restaurant,vietnamese;japanese,"Raumerstraße 14a, 10437 Berlin",52.5420386,13.4199225,,,Mo-Su 12:00-24:00,,limited
Restaurantschiff Capt'n Schillow,restaurant,,"Straße des 17. Juni 113, 10623 Berlin",52.5126761,13.3319825,,+49 30 31505015,"Apr Mo-Fr 12:00-23:00; Apr,May-Sep,Oct-Dec Sa 11:00-22:00; Apr,May-Sep,Oct-Dec Su 11:00-21:00; May-Sep Mo-Fr 16:00-22:00; Oct-Dec We-Fr 12:00-00:00",,no
Rangla Punjab,restaurant,indian,"Köpenicker Straße 36, 12524 Berlin",52.4200378,13.5387198,,,Mo-Su 11:30-23:00,yes,no
China Haus,restaurant,chinese,,52.4191688,13.5380998,,,Mo-Su 12:00-23:00,,no
Da Gatto Nero,restaurant,pizza;italian,"Rapunzelstraße 49, 12524 Berlin",52.4173006,13.5295839,https://da-gatto-nero.eatbu.com,+49 30 67896763,"Tu-Fr 15:00-23:00; Sa,Su 12:00-23:00",,yes
Kinder Kochspaß. Kochschule & Familienrestaurant,restaurant,,"Binger Straße 9, 14197 Berlin",52.4761662,13.3094167,,+49 30 639 63 095,,,
Bistro Waldschulallee,cafe,,,52.5015112,13.2604007,https://www.tu-berlin.de/menue/service/campus_leben/mensen_cafes/,,Mo-Fr 17:00-23:00; Sa 10:00-19:00; Su 10:00-17:00,,
Eventschiff „arsVivendi“,restaurant,,"Freiheit 15, 12555 Berlin",52.4481797,13.5763618,https://www.freiheit15.de/,+49 30 65887825,"We-Su,PH 12:00-21:00",,no
Aao Ji Restaurant,restaurant,indian,"Alt-Köpenick 1, 12555 Berlin",52.4477715,13.575628,,,Mo-Th 12:00-23:00; Fr-Su 12:00-24:00,,limited
Asteria,restaurant,greek,"Alt-Köpenick 6, 12555 Berlin",52.4470681,13.5751589,,+49 30 65496489,Mo-Sa 14:00-23:00; Su 14:00-22:00,,yes
Cozymazu,restaurant,taiwanese,"Sprengelstraße 39, 13353 Berlin",52.5418601,13.3560441,http://www.cozymazu.com/,+49 15152147750,We-Fr 17:00-22:00; Sa-Su 11:00-22:00; 2021 Dec 20-2022 Jan 14 closed,,no
Freya Fuchs,bar,,"Tegeler Straße 34, 13353 Berlin",52.5419903,13.3567093,,,Mo-Su 18:00-04:00,,yes
Naveena Path,restaurant,indian,"Tegeler Straße 22, 13353 Berlin",52.5417933,13.3575184,,,Mo-Su 11:30-23:00,,yes
Göttlich essen & trinken,cafe,sandwich;breakfast,"Tegeler Straße 23, 13353 Berlin",52.5419608,13.3574263,,+49 30 52666685,Mo-Fr 09:00-17:00; Sa-Su 10:00-17:00,,no
Tex-Mex Cantina,restaurant,mexican,"Georgenstraße , 10117 Berlin",52.5199995,13.390001,,,"Mo-Th 01:00-24:00, Fr,Sa 01:00-24:00+, Su,PH 01:00-24:00",,no
Bavarian,restaurant,german,"Askanischer Platz 4, 10963 Berlin",52.5041463,13.3812523,,,,,
Veli's Restaurant,restaurant,,"Stresemannstraße 95, 10963 Berlin",52.5055987,13.3805743,http://velis-restaurant.de/,,,,no
Essenza,restaurant,,"Potsdamer Platz 1, 10785 Berlin",52.5091686,13.3755065,,,"Mo-Fr 11:00-24:00, Sa 12:00-24:00",,yes
Café Lebensart,cafe,,"Unter den Linden 69, 10117 Berlin",52.5162817,13.3822317,https://www.cafe-lebensart.de/cafe-unter-den-linden/,,"Mo-Th 09:00-20:00, Fr-Su 09:00-22:00",,no
Alt-Berliner Wirtshaus,restaurant,german;regional,"Wilhelmstraße 77, 10117 Berlin",52.514324,13.3814055,,,Mo-Su 11:00-23:00+; Dec 24 off,,no
Hopfingerbräu im Palais,restaurant,international,"Ebertstraße 24, 10117 Berlin",52.5171689,13.3776044,,,Mo-Su 11:00-24:00,,yes
Amrit,restaurant,indian,"Ebertstraße 14, 10117 Berlin",52.510618,13.377088,,,Mo-Su 11:30-24:00; Fr-Sa 11:30-01:00,,limited
Osteria Caruso,restaurant,italian,"Köthener Straße 38, 10963 Berlin",52.506311,13.3770107,https://www.osteria-caruso.de/,+49 30 23004574,Mo-Fr 12:00-24:00; Sa 15:30-24:00,,no
Cafe Buchhandlung,cafe,international,"Tucholskystraße 32, 10117 Berlin",52.5261737,13.3937554,http://www.buchhandlung32.de/,,11:00+,,no
Mido,restaurant,sushi;vietnamese,"Wilmersdorfer Straße 94, 10629 Berlin",52.5011402,13.3077517,https://www.mido.berlin/,,Mo-Su 11:30-24:00,,no
Pizzeria Parisi,restaurant,,,52.588435,13.2790204,,+493052666164,Mo-Su 12:00-23:00,,limited
Magnifique,cafe,,"Damaschkestraße 38, 10711 Berlin",52.5014791,13.2971475,,,Mo-Fr 06:00-13:30; Sa 07:00-13:00; Su 07:00-12:00,,
Yedo,restaurant,asian,"Kastanienallee 18, 10435 Berlin",52.5382912,13.4091417,https://yedo-berlin.de/,,"PH,Mo-Su 12:00-23:00",,no
Piazza Mare,restaurant,italian,"Aalemannufer 31, 13587 Berlin",52.5731039,13.2234501,https://piazzamare.de/,+49 30 69565406; +49 30 89788467,Mo-Su 11:00-22:00,,limited
Maries Cuisine,cafe,international,"Hohenzollerndamm 151, 14199 Berlin",52.4856082,13.2985642,,,8:00 - 15:00,,no
Ciccia,restaurant,italian,"Anna-Louisa-Karsch-Straße 2, 10178 Berlin",52.5202562,13.4016458,,,,,yes
Viet Long,restaurant,vietnamese,"Hohenzollerndamm 54a, 14199 Berlin",52.4869146,13.2980715,,,12:00-22:00,,yes
Haus Schönwald,restaurant,steak_house,,52.5959902,13.3922912,,,,,
arema,restaurant,german,"Birkenstraße 30, 10551 Berlin",52.532242,13.3422769,,,Mo-Su 09:00-01:00,,limited
Ratskeller Köpenick,restaurant,regional,"Alt-Köpenick 21, 12555 Berlin",52.4455288,13.574635,http://www.ratskeller-koepenick.de,+49 30 6555178,Tu-Su 12:00-22:00; Mo off,no,no
WaschBar mit Stephanus-Shop,cafe,,"Johannes-Kraaz-Straße 9, 12459 Berlin",52.4562244,13.5263792,,,Mo-Th 07:30-14:30; Fr 07:30-13:30,,yes
Zur Sonne,cafe,,,52.575032,13.2242449,,,,,
Pong's,restaurant,chinese,"Jörsstraße 14, 13505 Berlin",52.5730024,13.2267306,,,12:00-21:30,,no
Carpe Diem,restaurant,italian,,52.4115692,13.3424025,,,"Mo,We-Sa 12:00-16:00; Tu,Su off",,yes
Yumcha Heroes,restaurant,chinese,"Weinbergsweg 8, 10119 Berlin",52.5311999,13.4027793,,,12:00-24:00,,no
Mad Monkey Room,bar,,"Danziger Straße 1, 10435 Berlin",52.5410639,13.4130081,,,Mo-Su 18:00+,,no
Lorch & Söhne,cafe,breakfast;cake;soup;bagel,"Danziger Straße 25, 10435 Berlin",52.5405112,13.4172239,,,"Mo-Fr 08:00-18:00; Sa,Su 09:00-18:00",,limited
meliá tapas,bar,spanish,Friedrichstraße 103,52.5216924,13.3883069,,,Mo-Su 12:00-24:00,,yes
Austernbank,restaurant,seafood,"Behrenstraße 42, 10117 Berlin",52.5159201,13.3917462,https://www.austernbank-berlin.de/,,Tu-Sa 17:00-24:00,,
James Simon Bar,restaurant,,"159/160, 10178 Berlin",52.5222074,13.398306,,,"Mo-Su,PH 12:00-24:00",,yes
Nadia + Kosta,cafe,,"Türrschmidtstraße 31, 10317 Berlin",52.5032645,13.4823881,,+49 178 2895049,Sa-Su 10:00-18:00; Mo-Fr 09:00-18:00,,no
Arjun,restaurant,indian,,52.5481798,13.5008641,,,Mo-Su 11:00-23:00,,no
Café Zwerg,cafe,,"Konrad-Wolf-Straße 7, 13055 Berlin",52.5482581,13.5001346,https://cafezwerg.de/,+49 151 29434752,"Fr 15:00-19:00; Sa,Su 10:00-19:00",,yes
K3 Lounge,cafe,,"Konrad-Wolf-Straße 3, 13055 Berlin",52.5487278,13.5009843,,+493098 31 77 55,,,yes
EL FUEGO BAR,bar,,,52.5486379,13.5016984,,,,,
Hard Rock Cafe,restaurant,american,"Kurfürstendamm 224, 10719 Berlin",52.5031121,13.3294737,,,"Su-Th 11:30-23:00; Fr,Sa 10:00-23:00",,yes
The Double Inn,bar,,"Wilhelminenhofstraße 89, 12459 Berlin",52.4617978,13.5120508,http://www.drink-irish.de,+49 30 530 10 666,"Su, Mo off; Tu-Th 18:00-24:00; Fr, Sa 18:00+",,limited
Raz,cafe,,"Müllerstraße 163, 13353 Berlin",52.5434493,13.3633758,,,,,
Wiesenbkick,restaurant,german,"Degnerstraße 7, 13053 Berlin",52.545972,13.4943222,,+4915203920740,Tu-Sa 12:00-23:00; Su 11:00-17:00,,yes
Speisegaststätte Pietschmanns,restaurant,,,52.543815,13.4923854,,,Tu-Su 12:00-21:30,,limited
Silverado,restaurant,steak_house,,52.5431236,13.490211,,,"Su-Th,PH 11:00-23:00; Fr,Sa 11:00-24:00",,limited
Joynes Kitchen,restaurant,french,"Mommsenstraße 42, 10629 Berlin",52.5034707,13.3063168,https://www.joynes-kitchen.de/,,Tu-Sa 17:30-24:00,,limited
Ristorante San Giorgio,restaurant,italian,"Mommsenstraße 36, 10629 Berlin",52.5037231,13.3050833,,,,,no
Club Restaurant,restaurant,,"Roedernstraße 16, 13053 Berlin",52.5445475,13.4860231,,,Mo-Fr 16:00-18:00,,
Katis,restaurant,,"Blissestraße 33, 10713 Berlin",52.4820186,13.3207418,http://www.bistro-katis.de/,,,,limited
Fire 1973 Restaurant,restaurant,vietnamese;sushi,"Mecklenburgische Straße 14, 10713 Berlin",52.4821103,13.3158023,https://fire1973.de,,Mo-Su 11:30-22:30,,yes
Ammazza che Pizza,restaurant,italian;pizza,"Maybachufer 21, 12047 Berlin",52.4935693,13.4273747,,,"Tu-Fr 17:00-22:00; Sa,Su 14:00-22:00",,limited
Celo Privat Bar,bar,,"Ohlauer Straße 37, 10999 Berlin",52.4946075,13.4295997,,,,,no
China-Restaurant Hui Feng,restaurant,chinese,"Hellersdorfer Promenade 24, 12627 Berlin",52.5414869,13.6067014,https://www.hui-feng.de/,+49 30 9942650,"Mo-Su,PH 12:00-22:00",,yes
N/A,restaurant,,"Malchower Weg 69, 13053 Berlin",52.5557817,13.5024118,,,,,
Mykonos,restaurant,greek,"Wendenschloßstraße 43, 12559 Berlin",52.4442928,13.5851398,,+49 30 65499219,Tu-Su 12:00-23:00; PH 12:00-23:00,,no
Little Long,restaurant,,"Wiener Straße 60, 10999 Berlin",52.4981055,13.4307414,,,,,
La Lupa,restaurant,italian,"Spreewaldplatz 6, 10999 Berlin",52.4985676,13.4311946,,,"We-Su 18:00-24:00; Mo,Tu off",,no
Cafe Dollinger,cafe,international,"Stuttgarter Platz 21, 10627 Berlin",52.5048357,13.2991984,,,Mo-Su 09:00-24:00,,limited
Pasta & Vino,restaurant,italian,"Stargarder Straße 72,  Berlin",52.5468186,13.417798,http://pasta-vino-berlin.de/,,Mo-Su 11:00-22:00,,no
Vegan Haus,restaurant,vietnamese,"Stargarder Straße 65, 10437 Berlin",52.545963,13.4198648,https://www.veganhaus-berlin.de/,03044716507,12:00-23:00,,no
Tante Grete,bar,,Stargarder Straße 10,52.5469427,13.4165427,,,Mo-Su 18:00+,,yes
Thakali Haus,restaurant,nepal;himalaya,"Stargarder Straße 13, 10437 Berlin",52.5466127,13.4175265,,,,,yes
Rymi-Sushi,restaurant,sushi,"Stargarder Straße 11, 10437 Berlin",52.5468545,13.4168492,,,,,
Trixie Bar,bar,,"Stargarder Straße 13, 10437 Berlin",52.5466467,13.4173898,,,,,yes
Caffè Monelli,cafe,italian,"Greifenhagener Straße 53, 10437 Berlin",52.5479554,13.4154754,http://www.caffemonelli.de,,"Mo,We-Fr 08:00-18:00; Sa,Su 10:00-18:30",,limited
'A Magica,restaurant,pizza,"Greifenhagener Straße 54, 10437 Berlin",52.5478883,13.4154013,https://www.amagica.de/,,Mo-We 17:00-23:00; Sa-Su 16:00-23:00; Th-Fr 12:00-23:00,yes,no
Baraka,restaurant,arab;moroccan,"Lausitzer Platz 6, 10997 Berlin",52.4997424,13.429924,http://restaurant-baraka.com/,,"Mo-Th, Su 11:00-24:00; Fr, Sa 11:00-01:00",yes,no
Crazy Kims,restaurant,korean,"Muskauer Straße 13, 10997 Berlin",52.5020683,13.4302482,,,Tu-Su 18:00-23:00,,
Marktlokal,restaurant,international,"Pücklerstraße 34, 10997 Berlin",52.5024466,13.4311003,,,Tu-Fr 18:00+; Sa 12:00+,,no
Enzian,restaurant,,"Witzlebenstraße 31, 14057 Berlin",52.508547,13.293975,,,,,
Gaststätte am Kreuzberg,restaurant,,"Monumentenstraße 22, 10965 Berlin",52.4879044,13.3763836,,,,,
+39,restaurant,italian,"Möckernstraße 73a, 10965 Berlin",52.4897934,13.3795333,,,"Mo-Sa 17:00-23:00; PH,Su 14:00-23:00",yes,limited
507,cafe,,"Veitstraße 40a, 13507 Berlin",52.5859108,13.2866935,,,,,
Bio Company,cafe,,"Dircksenstraße 145-147, 10178 Berlin",52.523162,13.4041367,,,Mo-Sa 08:00-21:00,yes,limited
Sichuan China-Restaurant,restaurant,chinese,"Albrechtstraße 92, 12167 Berlin",52.4522392,13.333892,,,Tu-Su 12:00-23:00; Mo off,yes,
Van Loon,restaurant,regional,"Carl-Herz-Ufer 5, 10961 Berlin",52.4958875,13.4070158,,,"We-Fr 13:00-18:00+; Sa,Su 10:00-18:00+",,no
Yame Numnums Sushi,restaurant,japanese,"Friedelstraße 24, 12047 Berlin",52.4919717,13.4281585,https://www.yamenumnums.com/,,Mo-Su 12:00-22:30,,
Galbi-House,restaurant,korean,"Buchholzer Straße 5, 10437 Berlin",52.5451976,13.4149071,,+49 1515 3556789,,,no
Crossroads,bar,,"Gneiststraße 10, 10437 Berlin",52.5442189,13.4155164,https://crossroadsbarberlin.wordpress.com/,,Tu-Su 20:00-00:00,,no
Tres Tapas,restaurant,spanish,"Lychener Straße 30, 10437 Berlin",52.5431965,13.4171996,,,Mo-Su 17:00-01:00,,limited
Mr. Hoang,restaurant,vietnamese,"Gerichtstraße 30, 13347 Berlin",52.5449918,13.3688879,http://www.misterhoang.de/,,"Mo,Tu,Th,Fr 11:30-22:30; Sa,Su 12:30-22:30",,limited
Le Balto,bar,,"Hobrechtstraße 28, 12047 Berlin",52.490927,13.4262755,,,We-Th 16:00-23:00; Fr-Sa 16:00-23:30; Su 16:00-22:00,,limited
Gazzo,restaurant,pizza,"Hobrechtstraße 57, 12047 Berlin",52.4912144,13.4258819,,,"Mo-Fr 12:00-22:00; Sa,Su 12:00-23:00",,limited
Kotti Dang,restaurant,vietnamese,"Lenaustraße 28, 12047 Berlin",52.4900743,13.4245113,,,Mo-Su 11:30-23:00,,limited
Monsieur Vuong,restaurant,vietnamese,"Alte Schönhauser Straße 46, 10119 Berlin",52.5266247,13.4078977,,,"Mo-Th, Su 12:00-22:00; Fr, Sa 12:00-22:30",yes,no
La Paz,restaurant,mexican,"Kurt-Weill-Gasse 7, 12627 Berlin",52.5377384,13.6033371,http://www.lapaz-berlin.de/,+49 30 99498457,"Su-Th 10:00-24:00, Fr,Sa 10:00-01:00",,limited
Frau Behrens Torten,cafe,,"Wilmersdorfer Straße 96-97, 10629 Berlin",52.50166,13.3079215,,,Mo-Su 10:00-19:00,,limited
Wiener Conditorei am Hagenplatz,cafe,,"Hagenplatz 3, 14193 Berlin",52.483723,13.2674353,http://wiener-conditorei.de/conditorei/am-hagenplatz/,,Mo-Su 07:30-19:00,,no
Do-Long,restaurant,asian,"Wilmersdorfer Straße 29, 10585 Berlin",52.5133263,13.304743,,,Mo-Su 11:00-22:00,,no
