bsn,school_name,school_type_de,ownership_en,school_category_de,district,neighborhood,postal_code,street,street_number,website,school_year,school_category_en,total_students,students_f,students_m,teachers_total,teachers_f,teachers_m,startchancen_flag,lon,lat,schoolinductionzones_id,district_id
01A04,Berlin-Kolleg,Kolleg,Public,Andere Schule,Mitte,Moabit,10551,Turmstraße,75,https://www.berlin-kolleg.de,2024/25,Other School,,,,,,,False,13.334,52.527,109.0,01
01B01,"OSZ Banken, Immobilien und Versicherungen",Oberstufenzentrum,Public,Berufsschule,Mitte,Moabit,10557,Alt-Moabit,10,https://www.osz-biv.de,2024/25,Vocational School,1603.0,642.0,961.0,76.0,41.0,35.0,False,13.358,52.524,46.0,01
01B02,Staatliche Technikerschule Berlin,Fachschule,Public,Berufsschule,Mitte,Moabit,10555,Bochumer Straße,8B,https://www.technikerschule-berlin.de,2024/25,Vocational School,480.0,56.0,424.0,57.0,25.0,32.0,False,13.338,52.523,87.0,01
01B03,"OSZ Kommunikations-, Informations- und Medientechnik",Oberstufenzentrum,Public,Berufsschule,Mitte,Gesundbrunnen,13359,Osloer Straße,23,https://www.oszkim.de/wp,2024/25,Vocational School,1226.0,310.0,916.0,82.0,40.0,42.0,True,13.38,52.557,118.0,01
01B04,OSZ Gesundheit I,Oberstufenzentrum,Public,Berufsschule,Mitte,Wedding,13349,Schwyzer Straße,6,https://www.osz-gesundheit.de,2024/25,Vocational School,2902.0,2564.0,338.0,94.0,65.0,29.0,False,13.353,52.558,110.0,01
01G01,Grundschule am Arkonaplatz,Grundschule,Public,Grundschule,Mitte,Mitte,10115,Ruppiner Straße,47,https://grundschuleamarkonaplatz.de,2024/25,Primary School,426.0,191.0,235.0,34.0,28.0,6.0,False,13.4,52.537,42.0,01
01G02,Papageno-Grundschule,Grundschule,Public,Grundschule,Mitte,Mitte,10115,Bergstraße,58,http://www.papageno-grundschule.de,2024/25,Primary School,616.0,307.0,309.0,51.0,33.0,18.0,False,13.391,52.533,31.0,01
01G04,Kastanienbaum-Grundschule,Grundschule,Public,Grundschule,Mitte,Mitte,10119,Gipsstraße,23A,https://www.kastanienbaum-grundschule.de,2024/25,Primary School,415.0,200.0,215.0,26.0,22.0,4.0,False,13.402,52.527,17.0,01
01G05,Grundschule Neues Tor,Grundschule,Public,Grundschule,Mitte,Mitte,10115,Hannoversche Straße,20,https://www.neues-tor.de,2024/25,Primary School,389.0,206.0,183.0,35.0,25.0,10.0,False,13.381,52.527,28.0,01
01G07,GutsMuths-Grundschule,Grundschule,Public,Grundschule,Mitte,Mitte,10179,Singerstraße,8,https://www.gutsmuths-grundschule.de,2024/25,Primary School,410.0,201.0,209.0,34.0,27.0,7.0,False,13.424,52.516,4.0,01
01G08,Grundschule am Brandenburger Tor,Grundschule,Public,Grundschule,Mitte,Mitte,10117,Wilhelmstraße,52,https://grundschule.technik-4-you.de,2024/25,Primary School,514.0,257.0,257.0,39.0,31.0,8.0,False,13.383,52.513,8.0,01
01G10,City-Grundschule,Grundschule,Public,Grundschule,Mitte,Mitte,10179,Sebastianstraße,57,https://city-grundschule.de,2024/25,Primary School,605.0,305.0,300.0,41.0,32.0,9.0,False,13.409,52.508,4.0,01
01G11,Kurt-Tucholsky-Grundschule,Grundschule,Public,Grundschule,Mitte,Moabit,10559,Rathenower Straße,18,https://kurt-tucholsky-grundschule.de,2024/25,Primary School,684.0,337.0,347.0,59.0,44.0,15.0,False,13.353,52.53,72.0,01
01G15,Anne-Frank-Grundschule,Grundschule,Public,Grundschule,Mitte,Moabit,10557,Paulstraße,20B,https://www.anne-frank-grundschule.de,2024/25,Primary School,370.0,169.0,201.0,29.0,21.0,8.0,False,13.356,52.518,46.0,01
01G16,Moabiter Grundschule,Grundschule,Public,Grundschule,Mitte,Moabit,10557,Paulstraße,28,https://www.moabiter-grundschule.de,2024/25,Primary School,456.0,212.0,244.0,44.0,34.0,10.0,False,13.357,52.522,46.0,01
01G18,Carl-Bolle-Grundschule,Grundschule,Public,Grundschule,Mitte,Moabit,10551,Waldenserstraße,21,https://www.carlbolleschule.de,2024/25,Primary School,336.0,173.0,163.0,29.0,22.0,7.0,True,13.332,52.529,109.0,01
01G19,Hansa-Grundschule,Grundschule,Public,Grundschule,Mitte,Hansaviertel,10555,Lessingstraße,5,http://www.hansa-grundschule-online.de,2024/25,Primary School,420.0,204.0,216.0,31.0,27.0,4.0,False,13.34,52.521,87.0,01
01G24,Gottfried-Röhl-Grundschule,Grundschule,Public,Grundschule,Mitte,Wedding,13349,Ungarnstraße,75,https://www.gottfried-roehl-schule.de,2024/25,Primary School,471.0,226.0,245.0,43.0,35.0,8.0,False,13.357,52.556,110.0,01
01G25,Rudolf-Wissell-Grundschule,Grundschule,Public,Grundschule,Mitte,Gesundbrunnen,13357,Ellerbeker Straße,7,http://www.rudolf-wissell-grundschule.de,2024/25,Primary School,419.0,168.0,251.0,42.0,30.0,12.0,True,13.396,52.552,86.0,01
01G27,Gesundbrunnen-Grundschule,Grundschule,Public,Grundschule,Mitte,Gesundbrunnen,13357,Prinzenallee,8,https://gesundbrunnen-grundschule.de,2024/25,Primary School,514.0,258.0,256.0,49.0,36.0,13.0,True,13.383,52.553,86.0,01
01G28,Brüder-Grimm-Grundschule,Grundschule,Public,Grundschule,Mitte,Wedding,13353,Tegeler Straße,18,https://bggs-berlin.de,2024/25,Primary School,580.0,294.0,286.0,52.0,40.0,12.0,False,13.358,52.541,93.0,01
01G29,Wilhelm-Hauff-Grundschule,Grundschule,Public,Grundschule,Mitte,Gesundbrunnen,13359,Gotenburger Straße,8,https://wilhelm-hauff-grundschule.de,2024/25,Primary School,420.0,208.0,212.0,47.0,37.0,10.0,True,13.384,52.558,118.0,01
01G31,Wedding-Grundschule,Grundschule,Public,Grundschule,Mitte,Wedding,13347,Antonstraße,10,https://www.wedding-schule.de,2024/25,Primary School,513.0,250.0,263.0,53.0,44.0,9.0,True,13.364,52.547,110.0,01
01G32,Carl-Kraemer-Grundschule,Grundschule,Public,Grundschule,Mitte,Gesundbrunnen,13359,Zechliner Straße,4,http://www.carl-kraemer-gs.de,2024/25,Primary School,460.0,226.0,234.0,38.0,26.0,12.0,True,13.383,52.561,118.0,01
01G35,Humboldthain-Grundschule,Grundschule,Public,Grundschule,Mitte,Gesundbrunnen,13355,Grenzstraße,7,https://www.humboldthain-grundschule.de,2024/25,Primary School,403.0,208.0,195.0,39.0,31.0,8.0,True,13.38,52.543,57.0,01
01G36,Andersen-Grundschule,Grundschule,Public,Grundschule,Mitte,Gesundbrunnen,13359,Kattegatstraße,26,https://www.andersen-grundschule.de,2024/25,Primary School,367.0,171.0,196.0,32.0,22.0,10.0,True,13.389,52.565,118.0,01
01G37,Heinrich-Seidel-Grundschule,Grundschule,Public,Grundschule,Mitte,Gesundbrunnen,13355,Ramlerstraße,9,https://hsgs.berlin,2024/25,Primary School,506.0,247.0,259.0,46.0,38.0,8.0,True,13.393,52.547,86.0,01
01G38,Gustav-Falke-Grundschule,Grundschule,Public,Grundschule,Mitte,Gesundbrunnen,13355,Strelitzer Straße,42,http://www.gustav-falke-schule.de,2024/25,Primary School,491.0,227.0,264.0,40.0,33.0,7.0,True,13.392,52.538,42.0,01
01G39,Vineta-Grundschule,Grundschule,Public,Grundschule,Mitte,Gesundbrunnen,13355,Demminer Straße,27,http://www.vineta-grundschule.de,2024/25,Primary School,375.0,168.0,207.0,36.0,26.0,10.0,True,13.397,52.542,42.0,01
01G40,Möwensee-Grundschule,Grundschule,Public,Grundschule,Mitte,Wedding,13351,Afrikanische Straße,123,http://www.moewensee-schule.de,2024/25,Primary School,578.0,299.0,279.0,52.0,35.0,17.0,True,13.335,52.555,152.0,01
01G41,Erika-Mann-Grundschule,Grundschule,Public,Grundschule,Mitte,Wedding,13347,Utrechter Straße,25,https://erika-mann-grundschule.com,2024/25,Primary School,559.0,284.0,275.0,61.0,45.0,16.0,True,13.358,52.55,110.0,01
01G42,Anna-Lindh-Schule (Grundschule),Grundschule,Public,Grundschule,Mitte,Wedding,13351,Guineastraße,17,https://anna-lindh-schule.de,2024/25,Primary School,453.0,210.0,243.0,52.0,40.0,12.0,True,13.342,52.551,152.0,01
01G43,Albert-Gutzmann-Schule (Grundschule),Grundschule,Public,Grundschule,Mitte,Gesundbrunnen,13357,Pankstraße,70,https://www.gutzmannschule.de,2024/25,Primary School,447.0,208.0,239.0,39.0,26.0,13.0,True,13.376,52.549,110.0,01
01G44,Allegro-Grundschule,Grundschule,Public,Grundschule,Mitte,Tiergarten,10785,Lützowstraße,83,https://www.allegro-grundschule.de,2024/25,Primary School,442.0,224.0,218.0,49.0,38.0,11.0,True,13.363,52.503,45.0,01
01G45,Leo-Lionni-Grundschule,Grundschule,Public,Grundschule,Mitte,Wedding,13353,Willdenowstraße,11,https://www.leo-lionni-grundschule.de,2024/25,Primary School,549.0,264.0,285.0,51.0,37.0,14.0,True,13.361,52.544,93.0,01
01G46,Grundschule am Koppenplatz,Grundschule,Public,Grundschule,Mitte,Mitte,10115,Koppenplatz,12,https://schule-am-koppenplatz.de,2024/25,Primary School,748.0,367.0,381.0,56.0,41.0,15.0,False,13.398,52.528,17.0,01
01G47,Miriam-Makeba-Grundschule,Grundschule,Public,Grundschule,Mitte,Moabit,10555,Zinzendorfstraße,15,https://miriam-makeba-schule.de,2024/25,Primary School,461.0,235.0,226.0,47.0,34.0,13.0,False,13.331,52.523,87.0,01
01G48,Grundschule am Nordhafen,Grundschule,Public,Grundschule,Mitte,Wedding,10115,Boyenstraße,1,https://www.48-schule-berlin.de,2024/25,Primary School,490.0,245.0,245.0,35.0,27.0,8.0,False,13.373,52.538,57.0,01
01G49,49. Schule (Grundschule),Grundschule,Public,Grundschule,Mitte,Mitte,10179,Adalbertstraße,53,https://grundschule-adalbertstraße.de,2024/25,Primary School,176.0,87.0,89.0,17.0,17.0,,False,13.424,52.508,4.0,01
01K01,Willy-Brandt-Schule,Integrierte Sekundarschule,Public,Integrierte Sekundarschule,Mitte,Gesundbrunnen,13357,Grüntaler Straße,5,https://www.willybrandtschule.de,2024/25,Integrated Secondary School,677.0,299.0,378.0,75.0,41.0,34.0,True,13.386,52.551,86.0,01
01K02,Ernst-Schering-Schule,Integrierte Sekundarschule,Public,Integrierte Sekundarschule,Mitte,Wedding,13353,Lütticher Straße,47,https://ernst-schering-schule.de,2024/25,Integrated Secondary School,579.0,289.0,290.0,59.0,43.0,16.0,True,13.348,52.547,110.0,01
01K03,Ernst-Reuter-Schule,Integrierte Sekundarschule,Public,Integrierte Sekundarschule,Mitte,Gesundbrunnen,13355,Stralsunder Straße,57,https://ernst-reuter-schule.berlin,2024/25,Integrated Secondary School,926.0,459.0,467.0,107.0,61.0,46.0,True,13.393,52.539,42.0,01
01K04,Heinrich-von-Stephan-Gemeinschaftsschule,Gemeinschaftsschule,Public,Integrierte Sekundarschule,Mitte,Moabit,10553,Neues Ufer,6,https://hvs-schule-berlin.de,2024/25,Integrated Secondary School,837.0,385.0,452.0,80.0,49.0,31.0,True,13.317,52.525,121.0,01
01K06,Herbert-Hoover-Schule (Integrierte Sekundarschule),Integrierte Sekundarschule,Public,Integrierte Sekundarschule,Mitte,Gesundbrunnen,13357,Pankstraße,18,https://www.hhs-berlin.de,2024/25,Integrated Secondary School,462.0,235.0,227.0,49.0,36.0,13.0,True,13.373,52.546,110.0,01
01K07,Hemingway-Schule,Integrierte Sekundarschule,Public,Integrierte Sekundarschule,Mitte,Mitte,10115,Gartenstraße,10,https://www.hemingway-schule.de,2024/25,Integrated Secondary School,464.0,205.0,259.0,54.0,33.0,21.0,True,13.392,52.53,17.0,01
01K08,Schule am Schillerpark (Integrierte Sekundarschule),Integrierte Sekundarschule,Public,Integrierte Sekundarschule,Mitte,Wedding,13349,Ofener Straße,6,https://www.schule-am-schillerpark.de,2024/25,Integrated Secondary School,564.0,251.0,313.0,68.0,48.0,20.0,True,13.346,52.556,152.0,01
01K09,Hedwig-Dohm-Schule (Integrierte Sekundarschule),Integrierte Sekundarschule,Public,Integrierte Sekundarschule,Mitte,Moabit,10559,Stephanstraße,27,https://hedwig-dohm-os.de,2024/25,Integrated Secondary School,541.0,232.0,309.0,61.0,30.0,31.0,True,13.347,52.534,109.0,01
01K10,Theodor-Heuss-Gemeinschaftsschule,Gemeinschaftsschule,Public,Integrierte Sekundarschule,Mitte,Moabit,10559,Quitzowstraße,141,https://thgberlin.de,2024/25,Integrated Secondary School,990.0,512.0,478.0,98.0,65.0,33.0,True,13.353,52.535,72.0,01
01P01,Evangelische Schule Berlin Mitte (Gemeinschaftsschule),Grundschule,Private,Privatschule,Mitte,Mitte,10178,Rochstraße,7,http://www.esbm.de,2024/25,Private School,,,,,,,False,13.406,52.523,17.0,01
01P03,Jüdisches Gymnasium Moses Mendelssohn,Gymnasium,Private,Privatschule,Mitte,Mitte,10115,Große Hamburger Straße,27,https://jgmm.de,2024/25,Private School,,,,,,,False,13.399,52.525,17.0,01
01P04,Freie Waldorfschule Berlin Mitte,Freie Waldorfschule,Private,Privatschule,Mitte,Mitte,10178,Weinmeisterstraße,16,https://www.waldorfschule-mitte.de,2024/25,Private School,,,,,,,False,13.405,52.526,17.0,01
01P05,Katholische Schule Sankt Paulus (Grundschule),Grundschule,Private,Privatschule,Mitte,Moabit,10551,Waldenserstraße,27,https://www.st-paulus.schule,2024/25,Private School,,,,,,,False,13.335,52.528,109.0,01
01P06,Canisius-Kolleg,Gymnasium,Private,Privatschule,Mitte,Tiergarten,10785,Tiergartenstraße,30,https://canisius.de,2024/25,Private School,,,,,,,False,13.355,52.509,45.0,01
01P07,Lazarus Schulen der Hoffnungstaler Stiftung Lobetal,Kombinierte berufliche Schule,Private,Privatschule,Mitte,Gesundbrunnen,13355,Bernauer Straße,115,https://www.lazarus-schulen.de,2024/25,Private School,,,,,,,False,13.389,52.535,31.0,01
01P13,Freie Schule am Mauerpark (Grundschule),Grundschule,Private,Privatschule,Mitte,Gesundbrunnen,13355,Wolliner Straße,25,https://www.freieschuleberlin.de,2024/25,Private School,,,,,,,False,13.401,52.541,42.0,01
01P14,BEST-Sabel Berufsakademie,Kombinierte berufliche Schule,Private,Privatschule,Mitte,Mitte,10179,Littenstraße,109,https://best-sabel.de,2024/25,Private School,,,,,,,False,13.415,52.515,4.0,01
01P16,Berlin Metropolitan School (Integrierte Sekundarschule),Integrierte Sekundarschule,Private,Privatschule,Mitte,Mitte,10115,Linienstraße,122,https://www.metropolitanschool.com,2024/25,Private School,,,,,,,False,13.39,52.527,17.0,01
01P18,Bilinguale Schule Phorms Berlin Mitte,Kombinierte allgemein bildende Schule,Private,Privatschule,Mitte,Gesundbrunnen,13355,Ackerstraße,76,https://berlin-mitte.phorms.de,2024/25,Private School,,,,,,,False,13.384,52.539,57.0,01
01P22,Berlin Cosmopolitan School,Kombinierte allgemein bildende Schule,Private,Privatschule,Mitte,Mitte,10119,Rückerstraße,9,https://www.cosmopolitanschool.de,2024/25,Private School,,,,,,,False,13.407,52.528,17.0,01
01P23,Evangelische Schule Berlin Zentrum (Gemeinschaftsschule),Gemeinschaftsschule,Private,Privatschule,Mitte,Mitte,10179,Wallstraße,32,https://www.ev-schule-zentrum.de,2024/25,Private School,,,,,,,False,13.411,52.512,4.0,01
01P25,Internationale Lomonossow-Schule Berlin (Gemeinschaftsschule),Gemeinschaftsschule,Private,Privatschule,Mitte,Tiergarten,10785,Genthiner Straße,20,https://lomonossow-schule.de,2024/25,Private School,,,,,,,False,13.359,52.504,45.0,01
01P36,BTB Schulzentrum gGmbH,Kombinierte berufliche Schule,Private,Privatschule,Mitte,Mitte,10178,Alexanderstraße,5,https://btb-schulzentrum.de,2024/25,Private School,,,,,,,False,13.415,52.523,4.0,01
01P39,GPB College gGmbH,Kombinierte berufliche Schule,Private,Privatschule,Mitte,Mitte,10117,Beuthstraße,8,https://www.gpb-college.de,2024/25,Private School,,,,,,,False,13.402,52.51,4.0,01
01P40,Berufsfachschule  Paulo Freire im Zentrum ÜBERLEBEN,Berufsfachschule,Private,Privatschule,Mitte,Moabit,10559,Turmstraße,21,https://www.pflege-lernen.org,2024/25,Private School,,,,,,,False,13.348,52.526,46.0,01
01P42,WWV Bildungsakademie gGmbH,Kombinierte berufliche Schule,Private,Privatschule,Mitte,Mitte,10178,Alexanderstraße,1,https://www.abizubi.de,2024/25,Private School,,,,,,,False,13.414,52.524,4.0,01
01P46,DDA Destiny Diversity Academy GmbH,Berufsfachschule,Private,Privatschule,Mitte,Gesundbrunnen,13355,Brunnenstraße,110D,https://www.ddacademy.de,2024/25,Private School,,,,,,,False,13.391,52.544,57.0,01
01P47,Ecole Voltaire (Grundschule),Grundschule,Private,Privatschule,Mitte,Tiergarten,10785,Kurfürstenstraße,53,http://www.ecolevoltaire.de,2024/25,Private School,,,,,,,False,13.357,52.502,45.0,01
01P48,meco Akademie GmbH,Kombinierte berufliche Schule,Private,Privatschule,Mitte,Wedding,13347,Seestraße,64,https://www.meco-akademie.de,2024/25,Private School,,,,,,,False,13.359,52.554,110.0,01
01P49,Quinoa-Schule Freie Sekundarschule Berlin Wedding,Integrierte Sekundarschule,Private,Privatschule,Mitte,Gesundbrunnen,13409,Kühnemannstraße,26,https://www.quinoa-bildung.de,2024/25,Private School,,,,,,,False,13.381,52.566,118.0,01
01P50,Kristall Grundschule - Inklusive Grundschule in freier Trägerschaft,Grundschule,Private,Privatschule,Mitte,Wedding,13353,Tegeler Straße,13,https://www.tjfbg.de,2024/25,Private School,,,,,,,False,13.359,52.54,93.0,01
01P51,mediencollege Berlin gGmbH,Berufsfachschule,Private,Privatschule,Mitte,Mitte,10115,Invalidenstraße,17,https://mediencollege.berlin,2024/25,Private School,,,,,,,False,13.39,52.532,31.0,01
01P52,Schulen der ASIG Stiftung e.V.,Kombinierte berufliche Schule,Private,Privatschule,Mitte,Moabit,10553,Kaiserin-Augusta-Allee,14,http://www.asig-berlin.de,2024/25,Private School,,,,,,,False,13.322,52.526,121.0,01
01P54,CeFi - Fachschule für Sozialpädagogik,Fachschule,Private,Privatschule,Mitte,Moabit,10551,Turmstraße,44,https://www.cefi-akademie.de,2024/25,Private School,,,,,,,False,13.335,52.527,109.0,01
01P55,FRÖBEL Akademie gGmbH - Fachschule für Sozialpädagogik,Fachschule,Private,Privatschule,Mitte,Mitte,10117,Leipziger Straße,54,https://froebel-akademie.de/,2024/25,Private School,,,,,,,False,13.4,52.512,4.0,01
01S01,Schule am Zille-Park,"Förderschwerp. ""Lernen""",Public,Schule mit sonderpädagogischem Förderschwerpunkt,Mitte,Gesundbrunnen,13347,Ravenéstraße,10,https://www.schule-am-zille-park.de,2024/25,Special Needs School,244.0,60.0,184.0,50.0,29.0,21.0,True,13.373,52.543,93.0,01
01S05,Schule in der Charité,Übrige Förderschwerpunkte,Public,Schule mit sonderpädagogischem Förderschwerpunkt,Mitte,Wedding,13353,Augustenburger Platz,1,https://www.schuleindercharite.de,2024/25,Special Needs School,234.0,106.0,128.0,47.0,40.0,7.0,False,13.348,52.542,93.0,01
01S06,Albert-Gutzmann-Schule,Übrige Förderschwerpunkte,Public,Schule mit sonderpädagogischem Förderschwerpunkt,Mitte,Gesundbrunnen,13357,Pankstraße,70,https://www.gutzmannschule.de,2024/25,Special Needs School,157.0,53.0,104.0,21.0,15.0,6.0,True,13.376,52.549,110.0,01
01S07,Charlotte-Pfeffer-Schule,"Förderschwerp. ""Geistige Entwicklung""",Public,Schule mit sonderpädagogischem Förderschwerpunkt,Mitte,Mitte,10178,Berolinastraße,8,https://www.charlotte-pfeffer-schule.de,2024/25,Special Needs School,197.0,65.0,132.0,46.0,39.0,7.0,True,13.424,52.522,4.0,01
01Y02,John-Lennon-Gymnasium,Gymnasium,Public,Gymnasium,Mitte,Mitte,10119,Zehdenicker Straße,17,https://www.jlgym-berlin.de,2024/25,Academic Secondary School,761.0,402.0,359.0,66.0,36.0,30.0,False,13.404,52.531,17.0,01
01Y04,Musikgymnasium Carl Philipp Emanuel Bach,Gymnasium,Public,Gymnasium,Mitte,Mitte,10115,Rheinsberger Straße,4,https://musikgymnasium-berlin.de,2024/25,Academic Secondary School,164.0,90.0,74.0,19.0,10.0,9.0,False,13.396,52.537,42.0,01
01Y07,Französisches Gymnasium,Gymnasium,Public,Gymnasium,Mitte,Tiergarten,10785,Derfflingerstraße,7,https://www.fg-berlin.eu,2024/25,Academic Secondary School,812.0,393.0,419.0,67.0,47.0,20.0,False,13.356,52.503,45.0,01
01Y08,Lessing-Gymnasium,Gymnasium,Public,Gymnasium,Mitte,Wedding,13349,Schöningstraße,17,https://lessing-gymnasium-berlin.de,2024/25,Academic Secondary School,775.0,369.0,406.0,74.0,48.0,26.0,False,13.344,52.557,152.0,01
01Y09,Diesterweg-Gymnasium,Gymnasium,Public,Gymnasium,Mitte,Gesundbrunnen,13357,Böttgerstraße,2,https://www.dwgym.berlin,2024/25,Academic Secondary School,660.0,357.0,303.0,56.0,32.0,24.0,False,13.379,52.55,110.0,01
01Y11,Max-Planck-Gymnasium,Gymnasium,Public,Gymnasium,Mitte,Mitte,10179,Singerstraße,8A,http://www.mpg-berlin.de,2024/25,Academic Secondary School,880.0,462.0,418.0,76.0,47.0,29.0,False,13.423,52.516,4.0,01
01Y12,Gymnasium Tiergarten,Gymnasium,Public,Gymnasium,Mitte,Hansaviertel,10555,Altonaer Straße,26,https://www.gymnasium-tiergarten.de,2024/25,Academic Secondary School,1059.0,582.0,477.0,89.0,60.0,29.0,False,13.34,52.52,87.0,01
01Y13,13. Schule (Gymnasium),Gymnasium,Public,Gymnasium,Mitte,Moabit,10551,Turmstraße,75,https://berlin-kolleg.de/13-gymnasium,2024/25,Academic Secondary School,105.0,46.0,59.0,11.0,5.0,6.0,False,13.334,52.527,109.0,01
02B01,August-Sander-Schule,Berufsschule mit sonderpäd. Aufgaben,Public,Berufsschule,Friedrichshain-Kreuzberg,Friedrichshain,10245,Naglerstraße,1,https://www.august-sander-schule.de,2024/25,Vocational School,835.0,378.0,457.0,87.0,52.0,35.0,True,13.45,52.502,47.0,02
02B02,Hans-Böckler-Schule (OSZ Konstruktionsbautechnik),Oberstufenzentrum,Public,Berufsschule,Friedrichshain-Kreuzberg,Kreuzberg,10969,Lobeckstraße,76,https://osz-kt.de,2024/25,Vocational School,931.0,81.0,850.0,62.0,27.0,35.0,True,13.403,52.499,1.0,02
02B03,Modeschule Berlin (OSZ Bekleidung und Mode),Oberstufenzentrum,Public,Berufsschule,Friedrichshain-Kreuzberg,Kreuzberg,10969,Kochstraße,9,https://www.modeschule-berlin.de,2024/25,Vocational School,651.0,423.0,228.0,71.0,57.0,14.0,True,13.389,52.506,2.0,02
02B04,OSZ Handel 1,Oberstufenzentrum,Public,Berufsschule,Friedrichshain-Kreuzberg,Kreuzberg,10997,Wrangelstraße,98,https://www.oszhandel.de,2024/25,Vocational School,3482.0,1426.0,2056.0,147.0,103.0,44.0,True,13.437,52.501,7.0,02
02B05,Jane-Addams-Schule (OSZ Sozialwesen),Oberstufenzentrum,Public,Berufsschule,Friedrichshain-Kreuzberg,Friedrichshain,10249,Straßmannstraße,14,https://www.osz-soz.de,2024/25,Vocational School,1709.0,1248.0,461.0,123.0,74.0,49.0,False,13.448,52.522,26.0,02
02G01,Spartacus-Grundschule,Grundschule,Public,Grundschule,Friedrichshain-Kreuzberg,Friedrichshain,10249,Friedenstraße,40,http://www.grundschule-friedrichshain.de,2024/25,Primary School,486.0,242.0,244.0,36.0,26.0,10.0,False,13.436,52.521,26.0,02
02G02,Hausburg-Grundschule,Grundschule,Public,Grundschule,Friedrichshain-Kreuzberg,Friedrichshain,10249,Hausburgstraße,20,http://www.hausburgschule.de,2024/25,Primary School,552.0,268.0,284.0,49.0,36.0,13.0,False,13.454,52.524,38.0,02
02G03,Justus-von-Liebig-Grundschule,Grundschule,Public,Grundschule,Friedrichshain-Kreuzberg,Friedrichshain,10247,Liebigstraße,18A,http://www.jvl-gs.de,2024/25,Primary School,546.0,253.0,293.0,36.0,28.0,8.0,False,13.458,52.519,50.0,02
02G04,Pettenkofer-Grundschule,Grundschule,Public,Grundschule,Friedrichshain-Kreuzberg,Friedrichshain,10247,Pettenkoferstraße,20,http://www.pettenkofer-grundschule.de,2024/25,Primary School,657.0,347.0,310.0,45.0,39.0,6.0,False,13.471,52.519,74.0,02
02G07,Ludwig-Hoffmann-Grundschule,Grundschule,Public,Grundschule,Friedrichshain-Kreuzberg,Friedrichshain,10243,Lasdehner Straße,21,http://www.ludwig-hoffmann-grundschule.de,2024/25,Primary School,454.0,206.0,248.0,32.0,25.0,7.0,False,13.449,52.514,22.0,02
02G08,Grundschule am Traveplatz,Grundschule,Public,Grundschule,Friedrichshain-Kreuzberg,Friedrichshain,10247,Jessnerstraße,24,https://www.grundschule-am-traveplatz.de,2024/25,Primary School,405.0,209.0,196.0,32.0,28.0,4.0,False,13.472,52.512,73.0,02
02G09,Zille-Grundschule,Grundschule,Public,Grundschule,Friedrichshain-Kreuzberg,Friedrichshain,10245,Boxhagener Straße,46,https://www.zille-grundschule.de,2024/25,Primary School,568.0,252.0,316.0,34.0,31.0,3.0,False,13.465,52.509,58.0,02
02G10,Modersohn-Grundschule,Grundschule,Public,Grundschule,Friedrichshain-Kreuzberg,Friedrichshain,10245,Niemannstraße,3,https://www.modersohn-schule.de,2024/25,Primary School,444.0,222.0,222.0,30.0,21.0,9.0,False,13.46,52.507,48.0,02
02G11,Thalia-Grundschule,Grundschule,Public,Grundschule,Friedrichshain-Kreuzberg,Friedrichshain,10245,Alt-Stralau,34,https://www.thalia-grundschule.de,2024/25,Primary School,438.0,213.0,225.0,27.0,24.0,3.0,False,13.476,52.493,89.0,02
02G12,Kurt-Schumacher-Grundschule,Grundschule,Public,Grundschule,Friedrichshain-Kreuzberg,Kreuzberg,10969,Puttkamerstraße,19,https://www.kurt-schumacher-grundschule-berlin.de,2024/25,Primary School,283.0,148.0,135.0,34.0,22.0,12.0,True,13.389,52.505,2.0,02
02G13,Charlotte-Salomon-Grundschule,Grundschule,Public,Grundschule,Friedrichshain-Kreuzberg,Kreuzberg,10965,Großbeerenstraße,40,http://www.charlotte-salomon-grundschule.de,2024/25,Primary School,422.0,209.0,213.0,47.0,45.0,2.0,False,13.382,52.491,20.0,02
02G14,Galilei-Grundschule,Grundschule,Public,Grundschule,Friedrichshain-Kreuzberg,Kreuzberg,10969,Friedrichstraße,13,http://www.galilei-grundschule.de,2024/25,Primary School,500.0,251.0,249.0,45.0,32.0,13.0,True,13.391,52.502,2.0,02
02G18,Nürtingen-Grundschule,Grundschule,Public,Grundschule,Friedrichshain-Kreuzberg,Kreuzberg,10997,Mariannenplatz,28,http://www.nuertingen-grundschule.de,2024/25,Primary School,568.0,291.0,277.0,53.0,46.0,7.0,False,13.427,52.505,7.0,02
02G19,Fanny-Hensel-Grundschule,Grundschule,Public,Grundschule,Friedrichshain-Kreuzberg,Kreuzberg,10963,Schöneberger Straße,23,http://www.Fanny-Hensel-Grundschule.de,2024/25,Primary School,286.0,129.0,157.0,26.0,23.0,3.0,False,13.38,52.503,14.0,02
02G20,Bürgermeister-Herz-Grundschule,Grundschule,Public,Grundschule,Friedrichshain-Kreuzberg,Kreuzberg,10961,Wilmsstraße,10,http://www.bmh-schule.de,2024/25,Primary School,448.0,214.0,234.0,35.0,31.0,4.0,False,13.405,52.495,6.0,02
02G21,Reinhardswald-Grundschule,Grundschule,Public,Grundschule,Friedrichshain-Kreuzberg,Kreuzberg,10961,Gneisenaustraße,73,http://www.reinhardswald-grundschule.de,2024/25,Primary School,621.0,280.0,341.0,44.0,37.0,7.0,False,13.4,52.491,15.0,02
02G22,Jens-Nydahl-Grundschule,Grundschule,Public,Grundschule,Friedrichshain-Kreuzberg,Kreuzberg,10999,Kohlfurter Straße,20,,2024/25,Primary School,303.0,159.0,144.0,34.0,30.0,4.0,True,13.416,52.497,5.0,02
02G23,Fichtelgebirge-Grundschule,Grundschule,Public,Grundschule,Friedrichshain-Kreuzberg,Kreuzberg,10997,Görlitzer Ufer,2,https://fichtelgebirge-grundschule-berlin.de,2024/25,Primary School,414.0,201.0,213.0,32.0,25.0,7.0,False,13.445,52.496,29.0,02
02G24,Otto-Wels-Grundschule,Grundschule,Public,Grundschule,Friedrichshain-Kreuzberg,Kreuzberg,10969,Alexandrinenstraße,12,https://owg-berlin.de,2024/25,Primary School,519.0,237.0,282.0,50.0,37.0,13.0,True,13.402,52.5,1.0,02
02G26,Lemgo-Grundschule,Grundschule,Public,Grundschule,Friedrichshain-Kreuzberg,Kreuzberg,10967,Böckhstraße,5,https://www.lemgogrundschule.de,2024/25,Primary School,436.0,201.0,235.0,45.0,31.0,14.0,False,13.416,52.494,16.0,02
02G27,Hunsrück-Grundschule,Grundschule,Public,Grundschule,Friedrichshain-Kreuzberg,Kreuzberg,10999,Manteuffelstraße,79,https://hunsrueck-grundschule.de,2024/25,Primary School,529.0,265.0,264.0,46.0,35.0,11.0,False,13.427,52.498,9.0,02
02G29,Heinrich-Zille-Grundschule,Grundschule,Public,Grundschule,Friedrichshain-Kreuzberg,Kreuzberg,10997,Waldemarstraße,118,https://hzg.berlin,2024/25,Primary School,428.0,216.0,212.0,53.0,46.0,7.0,False,13.429,52.501,10.0,02
02G31,Adolf-Glaßbrenner-Grundschule,Grundschule,Public,Grundschule,Friedrichshain-Kreuzberg,Kreuzberg,10965,Hagelberger Straße,34,https://www.adolf-glassbrenner-schule.de,2024/25,Primary School,415.0,199.0,216.0,34.0,26.0,8.0,False,13.381,52.491,23.0,02
02G32,Clara-Grunwald-Grundschule,Grundschule,Public,Grundschule,Friedrichshain-Kreuzberg,Kreuzberg,10963,Hallesche Straße,24,http://www.clara-grunwald-grundschule.de,2024/25,Primary School,312.0,162.0,150.0,34.0,27.0,7.0,False,13.385,52.501,14.0,02
02G33,Aziz-Nesin-Grundschule,Grundschule,Public,Grundschule,Friedrichshain-Kreuzberg,Kreuzberg,10961,Urbanstraße,15,http://www.aziz-nesin-schule.de,2024/25,Primary School,302.0,146.0,156.0,30.0,25.0,5.0,False,13.406,52.493,11.0,02
02G34,Jane-Goodall-Grundschule,Grundschule,Public,Grundschule,Friedrichshain-Kreuzberg,Friedrichshain,10247,Scharnweberstraße,19,https://www.jane-goodall-grundschule.de,2024/25,Primary School,381.0,176.0,205.0,28.0,25.0,3.0,False,13.468,52.513,52.0,02
02G35,Rosa-Parks-Grundschule,Grundschule,Public,Grundschule,Friedrichshain-Kreuzberg,Kreuzberg,10999,Reichenberger Straße,65,https://www.rosa-parks-grundschule.de,2024/25,Primary School,685.0,327.0,358.0,49.0,34.0,15.0,False,13.431,52.495,19.0,02
02G36,Blumen-Grundschule,Grundschule,Public,Grundschule,Friedrichshain-Kreuzberg,Friedrichshain,10243,Andreasstraße,52,http://www.36-grundschule.de,2024/25,Primary School,650.0,296.0,354.0,56.0,43.0,13.0,False,13.431,52.516,13.0,02
02G37,37. Schule (Grundschule),Grundschule,Public,Grundschule,Friedrichshain-Kreuzberg,Friedrichshain,10249,Pufendorfstraße,10,http://37schule.berlin,2024/25,Primary School,364.0,174.0,190.0,30.0,20.0,10.0,False,13.439,52.521,26.0,02
02K01,Ellen-Key-Schule,Integrierte Sekundarschule,Public,Integrierte Sekundarschule,Friedrichshain-Kreuzberg,Friedrichshain,10243,Rüdersdorfer Straße,20,http://www.eko-online.net,2024/25,Integrated Secondary School,811.0,393.0,418.0,79.0,53.0,26.0,False,13.438,52.516,13.0,02
02K02,Carl-von-Ossietzky-Gemeinschaftsschule,Gemeinschaftsschule,Public,Integrierte Sekundarschule,Friedrichshain-Kreuzberg,Kreuzberg,10961,Blücherstraße,46,https://www.cvo-berlin.de,2024/25,Integrated Secondary School,1170.0,603.0,567.0,112.0,71.0,41.0,True,13.406,52.491,11.0,02
02K03,Hector-Peterson-Schule,Integrierte Sekundarschule,Public,Integrierte Sekundarschule,Friedrichshain-Kreuzberg,Kreuzberg,10963,Tempelhofer Ufer,15,https://hps-berlin.schule,2024/25,Integrated Secondary School,549.0,243.0,306.0,60.0,28.0,32.0,True,13.384,52.498,14.0,02
02K04,Bergmannkiez-Gemeinschaftsschule,Gemeinschaftsschule,Public,Integrierte Sekundarschule,Friedrichshain-Kreuzberg,Kreuzberg,10961,Gneisenaustraße,7,https://bergmannkiez-gemeinschaftsschule.de,2024/25,Integrated Secondary School,894.0,465.0,429.0,89.0,56.0,33.0,True,13.39,52.491,12.0,02
02K05,Schule am Königstor (Integrierte Sekundarschule),Integrierte Sekundarschule,Public,Integrierte Sekundarschule,Friedrichshain-Kreuzberg,Friedrichshain,10249,Weinstraße,3,https://www.schule-am-koenigstor.de,2024/25,Integrated Secondary School,320.0,132.0,188.0,56.0,30.0,26.0,False,13.426,52.526,26.0,02
02K06,Emanuel-Lasker-Schule (Gemeinschaftsschule),Gemeinschaftsschule,Public,Integrierte Sekundarschule,Friedrichshain-Kreuzberg,Friedrichshain,10245,Modersohnstraße,53,https://els-schule.de,2024/25,Integrated Secondary School,996.0,457.0,539.0,88.0,49.0,39.0,False,13.457,52.503,47.0,02
02K07,Georg-Weerth-Schule,Integrierte Sekundarschule,Public,Integrierte Sekundarschule,Friedrichshain-Kreuzberg,Friedrichshain,10249,Eckertstraße,16A,https://www.georg-weerth-schule.de,2024/25,Integrated Secondary School,468.0,178.0,290.0,49.0,27.0,22.0,False,13.45,52.519,38.0,02
02K08,Refik-Veseli-Schule (Integrierte Sekundarschule),Integrierte Sekundarschule,Public,Integrierte Sekundarschule,Friedrichshain-Kreuzberg,Kreuzberg,10997,Skalitzer Straße,55,https://www.refik-veseli-schule.eu,2024/25,Integrated Secondary School,536.0,238.0,298.0,75.0,39.0,36.0,True,13.436,52.5,10.0,02
02K09,Albrecht-von-Graefe-Schule (Integrierte Sekundarschule),Integrierte Sekundarschule,Public,Integrierte Sekundarschule,Friedrichshain-Kreuzberg,Kreuzberg,10967,Graefestraße,85,https://www.albrecht-von-graefe-schule.de,2024/25,Integrated Secondary School,482.0,238.0,244.0,56.0,30.0,26.0,True,13.419,52.494,5.0,02
02K10,Ferdinand-Freiligrath-Schule (Integrierte Sekundarschule),Integrierte Sekundarschule,Public,Integrierte Sekundarschule,Friedrichshain-Kreuzberg,Kreuzberg,10961,Bergmannstraße,64,https://www.ferdinand-freiligrath-schule.de,2024/25,Integrated Secondary School,417.0,195.0,222.0,39.0,27.0,12.0,True,13.401,52.489,15.0,02
02P03,Islamische Grundschule,Grundschule,Private,Privatschule,Friedrichshain-Kreuzberg,Kreuzberg,10967,Boppstraße,4,http://www.islamische-grundschule.de,2024/25,Private School,,,,,,,False,13.421,52.491,16.0,02
02P04,Freie Waldorfschule Kreuzberg,Freie Waldorfschule,Private,Privatschule,Friedrichshain-Kreuzberg,Kreuzberg,10969,Ritterstraße,78,http://www.waldorfschule-kreuzberg.de,2024/25,Private School,,,,,,,False,13.402,52.503,3.0,02
02P05,Sozialpädagogisches Institut Berlin „Walter May“ - Stiftung SPI,Kombinierte berufliche Schule,Private,Privatschule,Friedrichshain-Kreuzberg,Kreuzberg,10963,Hallesches Ufer,32,http://www.spi-fachschulen.de,2024/25,Private School,,,,,,,False,13.386,52.499,14.0,02
02P07,Campus Berufsbildung e.V.,Kombinierte berufliche Schule,Private,Privatschule,Friedrichshain-Kreuzberg,Kreuzberg,10969,Friedrichstraße,231,https://www.campus-berlin.de/friedrichstrasse/,2024/25,Private School,,,,,,,False,13.391,52.503,2.0,02
02P09,Freie Schule Kreuzberg (Grundschule),Grundschule,Private,Privatschule,Friedrichshain-Kreuzberg,Kreuzberg,10997,Wrangelstraße,128,https://freieschulekreuzberg.de,2024/25,Private School,,,,,,,False,13.429,52.504,7.0,02
02P11,Berlin Bilingual School (Grundschule),Grundschule,Private,Privatschule,Friedrichshain-Kreuzberg,Friedrichshain,10249,Weinstraße,1,https://berlin-bilingual-school.de,2024/25,Private School,,,,,,,False,13.425,52.525,26.0,02
02P12,KreativitätsGrundschule Berlin Friedrichshain,Grundschule,Private,Privatschule,Friedrichshain-Kreuzberg,Friedrichshain,10243,Strausberger Straße,38,http://www.krea-schulzentrum.de,2024/25,Private School,,,,,,,False,13.432,52.521,26.0,02
02P13,Netzwerk-Schule (Gemeinschaftsschule),Gemeinschaftsschule,Private,Privatschule,Friedrichshain-Kreuzberg,Friedrichshain,10243,Marchlewskistraße,40,http://schule.netzwerkspielkultur.de,2024/25,Private School,,,,,,,False,13.444,52.514,22.0,02
02P16,BWK Berufsfachschule für Altenpflege,Berufsfachschule,Private,Privatschule,Friedrichshain-Kreuzberg,Kreuzberg,10997,Cuvrystraße,34,http://www.bwk-berlin.de,2024/25,Private School,,,,,,,False,13.443,52.497,29.0,02
02P19,FORUM Berufsbildung e.V.,Kombinierte berufliche Schule,Private,Privatschule,Friedrichshain-Kreuzberg,Kreuzberg,10969,Charlottenstraße,2,http://www.forum-berufsbildung.de,2024/25,Private School,,,,,,,False,13.393,52.506,2.0,02
02P22,Pro Inklusio - Fachschule für Sozialpädagogik,Fachschule,Private,Privatschule,Friedrichshain-Kreuzberg,Kreuzberg,10997,Muskauer Straße,53,https://proinklusio.diebildungspartner.de,2024/25,Private School,,,,,,,False,13.433,52.501,10.0,02
02P23,Concept Berufliche Schulen gGmbH Berlin,Berufsfachschule,Private,Privatschule,Friedrichshain-Kreuzberg,Friedrichshain,10245,Revaler Straße,100,http://www.concept-berlin.de,2024/25,Private School,,,,,,,False,13.45,52.508,22.0,02
02P25,Evangelische Schule Berlin Friedrichshain (Grundschule),Grundschule,Private,Privatschule,Friedrichshain-Kreuzberg,Friedrichshain,10249,Petersburger Platz,5,http://www.ev-schule-friedrichshain.de,2024/25,Private School,,,,,,,False,13.45,52.521,38.0,02
02P29,Kenntnisreich gGmbH,Fachschule,Private,Privatschule,Friedrichshain-Kreuzberg,Kreuzberg,12099,Schmiedehof,23,http://www.kenntnisreich-kindertagesstaetten.de,2024/25,Private School,,,,,,,False,13.382,52.487,20.0,02
02P30,Concept - Fachschule für Sozialpädagogik,Fachschule,Private,Privatschule,Friedrichshain-Kreuzberg,Friedrichshain,10243,Gubener Straße,47,http://www.concept-berlin.de,2024/25,Private School,,,,,,,False,13.449,52.512,22.0,02
02P31,procon College gGmbH,Fachschule,Private,Privatschule,Friedrichshain-Kreuzberg,Kreuzberg,10963,Stresemannstraße,78,https://www.procon-college.de,2024/25,Private School,,,,,,,False,13.383,52.504,14.0,02
02P32,sfe Schule für Erwachsenenbildung e.V.,Kolleg,Private,Privatschule,Friedrichshain-Kreuzberg,Kreuzberg,10961,Gneisenaustraße,2A,http://www.sfeberlin.de,2024/25,Private School,,,,,,,False,13.389,52.492,12.0,02
02P33,Freie Schule Windrose (Grundschule),Grundschule,Private,Privatschule,Friedrichshain-Kreuzberg,Kreuzberg,10999,Wiener Straße,1,https://freie-schule-windrose.de,2024/25,Private School,,,,,,,False,13.427,52.499,9.0,02
02S01,Temple-Grandin-Schule,"Förderschwerp. ""Lernen""",Public,Schule mit sonderpädagogischem Förderschwerpunkt,Friedrichshain-Kreuzberg,Friedrichshain,10243,Lasdehner Straße,19,http://www.temple-grandin-schule.de,2024/25,Special Needs School,223.0,89.0,134.0,39.0,34.0,5.0,False,13.449,52.514,22.0,02
02S02,Gustav-Meyer-Schule,"Förderschwerp. ""Geistige Entwicklung""",Public,Schule mit sonderpädagogischem Förderschwerpunkt,Friedrichshain-Kreuzberg,Kreuzberg,10999,Kohlfurter Straße,22,https://gustav-meyer-schule.de,2024/25,Special Needs School,156.0,55.0,101.0,40.0,33.0,7.0,False,13.417,52.497,5.0,02
02S03,Margarethe-von-Witzleben-Schule,Übrige Förderschwerpunkte,Public,Schule mit sonderpädagogischem Förderschwerpunkt,Friedrichshain-Kreuzberg,Friedrichshain,10243,Palisadenstraße,76,http://www.witzleben-schule.de,2024/25,Special Needs School,264.0,95.0,169.0,45.0,36.0,9.0,False,13.435,52.52,26.0,02
02S06,Liebmann-Schule,Übrige Förderschwerpunkte,Public,Schule mit sonderpädagogischem Förderschwerpunkt,Friedrichshain-Kreuzberg,Kreuzberg,10969,Friedrichstraße,13,https://www.liebmann-schule-berlin.de,2024/25,Special Needs School,132.0,32.0,100.0,23.0,19.0,4.0,False,13.391,52.502,2.0,02
02Y01,Andreas-Gymnasium,Gymnasium,Public,Gymnasium,Friedrichshain-Kreuzberg,Friedrichshain,10243,Koppenstraße,76,https://www.andreas-schule.org,2024/25,Academic Secondary School,804.0,350.0,454.0,64.0,34.0,30.0,False,13.435,52.514,13.0,02
02Y03,Heinrich-Hertz-Gymnasium,Gymnasium,Public,Gymnasium,Friedrichshain-Kreuzberg,Friedrichshain,10247,Rigaer Straße,81,https://hhgym.de,2024/25,Academic Secondary School,680.0,193.0,487.0,51.0,27.0,24.0,False,13.463,52.517,50.0,02
02Y04,Georg-Friedrich-Händel-Gymnasium,Gymnasium,Public,Gymnasium,Friedrichshain-Kreuzberg,Friedrichshain,10247,Frankfurter Allee,6A,http://www.haendelgym.de,2024/25,Academic Secondary School,548.0,337.0,211.0,46.0,20.0,26.0,False,13.456,52.515,52.0,02
02Y05,Dathe-Gymnasium,Gymnasium,Public,Gymnasium,Friedrichshain-Kreuzberg,Friedrichshain,10243,Helsingforser Straße,11,https://www.dathe-gymnasium.de,2024/25,Academic Secondary School,907.0,480.0,427.0,71.0,47.0,24.0,False,13.445,52.51,22.0,02
02Y06,Leibniz-Gymnasium,Gymnasium,Public,Gymnasium,Friedrichshain-Kreuzberg,Kreuzberg,10961,Schleiermacherstraße,23,http://www.leibnizschule-berlin.de,2024/25,Academic Secondary School,827.0,436.0,391.0,69.0,38.0,31.0,False,13.397,52.49,15.0,02
02Y07,Robert-Koch-Gymnasium,Gymnasium,Public,Gymnasium,Friedrichshain-Kreuzberg,Kreuzberg,10967,Dieffenbachstraße,60,,2024/25,Academic Secondary School,653.0,344.0,309.0,54.0,33.0,21.0,False,13.416,52.493,16.0,02
02Y08,Hermann-Hesse-Gymnasium,Gymnasium,Public,Gymnasium,Friedrichshain-Kreuzberg,Kreuzberg,10967,Böckhstraße,16,http://www.hesse-kreuzberg.de,2024/25,Academic Secondary School,593.0,302.0,291.0,57.0,29.0,28.0,False,13.419,52.493,16.0,02
03A04,Abendgymnasium Prenzlauer Berg,Abend-Gymnasium,Public,Andere Schule,Pankow,Prenzlauer Berg,10439,Driesener Straße,22,https://www.abendgymnasium-berlin.de,2024/25,Other School,,,,,,,False,13.406,52.552,94.0,03
03B02,Berufliche Schule für Sozialwesen Pankow,Kombinierte berufliche Schule,Public,Berufsschule,Pankow,Rosenthal,13158,Erbeskopfweg,6,https://www.schule-sozialwesen-pankow.de,2024/25,Vocational School,701.0,487.0,214.0,60.0,47.0,13.0,False,13.4,52.594,287.0,03
03B04,Brillat-Savarin-Schule (OSZ Gastgewerbe),Oberstufenzentrum,Public,Berufsschule,Pankow,Weißensee,13088,Buschallee,23A,https://www.osz-gastgewerbe.de,2024/25,Vocational School,4136.0,1821.0,2315.0,152.0,105.0,47.0,True,13.476,52.553,147.0,03
03B06,Konrad-Zuse-Schule,Berufsschule mit sonderpäd. Aufgaben,Public,Berufsschule,Pankow,Niederschönhausen,13156,Hermann-Hesse-Straße,34,https://www.konrad-zuse-schule-berlin.de,2024/25,Vocational School,443.0,170.0,273.0,43.0,20.0,23.0,True,13.396,52.579,167.0,03
03B07,Elinor-Ostrom-Schule (OSZ Bürowirtschaft und Dienstleistungen),Oberstufenzentrum,Public,Berufsschule,Pankow,Prenzlauer Berg,10409,Mandelstraße,6,https://www.oszeos.de,2024/25,Vocational School,1068.0,436.0,632.0,89.0,49.0,40.0,False,13.441,52.546,79.0,03
03B08,Staatliche Ballett- und Artistikschule Berlin,Kombinierte allg./berufl. Schule,Public,Berufsschule,Pankow,Prenzlauer Berg,10409,Erich-Weinert-Straße,103,http://www.ballettschule-berlin.de,2024/25,Vocational School,235.0,178.0,57.0,68.0,45.0,23.0,False,13.436,52.546,79.0,03
03B10,"Max-Bill-Schule (OSZ Planen, Bauen, Gestalten)",Oberstufenzentrum,Public,Berufsschule,Pankow,Weißensee,13086,Gustav-Adolf-Straße,66,https://www.max-bill-schule.de,2024/25,Vocational School,2907.0,798.0,2109.0,154.0,76.0,78.0,False,13.448,52.559,119.0,03
03G01,Schule am Hamburger Platz (Grundschule),Grundschule,Public,Grundschule,Pankow,Weißensee,13086,Gustav-Adolf-Straße,21,https://www.schule-am-hamburger-platz.de,2024/25,Primary School,490.0,235.0,255.0,30.0,25.0,5.0,False,13.437,52.554,99.0,03
03G02,Heinrich-Roller-Grundschule,Grundschule,Public,Grundschule,Pankow,Prenzlauer Berg,10405,Heinrich-Roller-Straße,18,https://www.heinrich-roller-grundschule.de,2024/25,Primary School,428.0,200.0,228.0,28.0,24.0,4.0,False,13.424,52.531,27.0,03
03G03,Grundschule am Kollwitzplatz,Grundschule,Public,Grundschule,Pankow,Prenzlauer Berg,10435,Knaackstraße,67,https://gs-am-kollwitzplatz.de,2024/25,Primary School,427.0,222.0,205.0,31.0,25.0,6.0,False,13.415,52.538,32.0,03
03G04,Grundschule an der Marie,Grundschule,Public,Grundschule,Pankow,Prenzlauer Berg,10405,Christburger Straße,7,http://www.schule-an-der-Marie.de,2024/25,Primary School,493.0,260.0,233.0,34.0,31.0,3.0,False,13.426,52.536,40.0,03
03G05,Homer-Grundschule,Grundschule,Public,Grundschule,Pankow,Prenzlauer Berg,10407,Pasteurstraße,10,http://www.homer-grundschule.de,2024/25,Primary School,317.0,160.0,157.0,22.0,21.0,1.0,False,13.432,52.534,33.0,03
03G06,Bötzow-Grundschule,Grundschule,Public,Grundschule,Pankow,Prenzlauer Berg,10407,John-Schehr-Straße,38,http://www.boetzow-grundschule.de,2024/25,Primary School,402.0,208.0,194.0,31.0,26.0,5.0,False,13.439,52.535,55.0,03
03G08,Grundschule am Planetarium,Grundschule,Public,Grundschule,Pankow,Prenzlauer Berg,10405,Ella-Kay-Straße,47,http://www.gsap.de,2024/25,Primary School,363.0,156.0,207.0,49.0,40.0,9.0,False,13.431,52.541,61.0,03
03G09,Thomas-Mann-Grundschule,Grundschule,Public,Grundschule,Pankow,Prenzlauer Berg,10437,Greifenhagener Straße,58,https://thomas-mann-grundschule.de,2024/25,Primary School,499.0,249.0,250.0,27.0,21.0,6.0,False,13.415,52.547,63.0,03
03G10,Grundschule am Hohen Feld,Grundschule,Public,Grundschule,Pankow,Karow,13125,Bedeweg,1,http://grundschule-amhohenfeld.de,2024/25,Primary School,595.0,267.0,328.0,40.0,34.0,6.0,False,13.496,52.615,305.0,03
03G11,Schule am Falkplatz (Grundschule),Grundschule,Public,Grundschule,Pankow,Prenzlauer Berg,10437,Gleimstraße,49,https://www.schule-am-falkplatz.berlin,2024/25,Primary School,728.0,369.0,359.0,46.0,34.0,12.0,False,13.406,52.547,69.0,03
03G12,Paul-Lincke-Grundschule,Grundschule,Public,Grundschule,Pankow,Prenzlauer Berg,10409,Pieskower Weg,39,https://plg.berlin,2024/25,Primary School,457.0,220.0,237.0,33.0,23.0,10.0,False,13.446,52.541,79.0,03
03G13,Grundschule in Rosenthal,Grundschule,Public,Grundschule,Pankow,Rosenthal,13158,Kastanienallee,59,https://www.grundschule-rosenthal.de,2024/25,Primary School,567.0,282.0,285.0,39.0,33.0,6.0,False,13.376,52.591,204.0,03
03G14,Bornholmer Grundschule,Grundschule,Public,Grundschule,Pankow,Prenzlauer Berg,10439,Ibsenstraße,17,https://bornholmer-grundschule.de,2024/25,Primary School,589.0,298.0,291.0,39.0,35.0,4.0,False,13.408,52.556,94.0,03
03G15,Schule am Senefelderplatz,Grundschule,Public,Grundschule,Pankow,Prenzlauer Berg,10435,Schönhauser Allee,165,http://www.schule-am-senefelderplatz.de,2024/25,Primary School,470.0,217.0,253.0,37.0,32.0,5.0,False,13.412,52.535,36.0,03
03G16,Grundschule am Teutoburger Platz,Grundschule,Public,Grundschule,Pankow,Prenzlauer Berg,10119,Templiner Straße,1,https://schule-am-teute.de,2024/25,Primary School,498.0,231.0,267.0,34.0,27.0,7.0,False,13.409,52.534,36.0,03
03G17,Grundschule am Weißen See,Grundschule,Public,Grundschule,Pankow,Weißensee,13088,Falkenberger Straße,31,https://grundschuleamweissensee.de,2024/25,Primary School,432.0,216.0,216.0,29.0,22.0,7.0,False,13.477,52.554,170.0,03
03G18,Picasso-Grundschule,Grundschule,Public,Grundschule,Pankow,Weißensee,13088,Gounodstraße,71,https://picasso-grundschule.de,2024/25,Primary School,575.0,289.0,286.0,44.0,36.0,8.0,False,13.462,52.548,104.0,03
03G20,Grundschule im Moselviertel,Grundschule,Public,Grundschule,Pankow,Weißensee,13088,Brodenbacher Weg,31,https://www.moselschule.de,2024/25,Primary School,408.0,192.0,216.0,31.0,27.0,4.0,False,13.477,52.559,170.0,03
03G21,Grundschule unter den Bäumen,Grundschule,Public,Grundschule,Pankow,Blankenburg,13129,Alt-Blankenburg,26,http://www.gudbaeumen.de,2024/25,Primary School,455.0,220.0,235.0,29.0,22.0,7.0,False,13.454,52.592,220.0,03
03G22,Grundschule am Wasserturm,Grundschule,Public,Grundschule,Pankow,Heinersdorf,13089,Tino-Schwierzina-Straße,66,https://grundschule-am-wasserturm.com,2024/25,Primary School,580.0,285.0,295.0,40.0,33.0,7.0,False,13.437,52.565,160.0,03
03G23,Grundschule Alt-Karow,Grundschule,Public,Grundschule,Pankow,Karow,13125,Bahnhofstraße,32,https://grundschule-alt-karow.de,2024/25,Primary School,496.0,240.0,256.0,31.0,28.0,3.0,False,13.48,52.61,273.0,03
03G24,Grundschule im Panketal,Grundschule,Public,Grundschule,Pankow,Karow,13125,Achillesstraße,31,http://www.grundschule-im-panketal.de,2024/25,Primary School,600.0,302.0,298.0,41.0,34.0,7.0,False,13.486,52.621,312.0,03
03G25,Carl-Humann-Grundschule,Grundschule,Public,Grundschule,Pankow,Prenzlauer Berg,10439,Stahlheimer Straße,22,http://www.carl-humann-grundschule.de,2024/25,Primary School,493.0,245.0,248.0,30.0,25.0,5.0,False,13.422,52.551,82.0,03
03G26,Arnold-Zweig-Grundschule,Grundschule,Public,Grundschule,Pankow,Pankow,13187,Wollankstraße,131,https://www.arnold-zweig-grundschule.com,2024/25,Primary School,599.0,275.0,324.0,40.0,36.0,4.0,False,13.4,52.568,131.0,03
03G27,Elizabeth-Shaw-Grundschule,Grundschule,Public,Grundschule,Pankow,Pankow,13187,Grunowstraße,17,https://esg.berlin,2024/25,Primary School,470.0,240.0,230.0,32.0,29.0,3.0,False,13.41,52.568,139.0,03
03G28,Hasengrund-Schule (Grundschule),Grundschule,Public,Grundschule,Pankow,Niederschönhausen,13156,Hermann-Hesse-Straße,48,https://hasengrund.edupage.org,2024/25,Primary School,496.0,236.0,260.0,33.0,27.0,6.0,False,13.394,52.578,167.0,03
03G29,Grundschule Am Sandhaus,Grundschule,Public,Grundschule,Pankow,Buch,13125,Wiltbergstraße,37,https://gs-am-sandhaus.de,2024/25,Primary School,342.0,177.0,165.0,27.0,21.0,6.0,False,13.491,52.637,357.0,03
03G32,Grundschule an den Buchen,Grundschule,Public,Grundschule,Pankow,Niederschönhausen,13156,Wilhelm-Wolff-Straße,19,http://www.gs-buchen.de,2024/25,Primary School,391.0,181.0,210.0,26.0,23.0,3.0,False,13.395,52.58,167.0,03
03G33,Jeanne-Barez-Schule (Grundschule),Grundschule,Public,Grundschule,Pankow,Französisch Buchholz,13127,Hauptstraße,66,http://www.jeanne-barez-schule.de,2024/25,Primary School,830.0,412.0,418.0,49.0,40.0,9.0,False,13.434,52.604,288.0,03
03G34,Mendel-Grundschule,Grundschule,Public,Grundschule,Pankow,Pankow,13187,Stiftsweg,3,https://www.mendel-grundschule.de,2024/25,Primary School,605.0,285.0,320.0,43.0,35.0,8.0,False,13.416,52.574,159.0,03
03G35,Platanengrundschule,Grundschule,Public,Grundschule,Pankow,Blankenfelde,13159,Hauptstraße,20,https://www.platanengrundschule.de,2024/25,Primary School,137.0,75.0,62.0,8.0,8.0,,False,13.39,52.618,287.0,03
03G36,Elisabeth-Christinen-Grundschule,Grundschule,Public,Grundschule,Pankow,Niederschönhausen,13156,Buchholzer Straße,3,https://ecg.schule,2024/25,Primary School,492.0,234.0,258.0,33.0,26.0,7.0,False,13.408,52.583,181.0,03
03G37,Klecks-Grundschule,Grundschule,Public,Grundschule,Pankow,Pankow,13187,Brixener Straße,40,https://klecksgrundschule.de,2024/25,Primary School,555.0,288.0,267.0,37.0,31.0,6.0,False,13.408,52.56,113.0,03
03G38,Grundschule im Blumenviertel,Grundschule,Public,Grundschule,Pankow,Prenzlauer Berg,10407,Syringenplatz,30,https://www.grundschule-im-blumenviertel.de,2024/25,Primary School,372.0,178.0,194.0,41.0,35.0,6.0,True,13.458,52.535,80.0,03
03G39,Grundschule Wolkenstein,Grundschule,Public,Grundschule,Pankow,Pankow,13189,Neumannstraße,65,https://gs-wolkenstein.de,2024/25,Primary School,459.0,227.0,232.0,33.0,29.0,4.0,False,13.42,52.565,137.0,03
03G40,Schule am Birkenhof,Grundschule,Public,Grundschule,Pankow,Französisch Buchholz,13127,Arnouxstraße,18,http://www.schule-am-birkenhof.de,2024/25,Primary School,453.0,237.0,216.0,33.0,29.0,4.0,False,13.424,52.608,270.0,03
03G41,Trelleborg-Schule (Grundschule),Grundschule,Public,Grundschule,Pankow,Pankow,13189,Eschengraben,40,https://trelleborg-schule.de,2024/25,Primary School,643.0,353.0,290.0,42.0,36.0,6.0,False,13.422,52.556,102.0,03
03G43,Grundschule Wilhelmsruh,Grundschule,Public,Grundschule,Pankow,Wilhelmsruh,13158,Lessingstraße,44,http://www.grundschule-wilhelmsruh.de,2024/25,Primary School,568.0,280.0,288.0,39.0,28.0,11.0,False,13.364,52.59,206.0,03
03G44,Georg-Zacharias-Grundschule,Grundschule,Public,Grundschule,Pankow,Weißensee,13088,Sulzfelder Straße,15,https://georgzacharias-gs.de,2024/25,Primary School,382.0,200.0,182.0,29.0,22.0,7.0,False,13.475,52.552,147.0,03
03G45,Grundschule im Hofgarten,Grundschule,Public,Grundschule,Pankow,Prenzlauer Berg,10435,Danziger Straße,50,http://www.grundschuleimhofgarten.de,2024/25,Primary School,410.0,187.0,223.0,32.0,28.0,4.0,False,13.42,52.54,54.0,03
03G46,Grundschule im Eliashof,Grundschule,Public,Grundschule,Pankow,Prenzlauer Berg,10437,Senefelderstraße,6,https://www.grundschule-im-eliashof.de,2024/25,Primary School,338.0,181.0,157.0,23.0,16.0,7.0,False,13.423,52.541,54.0,03
03G47,47. Schule (Grundschule),Grundschule,Public,Grundschule,Pankow,Pankow,13187,Mendelstraße,54,http://www.schuleanderstrauchwiese.de,2024/25,Primary School,335.0,150.0,185.0,26.0,21.0,5.0,False,13.418,52.578,177.0,03
03G48,Maria-Leo-Grundschule,Grundschule,Public,Grundschule,Pankow,Prenzlauer Berg,10407,Conrad-Blenkle-Straße,20,https://www.03g48.de,2024/25,Primary School,385.0,190.0,195.0,29.0,29.0,,False,13.449,52.529,56.0,03
03G49,49. Schule (Grundschule),Grundschule,Public,Grundschule,Pankow,Weißensee,13086,Rennbahnstraße,45,https://www.03g49.de,2024/25,Primary School,250.0,116.0,134.0,18.0,15.0,3.0,False,13.455,52.563,170.0,03
03G50,50. Schule (Grundschule),Grundschule,Public,Grundschule,Pankow,Buch,13125,Ernst-Ludwig-Heim-Straße,13,https://www.03g50.de,2024/25,Primary School,254.0,117.0,137.0,20.0,18.0,2.0,False,13.499,52.627,333.0,03
03G51,51. Schule (Grundschule),Grundschule,Public,Grundschule,Pankow,Niederschönhausen,13156,Lindenberger Straße,12,,2024/25,Primary School,32.0,13.0,19.0,1.0,1.0,,False,13.418,52.583,188.0,03
03K01,Kurt-Schwitters-Schule,Integrierte Sekundarschule,Public,Integrierte Sekundarschule,Pankow,Prenzlauer Berg,10405,Greifswalder Straße,25,http://www.kurt-schwitters.schule,2024/25,Integrated Secondary School,987.0,526.0,461.0,94.0,59.0,35.0,False,13.428,52.532,27.0,03
03K02,Kurt-Tucholsky-Schule (Integrierte Sekundarschule),Integrierte Sekundarschule,Public,Integrierte Sekundarschule,Pankow,Pankow,13189,Neumannstraße,9,https://www.kto-berlin.de,2024/25,Integrated Secondary School,991.0,568.0,423.0,84.0,46.0,38.0,False,13.423,52.558,102.0,03
03K03,Konrad-Duden-Schule (Integrierte Sekundarschule),Integrierte Sekundarschule,Public,Integrierte Sekundarschule,Pankow,Niederschönhausen,13156,Rolandstraße,35,https://www.isskd.de,2024/25,Integrated Secondary School,647.0,259.0,388.0,64.0,43.0,21.0,False,13.418,52.582,188.0,03
03K04,Gustave-Eiffel-Schule,Integrierte Sekundarschule,Public,Integrierte Sekundarschule,Pankow,Prenzlauer Berg,10409,Hanns-Eisler-Straße,78,http://www.gustave-eiffel-schule.de/,2024/25,Integrated Secondary School,627.0,271.0,356.0,65.0,36.0,29.0,False,13.449,52.541,79.0,03
03K05,Heinz-Brandt-Schule,Integrierte Sekundarschule,Public,Integrierte Sekundarschule,Pankow,Weißensee,13086,Langhansstraße,120,https://heinz-brandt-schule.de,2024/25,Integrated Secondary School,487.0,227.0,260.0,51.0,35.0,16.0,False,13.442,52.551,99.0,03
03K06,Reinhold-Burger-Schule,Integrierte Sekundarschule,Public,Integrierte Sekundarschule,Pankow,Pankow,13187,Neue Schönholzer Straße,32,http://www.reinhold-burger-schule.de,2024/25,Integrated Secondary School,474.0,200.0,274.0,47.0,32.0,15.0,False,13.402,52.568,139.0,03
03K07,Tesla-Schule (Gemeinschaftsschule),Gemeinschaftsschule,Public,Integrierte Sekundarschule,Pankow,Prenzlauer Berg,10407,Rudi-Arndt-Straße,18,https://www.tesla-schule.de,2024/25,Integrated Secondary School,832.0,335.0,497.0,70.0,51.0,19.0,False,13.446,52.529,56.0,03
03K08,Hagenbeck-Schule,Integrierte Sekundarschule,Public,Integrierte Sekundarschule,Pankow,Weißensee,13086,Gustav-Adolf-Straße,60,http://www.hagenbeck-schule.de,2024/25,Integrated Secondary School,459.0,218.0,241.0,44.0,24.0,20.0,False,13.447,52.559,132.0,03
03K09,Janusz-Korczak-Schule (Integrierte Sekundarschule),Integrierte Sekundarschule,Public,Integrierte Sekundarschule,Pankow,Pankow,13187,Dolomitenstraße,94,https://jks-pankow.de,2024/25,Integrated Secondary School,389.0,153.0,236.0,38.0,20.0,18.0,True,13.408,52.563,113.0,03
03K10,Hufeland-Schule (Integrierte Sekundarschule),Integrierte Sekundarschule,Public,Integrierte Sekundarschule,Pankow,Buch,13125,Walter-Friedrich-Straße,18,https://www.hufelandschule.berlin,2024/25,Integrated Secondary School,681.0,289.0,392.0,61.0,33.0,28.0,False,13.493,52.633,333.0,03
03K11,Wilhelm-von-Humboldt-Gemeinschaftsschule,Gemeinschaftsschule,Public,Integrierte Sekundarschule,Pankow,Prenzlauer Berg,10439,Erich-Weinert-Straße,70,https://wvh-gemeinschaftsschule.de,2024/25,Integrated Secondary School,1007.0,515.0,492.0,96.0,77.0,19.0,False,13.425,52.549,77.0,03
03P03,Schulen Christburg Campus Prenzlauer Berg,Kombinierte allgemein bildende Schule,Private,Privatschule,Pankow,Prenzlauer Berg,10405,Christburger Straße,14,http://www.christburg-campus.de,2024/25,Private School,,,,,,,False,13.428,52.535,40.0,03
03P08,Katholisches Schulzentrum Edith Stein,Kombinierte berufliche Schule,Private,Privatschule,Pankow,Prenzlauer Berg,10405,Greifswalder Straße,18,https://schulzentrum-edithstein.de,2024/25,Private School,,,,,,,False,13.427,52.531,27.0,03
03P10,Katholische Theresienschule (Gymnasium),Gymnasium,Private,Privatschule,Pankow,Weißensee,13086,Behaimstraße,29,http://www.Theresienschule.de,2024/25,Private School,,,,,,,False,13.447,52.55,119.0,03
03P11,Stephanus-Schule,"Förderschwerp. ""Geistige Entwicklung""",Private,Privatschule,Pankow,Weißensee,13086,Albertinenstraße,20,http://www.stephanus-schule.de,2024/25,Private School,,,,,,,False,13.459,52.552,119.0,03
03P12,Evangelische Schule Pankow (Grundschule),Grundschule,Private,Privatschule,Pankow,Pankow,13187,Galenusstraße,60A,http://www.ev-schule-pankow.de,2024/25,Private School,,,,,,,False,13.423,52.58,177.0,03
03P13,Freie Schule Pankow (Integrierte Sekundarschule),Integrierte Sekundarschule,Private,Privatschule,Pankow,Niederschönhausen,13156,Grabbeallee,66,https://www.freie-schule-pankow.de,2024/25,Private School,,,,,,,False,13.399,52.578,167.0,03
03P14,Freie Grundschule Pfefferwerk,Grundschule,Private,Privatschule,Pankow,Prenzlauer Berg,10439,Schönfließer Straße,7,https://www.freie-grundschule.de,2024/25,Private School,,,,,,,False,13.409,52.553,94.0,03
03P15,GPB-College gGmbH,Kombinierte berufliche Schule,Private,Privatschule,Pankow,Prenzlauer Berg,10407,Storkower Straße,115A,https://www.gpb-college.de,2024/25,Private School,,,,,,,False,13.454,52.535,80.0,03
03P18,dreieins-Grundschule Berlin-Pankow,Grundschule,Private,Privatschule,Pankow,Weißensee,13088,Bizetstraße,64,https://www.dreieins.org/pankow,2024/25,Private School,,,,,,,False,13.456,52.548,104.0,03
03P20,SchuleEins (Gemeinschaftsschule),Gemeinschaftsschule,Private,Privatschule,Pankow,Pankow,13187,Berliner Straße,120,https://pankowerfruechtchen.de/schuleeins,2024/25,Private School,,,,,,,False,13.412,52.568,139.0,03
03P21,Freie Integrative Montessori Grundschule Pankow,Grundschule,Private,Privatschule,Pankow,Pankow,13187,Hadlichstraße,2,http://www.montessori-pädagogik-pankow.de,2024/25,Private School,,,,,,,False,13.413,52.568,159.0,03
03P22,Klax-Gemeinschaftsschule,Gemeinschaftsschule,Private,Privatschule,Pankow,Pankow,13189,Neumannstraße,13A,https://klax.de/de/schule,2024/25,Private School,,,,,,,False,13.422,52.561,137.0,03
03P23,Freie Naturschule im StadtGUT (Grundschule),Grundschule,Private,Privatschule,Pankow,Blankenfelde,13159,Hauptstraße,26,http://www.freie-naturschule-stadtgut.de,2024/25,Private School,,,,,,,False,13.393,52.618,287.0,03
03P24,Ting-Schule (Integrierte Sekundarschule),Integrierte Sekundarschule,Private,Privatschule,Pankow,Weißensee,13088,Berliner Allee,128,https://ting-schule.de,2024/25,Private School,,,,,,,False,13.462,52.551,119.0,03
03P26,Lauder Beth-Zion Schule (Gemeinschaftsschule),Gemeinschaftsschule,Private,Privatschule,Pankow,Prenzlauer Berg,10405,Rykestraße,53,https://lauderschule.de,2024/25,Private School,,,,,,,False,13.419,52.535,32.0,03
03P27,Klax Berufsakademie,Kombinierte berufliche Schule,Private,Privatschule,Pankow,Weißensee,13086,Langhansstraße,74B,https://klax.de/de/berufsakademie,2024/25,Private School,,,,,,,False,13.431,52.555,99.0,03
03P28,Platanus Schule Berlin (Gemeinschaftsschule),Gemeinschaftsschule,Private,Privatschule,Pankow,Pankow,13187,Berliner Straße,12,https://www.platanus-schule.de,2024/25,Private School,,,,,,,False,13.412,52.568,139.0,03
03P30,Freie Waldorfschule am Prenzlauer Berg,Freie Waldorfschule,Private,Privatschule,Pankow,Prenzlauer Berg,10409,Gürtelstraße,16,http://www.schulemachen.com,2024/25,Private School,,,,,,,False,13.454,52.544,79.0,03
03P32,Montessori-Gemeinschaftsschule Berlin Buch,Gemeinschaftsschule,Private,Privatschule,Pankow,Buch,13125,Wiltbergstraße,90,https://www.montessori-berlin-buch.de,2024/25,Private School,,,,,,,False,13.487,52.641,357.0,03
03P33,Evangelische Schule Berlin Buch (Grundschule),Grundschule,Private,Privatschule,Pankow,Buch,13125,Wiltbergstraße,50,http://www.ev-schule-buch.de,2024/25,Private School,,,,,,,False,13.49,52.639,357.0,03
03P36,WETEK - Fachschule für Sozialpädagogik,Fachschule,Private,Privatschule,Pankow,Prenzlauer Berg,10119,Christinenstraße,18,https://www.wetek.de,2024/25,Private School,,,,,,,False,13.41,52.532,21.0,03
03P37,Berlin Bilingual School (Integrierte Sekundarschule),Integrierte Sekundarschule,Private,Privatschule,Pankow,Pankow,13189,Granitzstraße,38A,https://www.berlin-bilingual-school.de,2024/25,Private School,,,,,,,False,13.424,52.57,137.0,03
03P38,S.K.O.U.T. - Fachschule für Sozialpädagogik,Fachschule,Private,Privatschule,Pankow,Prenzlauer Berg,10405,Immanuelkirchstraße,10,http://www.s-k-o-u-t.de,2024/25,Private School,,,,,,,False,13.425,52.532,27.0,03
03P39,Stephanus-Grundschule,Grundschule,Private,Privatschule,Pankow,Weißensee,13086,Parkstraße,22,https://www.stephanus.org,2024/25,Private School,,,,,,,False,13.457,52.553,119.0,03
03P40,SAfS - Spektrum Akademie für Sozialpädagogik - Kein Schulbetrieb,Fachschule,Private,Privatschule,Pankow,Heinersdorf,13089,Tino-Schwierzina-Straße,32,https://www.spektrum-akademie.berlin/erzieher-ausbildung.html,2024/25,Private School,,,,,,,False,13.434,52.56,160.0,03
03P42,Weiterdenker-Fachschule für Sozialpädagogik,Fachschule,Private,Privatschule,Pankow,Prenzlauer Berg,10435,Danziger Straße,50,https://weiterdenker-fachschule.de/,2024/25,Private School,,,,,,,False,13.42,52.54,54.0,03
03P43,Pfefferwerk - Fachschule für Sozialpädagogik,Fachschule,Private,Privatschule,Pankow,Prenzlauer Berg,10119,Christinenstraße,18,https://pfefferwerk-akademie.de,2024/25,Private School,,,,,,,False,13.41,52.532,21.0,03
03P44,St. Hildegard Akademie gGmbH,Berufsfachschule,Private,Privatschule,Pankow,Wilhelmsruh,13158,Hertzstraße,67,https://hildegard-akademie-berlin.de,2024/25,Private School,,,,,,,False,13.356,52.586,206.0,03
03P45,PepperMont Freie Sekundarschule für ganzheitliches Lernen,Integrierte Sekundarschule,Private,Privatschule,Pankow,Prenzlauer Berg,10409,Greifswalder Straße,88,https://www.pfefferwerk.de,2024/25,Private School,,,,,,,False,13.441,52.542,79.0,03
03P46,Technische Jugendfreizeit- und Bildungsgesellschaft (tjfbg) gGmbH,Fachschule,Private,Privatschule,Pankow,Prenzlauer Berg,10407,Storkower Straße,139B,https://www.tjfbg.de,2024/25,Private School,,,,,,,False,13.456,52.534,80.0,03
03P47,Bilinguale Schule Phorms Berlin Prenzlauer Berg (Grundschule),Grundschule,Private,Privatschule,Pankow,Prenzlauer Berg,10249,Hermann-Blankenstein-Straße,12,https://neu-prenzlauer-berg.phorms.de,2024/25,Private School,,,,,,,False,13.456,52.527,62.0,03
03P48,Freie Humanistische Grundschule,Grundschule,Private,Privatschule,Pankow,Niederschönhausen,13156,Dietzgenstraße,49,https://www.humanistisch.de/freie-humanistische-grundschule,2024/25,Private School,,,,,,,False,13.402,52.585,181.0,03
03S03,Helene-Haeusler-Schule,"Förderschwerp. ""Geistige Entwicklung""",Public,Schule mit sonderpädagogischem Förderschwerpunkt,Pankow,Prenzlauer Berg,10405,Mendelssohnstraße,10,http://www.helene-haeusler-schule.de,2024/25,Special Needs School,163.0,63.0,100.0,37.0,27.0,10.0,False,13.419,52.527,27.0,03
03S06,Schule am Birkenhof,"Förderschwerp. ""Lernen""",Public,Schule mit sonderpädagogischem Förderschwerpunkt,Pankow,Französisch Buchholz,13127,Arnouxstraße,18,http://www.schule-am-birkenhof.de,2024/25,Special Needs School,79.0,32.0,47.0,14.0,10.0,4.0,False,13.424,52.608,270.0,03
03S08,Panke-Schule,"Förderschwerp. ""Geistige Entwicklung""",Public,Schule mit sonderpädagogischem Förderschwerpunkt,Pankow,Pankow,13187,Klaustaler Straße,21A,http://www.panke-schule.de,2024/25,Special Needs School,134.0,45.0,89.0,29.0,22.0,7.0,False,13.42,52.579,177.0,03
03S09,Schule an der Strauchwiese,Übrige Förderschwerpunkte,Public,Schule mit sonderpädagogischem Förderschwerpunkt,Pankow,Pankow,13187,Mendelstraße,54,http://www.schuleanderstrauchwiese.de,2024/25,Special Needs School,80.0,22.0,58.0,18.0,16.0,2.0,False,13.418,52.578,177.0,03
03S10,Marianne-Buggenhagen-Schule,Übrige Förderschwerpunkte,Public,Schule mit sonderpädagogischem Förderschwerpunkt,Pankow,Buch,13125,Ernst-Busch-Straße,29,https://www.buggenhagen-schule.de,2024/25,Special Needs School,220.0,110.0,110.0,43.0,32.0,11.0,False,13.491,52.629,333.0,03
03Y03,Käthe-Kollwitz-Gymnasium,Gymnasium,Public,Gymnasium,Pankow,Prenzlauer Berg,10439,Dunckerstraße,65,https://www.kaethe-kollwitz-gymnasium.de,2024/25,Academic Secondary School,943.0,352.0,591.0,78.0,40.0,38.0,False,13.423,52.546,77.0,03
03Y04,Heinrich-Schliemann-Gymnasium,Gymnasium,Public,Gymnasium,Pankow,Prenzlauer Berg,10439,Dunckerstraße,64,http://www.hsg-berlin.de,2024/25,Academic Secondary School,1204.0,709.0,495.0,93.0,47.0,46.0,False,13.424,52.546,77.0,03
03Y08,Carl-von-Ossietzky-Gymnasium,Gymnasium,Public,Gymnasium,Pankow,Pankow,13187,Görschstraße,42,https://cvo.berlin,2024/25,Academic Secondary School,1123.0,691.0,432.0,101.0,62.0,39.0,False,13.401,52.566,131.0,03
03Y10,Rosa-Luxemburg-Gymnasium,Gymnasium,Public,Gymnasium,Pankow,Pankow,13189,Kissingenstraße,12,http://www.rlo-berlin.de,2024/25,Academic Secondary School,1259.0,665.0,594.0,116.0,57.0,59.0,False,13.42,52.567,137.0,03
03Y13,Felix-Mendelssohn-Bartholdy-Gymnasium,Gymnasium,Public,Gymnasium,Pankow,Prenzlauer Berg,10407,Pasteurstraße,7,http://www.fmbg-berlin.de,2024/25,Academic Secondary School,1358.0,867.0,491.0,106.0,60.0,46.0,False,13.432,52.534,33.0,03
03Y14,Primo-Levi-Gymnasium,Gymnasium,Public,Gymnasium,Pankow,Weißensee,13086,Pistoriusstraße,133,http://www.plg-berlin.de,2024/25,Academic Secondary School,1331.0,668.0,663.0,109.0,69.0,40.0,False,13.454,52.551,119.0,03
03Y15,Max-Delbrück-Gymnasium,Gymnasium,Public,Gymnasium,Pankow,Niederschönhausen,13156,Kuckhoffstraße,2,https://max-delbrueck-gymnasium.de,2024/25,Academic Secondary School,1056.0,546.0,510.0,84.0,52.0,32.0,False,13.402,52.584,181.0,03
03Y16,Robert-Havemann-Gymnasium,Gymnasium,Public,Gymnasium,Pankow,Karow,13125,Achillesstraße,79,http://www.robert-havemann-gymnasium.de,2024/25,Academic Secondary School,1154.0,540.0,614.0,85.0,47.0,38.0,False,13.493,52.616,305.0,03
03Y17,Inge-Deutschkron-Gymnasium,Gymnasium,Public,Gymnasium,Pankow,Wilhelmsruh,13158,Kopenhagener Straße,83,https://www.gesp-berlin.de,2024/25,Academic Secondary School,771.0,311.0,460.0,64.0,38.0,26.0,False,13.364,52.582,206.0,03
04A04,Charlotte-Wolff-Kolleg,Volkshochschul-Kolleg,Public,Andere Schule,Charlottenburg-Wilmersdorf,Charlottenburg,10627,Pestalozzistraße,40,http://www.charlotte-wolff-kolleg.de,2024/25,Other School,,,,,,,False,13.303,52.508,133.0,04
04A06,Peter-A.-Silbermann-Schule,Abend-Gymnasium,Public,Andere Schule,Charlottenburg-Wilmersdorf,Wilmersdorf,10713,Blissestraße,22,https://abendgymnasium.de,2024/25,Other School,,,,,,,False,13.319,52.484,128.0,04
04A08,Sportschule im Olympiapark - Poelchau-Schule,Integrierte Sekundarschule,Public,Andere Schule,Charlottenburg-Wilmersdorf,Westend,14053,Olympischer Platz,3,https://www.sportschule-olympiapark.de,2024/25,Other School,524.0,248.0,276.0,67.0,40.0,27.0,False,13.243,52.515,256.0,04
04B01,Loschmidt-Oberschule,Berufsschule mit sonderpäd. Aufgaben,Public,Berufsschule,Charlottenburg-Wilmersdorf,Charlottenburg,10587,Loschmidtstraße,19,http://www.loschmidt-oberschule.de,2024/25,Vocational School,384.0,147.0,237.0,44.0,24.0,20.0,True,13.313,52.517,111.0,04
04B02,Hans-Litten-Schule (OSZ Recht und Wirtschaft),Oberstufenzentrum,Public,Berufsschule,Charlottenburg-Wilmersdorf,Charlottenburg,14059,Danckelmannstraße,26,https://www.hlsberlin.de,2024/25,Vocational School,1637.0,769.0,868.0,108.0,67.0,41.0,True,13.291,52.512,172.0,04
04B03,OSZ Kraftfahrzeugtechnik,Oberstufenzentrum,Public,Berufsschule,Charlottenburg-Wilmersdorf,Charlottenburg,10585,Gierkeplatz,1,http://www.osz-kfz.de,2024/25,Vocational School,1831.0,107.0,1724.0,68.0,18.0,50.0,False,13.302,52.517,165.0,04
04B04,Ruth-Cohn-Schule (OSZ Sozialwesen),Oberstufenzentrum,Public,Berufsschule,Charlottenburg-Wilmersdorf,Charlottenburg,10625,Bismarckstraße,20,http://www.osz-ruth-cohn.de,2024/25,Vocational School,908.0,621.0,287.0,71.0,44.0,27.0,True,13.313,52.512,133.0,04
04B05,Anna-Freud-Schule (OSZ Sozialwesen),Oberstufenzentrum,Public,Berufsschule,Charlottenburg-Wilmersdorf,Charlottenburg-Nord,13627,Halemweg,22,https://www.anna-freud-osz.de,2024/25,Vocational School,1484.0,1098.0,386.0,129.0,102.0,27.0,False,13.288,52.538,198.0,04
04B06,Leopold-Ullstein-Schule (OSZ Wirtschaft),Oberstufenzentrum,Public,Berufsschule,Charlottenburg-Wilmersdorf,Wilmersdorf,10715,Prinzregentenstraße,32,https://www.leopold-ullstein-schule.de,2024/25,Vocational School,1186.0,457.0,729.0,74.0,47.0,27.0,False,13.333,52.484,108.0,04
04B07,OSZ Ästhetik und Technik,Oberstufenzentrum,Public,Berufsschule,Charlottenburg-Wilmersdorf,Charlottenburg,10625,Schillerstraße,120,https://www.osz-koerperpflege.de,2024/25,Vocational School,1187.0,702.0,485.0,66.0,54.0,12.0,True,13.319,52.511,97.0,04
04G01,Eichendorff-Grundschule,Grundschule,Public,Grundschule,Charlottenburg-Wilmersdorf,Charlottenburg,10625,Goethestraße,19,https://www.eichendorff-grundschule-berlin.de,2024/25,Primary School,447.0,207.0,240.0,30.0,24.0,6.0,False,13.313,52.509,133.0,04
04G02,Lietzensee-Grundschule,Grundschule,Public,Grundschule,Charlottenburg-Wilmersdorf,Charlottenburg,14057,Witzlebenstraße,34,https://lietzensee-grundschule.berlin,2024/25,Primary School,390.0,179.0,211.0,30.0,25.0,5.0,False,13.295,52.509,171.0,04
04G04,Joan-Miró-Grundschule,Grundschule,Public,Grundschule,Charlottenburg-Wilmersdorf,Charlottenburg,10623,Bleibtreustraße,43,http://www.joan-miro-grundschule.de,2024/25,Primary School,726.0,361.0,365.0,60.0,49.0,11.0,False,13.32,52.504,97.0,04
04G05,Dietrich-Bonhoeffer-Grundschule,Grundschule,Public,Grundschule,Charlottenburg-Wilmersdorf,Westend,14050,Spandauer Damm,205,,2024/25,Primary School,405.0,198.0,207.0,33.0,27.0,6.0,False,13.261,52.521,244.0,04
04G06,Wald-Grundschule,Grundschule,Public,Grundschule,Charlottenburg-Wilmersdorf,Westend,14055,Waldschulallee,83,http://wald-grundschule.de,2024/25,Primary School,488.0,223.0,265.0,34.0,32.0,2.0,False,13.259,52.503,266.0,04
04G07,Ludwig-Cauer-Grundschule,Grundschule,Public,Grundschule,Charlottenburg-Wilmersdorf,Charlottenburg,10587,Cauerstraße,36,http://www.cauerschule.de,2024/25,Primary School,485.0,239.0,246.0,33.0,30.0,3.0,False,13.316,52.516,111.0,04
04G08,Mierendorff-Grundschule,Grundschule,Public,Grundschule,Charlottenburg-Wilmersdorf,Charlottenburg,10589,Mierendorffstraße,20,http://www.mierendorff-grundschule.de,2024/25,Primary School,458.0,230.0,228.0,39.0,29.0,10.0,False,13.303,52.523,158.0,04
04G09,Erwin-von-Witzleben-Grundschule,Grundschule,Public,Grundschule,Charlottenburg-Wilmersdorf,Charlottenburg-Nord,13627,Halemweg,34,https://www.erwinvonwitzleben-grundschule.de,2024/25,Primary School,447.0,211.0,236.0,34.0,27.0,7.0,True,13.287,52.539,198.0,04
04G11,Helmuth-James-von-Moltke-Grundschule,Grundschule,Public,Grundschule,Charlottenburg-Wilmersdorf,Charlottenburg-Nord,13627,Heckerdamm,221,http://www.moltke-grundschule.de,2024/25,Primary School,482.0,224.0,258.0,42.0,31.0,11.0,True,13.301,52.539,163.0,04
04G12,Schinkel-Grundschule,Grundschule,Public,Grundschule,Charlottenburg-Wilmersdorf,Charlottenburg,10585,Nithackstraße,8,http://www.schinkel-grundschule.de,2024/25,Primary School,708.0,357.0,351.0,59.0,48.0,11.0,False,13.299,52.518,165.0,04
04G13,Nehring-Grundschule,Grundschule,Public,Grundschule,Charlottenburg-Wilmersdorf,Charlottenburg,14059,Nehringstraße,9,http://www.nehring-grundschule.de,2024/25,Primary School,505.0,253.0,252.0,42.0,32.0,10.0,False,13.293,52.515,172.0,04
04G14,Reinhold-Otto-Grundschule,Grundschule,Public,Grundschule,Charlottenburg-Wilmersdorf,Westend,14050,Leistikowstraße,7,http://www.reinhold-otto.de,2024/25,Primary School,440.0,223.0,217.0,35.0,27.0,8.0,False,13.268,52.513,196.0,04
04G15,Charles-Dickens-Grundschule,Grundschule,Public,Grundschule,Charlottenburg-Wilmersdorf,Westend,14055,Dickensweg,15,http://www.charles-dickens-gs.de,2024/25,Primary School,456.0,228.0,228.0,43.0,37.0,6.0,False,13.238,52.508,256.0,04
04G17,Johann-Peter-Hebel-Grundschule,Grundschule,Public,Grundschule,Charlottenburg-Wilmersdorf,Wilmersdorf,10719,Emser Straße,50,http://www.hebelschule-berlin.de,2024/25,Primary School,550.0,274.0,276.0,46.0,42.0,4.0,False,13.32,52.495,106.0,04
04G18,Ernst-Habermann-Grundschule,Grundschule,Public,Grundschule,Charlottenburg-Wilmersdorf,Wilmersdorf,10715,Prinzregentenstraße,33,http://www.ernst-habermann.de,2024/25,Primary School,334.0,163.0,171.0,23.0,15.0,8.0,False,13.333,52.483,108.0,04
04G19,Grundschule am Rüdesheimer Platz,Grundschule,Public,Grundschule,Charlottenburg-Wilmersdorf,Wilmersdorf,14197,Rüdesheimer Straße,24,http://www.garp-schule.de,2024/25,Primary School,562.0,275.0,287.0,51.0,43.0,8.0,False,13.313,52.471,153.0,04
04G20,Katharina-Heinroth-Grundschule,Grundschule,Public,Grundschule,Charlottenburg-Wilmersdorf,Wilmersdorf,10709,Münstersche Straße,15,http://katharina-heinroth-grundschule.de,2024/25,Primary School,747.0,391.0,356.0,56.0,49.0,7.0,False,13.306,52.494,143.0,04
04G21,Halensee-Grundschule,Grundschule,Public,Grundschule,Charlottenburg-Wilmersdorf,Halensee,10711,Joachim-Friedrich-Straße,35,https://www.halensee-grundschule.de,2024/25,Primary School,446.0,227.0,219.0,27.0,25.0,2.0,False,13.296,52.5,151.0,04
04G22,Grunewald-Grundschule,Grundschule,Public,Grundschule,Charlottenburg-Wilmersdorf,Grunewald,14193,Delbrückstraße,20A,http://www.grunewald-grundschule.de,2024/25,Primary School,585.0,277.0,308.0,36.0,32.0,4.0,False,13.281,52.485,263.0,04
04G23,Alt-Schmargendorf-Grundschule,Grundschule,Public,Grundschule,Charlottenburg-Wilmersdorf,Schmargendorf,14199,Reichenhaller Straße,8,http://www.alt-schmargendorf-grundschule.de,2024/25,Primary School,530.0,249.0,281.0,40.0,36.0,4.0,False,13.294,52.477,174.0,04
04G24,Carl-Orff-Grundschule,Grundschule,Public,Grundschule,Charlottenburg-Wilmersdorf,Schmargendorf,14199,Berkaer Straße,10,http://www.carl-orff-gs.de,2024/25,Primary School,613.0,319.0,294.0,44.0,35.0,9.0,False,13.287,52.478,209.0,04
04G25,Cecilien-Schule (Grundschule),Grundschule,Public,Grundschule,Charlottenburg-Wilmersdorf,Wilmersdorf,10717,Nikolsburger Platz,5,http://www.cecilien-schule.de,2024/25,Primary School,434.0,210.0,224.0,31.0,27.0,4.0,False,13.328,52.493,98.0,04
04G26,Birger-Forell-Grundschule,Grundschule,Public,Grundschule,Charlottenburg-Wilmersdorf,Wilmersdorf,10715,Koblenzer Straße,22,http://www.birger-forell-grundschule.de,2024/25,Primary School,417.0,205.0,212.0,34.0,29.0,5.0,False,13.322,52.481,128.0,04
04G27,Judith-Kerr-Grundschule,Grundschule,Public,Grundschule,Charlottenburg-Wilmersdorf,Schmargendorf,14199,Friedrichshaller Straße,13,http://www.judith-kerr-grundschule.de,2024/25,Primary School,374.0,194.0,180.0,32.0,24.0,8.0,False,13.293,52.476,174.0,04
04K02,Friedensburg-Schule,Integrierte Sekundarschule,Public,Integrierte Sekundarschule,Charlottenburg-Wilmersdorf,Charlottenburg,10623,Goethestraße,8,https://www.fosberlin.eu,2024/25,Integrated Secondary School,1249.0,612.0,637.0,120.0,68.0,52.0,False,13.321,52.509,97.0,04
04K03,Robert-Jungk-Schule,Integrierte Sekundarschule,Public,Integrierte Sekundarschule,Charlottenburg-Wilmersdorf,Wilmersdorf,10707,Sächsische Straße,58,http://www.Robert-Jungk-Oberschule.de,2024/25,Integrated Secondary School,888.0,410.0,478.0,104.0,65.0,39.0,False,13.318,52.494,106.0,04
04K04,Nelson-Mandela-Schule,Integrierte Sekundarschule,Public,Integrierte Sekundarschule,Charlottenburg-Wilmersdorf,Wilmersdorf,10717,Pfalzburger Straße,30,https://www.nelson-mandela-schule.net,2024/25,Integrated Secondary School,1044.0,504.0,540.0,114.0,70.0,44.0,False,13.321,52.491,106.0,04
04K05,Paula-Fürst-Schule (Gemeinschaftsschule),Gemeinschaftsschule,Public,Integrierte Sekundarschule,Charlottenburg-Wilmersdorf,Charlottenburg,10629,Sybelstraße,20,https://www.paula-fuerst-gemeinschaftsschule.de,2024/25,Integrated Secondary School,1139.0,541.0,598.0,101.0,68.0,33.0,False,13.302,52.502,151.0,04
04K06,Schule am Schloss (Integrierte Sekundarschule),Integrierte Sekundarschule,Public,Integrierte Sekundarschule,Charlottenburg-Wilmersdorf,Charlottenburg,14059,Schloßstraße,55A,http://www.schuleamschloss.de,2024/25,Integrated Secondary School,474.0,192.0,282.0,50.0,34.0,16.0,True,13.298,52.516,165.0,04
04K07,Integrierte Sekundarschule Wilmersdorf,Integrierte Sekundarschule,Public,Integrierte Sekundarschule,Charlottenburg-Wilmersdorf,Schmargendorf,14199,Kranzer Straße,3,https://www.sekundarschule-wilmersdorf.de,2024/25,Integrated Secondary School,344.0,161.0,183.0,32.0,18.0,14.0,False,13.294,52.483,174.0,04
04K08,Peter-Ustinov-Schule,Integrierte Sekundarschule,Public,Integrierte Sekundarschule,Charlottenburg-Wilmersdorf,Charlottenburg,14057,Kuno-Fischer-Straße,22,http://www.peter-ustinov-schule.de,2024/25,Integrated Secondary School,461.0,211.0,250.0,58.0,30.0,28.0,False,13.291,52.505,171.0,04
04K09,Otto-von-Guericke-Schule (Integrierte Sekundarschule),Integrierte Sekundarschule,Public,Integrierte Sekundarschule,Charlottenburg-Wilmersdorf,Wilmersdorf,10709,Eisenzahnstraße,47,http://www.ovgos.de,2024/25,Integrated Secondary School,436.0,200.0,236.0,44.0,26.0,18.0,False,13.305,52.492,143.0,04
04K10,Wangari-Maathai-Internationale-Schule,Integrierte Sekundarschule,Public,Integrierte Sekundarschule,Charlottenburg-Wilmersdorf,Wilmersdorf,10715,Babelsberger Straße,24,http://wangari-maathai-schule.jimdofree.com,2024/25,Integrated Secondary School,304.0,140.0,164.0,34.0,23.0,11.0,False,13.335,52.482,108.0,04
04P01,Katholische Schule Herz Jesu (Grundschule),Grundschule,Private,Privatschule,Charlottenburg-Wilmersdorf,Westend,14055,Insterburgallee,8,http://www.herz-jesu-schule.de,2024/25,Private School,,,,,,,False,13.253,52.511,256.0,04
04P02,Schele-Schule (Gemeinschaftsschule),Gemeinschaftsschule,Private,Privatschule,Charlottenburg-Wilmersdorf,Westend,14052,Olympische Straße,23,https://www.schele-schule.de,2024/25,Private School,,,,,,,False,13.256,52.516,244.0,04
04P03,Heinz-Galinski-Schule (Grundschule),Grundschule,Private,Privatschule,Charlottenburg-Wilmersdorf,Westend,14055,Waldschulallee,73,http://www.hgsberlin.de,2024/25,Private School,,,,,,,False,13.259,52.502,266.0,04
04P04,Katholische Schule Liebfrauen (Gymnasium),Gymnasium,Private,Privatschule,Charlottenburg-Wilmersdorf,Westend,14050,Ahornallee,33,http://www.KSLiebfrauen.de,2024/25,Private School,,,,,,,False,13.275,52.511,196.0,04
04P05,Evangelische Schule Charlottenburg (Integrierte Sekundarschule),Integrierte Sekundarschule,Private,Privatschule,Charlottenburg-Wilmersdorf,Charlottenburg,10587,Guerickestraße,4,https://www.ev-schule-charlottenburg.de,2024/25,Private School,,,,,,,False,13.316,52.518,111.0,04
04P09,IFAG Institut für angewandte Gerontologie,Berufsfachschule,Private,Privatschule,Charlottenburg-Wilmersdorf,Charlottenburg,10585,Haubachstraße,8,https://www.ifag-berlin.de,2024/25,Private School,,,,,,,False,13.306,52.516,165.0,04
04P10,Katholische Schule Sankt Ludwig (Grundschule),Grundschule,Private,Privatschule,Charlottenburg-Wilmersdorf,Wilmersdorf,10719,Düsseldorfer Straße,13,https://ludwig-gs.de,2024/25,Private School,,,,,,,False,13.321,52.496,106.0,04
04P11,Evangelisches Gymnasium zum Grauen Kloster,Gymnasium,Private,Privatschule,Charlottenburg-Wilmersdorf,Schmargendorf,14193,Salzbrunner Straße,41,http://www.graues-kloster.de,2024/25,Private School,,,,,,,False,13.293,52.485,209.0,04
04P12,Annie-Heuser-Schule,Freie Waldorfschule,Private,Privatschule,Charlottenburg-Wilmersdorf,Wilmersdorf,10709,Eisenzahnstraße,37,http://www.annie-heuser-schule.de,2024/25,Private School,,,,,,,False,13.305,52.489,143.0,04
04P15,Freie Schule Charlottenburg,Integrierte Sekundarschule,Private,Privatschule,Charlottenburg-Wilmersdorf,Westend,14052,Frankenallee,6,http://www.freie-schule-charlottenburg.de,2024/25,Private School,,,,,,,False,13.268,52.507,266.0,04
04P20,Rackow-Schulen Berlin,Kombinierte berufliche Schule,Private,Privatschule,Charlottenburg-Wilmersdorf,Charlottenburg,10623,Fasanenstraße,81,https://rackow-schulen.de/berlin,2024/25,Private School,,,,,,,False,13.328,52.505,97.0,04
04P21,Evangelische Schule Wilmersdorf (Grundschule),Grundschule,Private,Privatschule,Charlottenburg-Wilmersdorf,Wilmersdorf,10707,Brandenburgische Straße,51,http://www.evgruwi.de,2024/25,Private School,,,,,,,False,13.309,52.494,143.0,04
04P22,Erste Aktivschule Charlottenburg (Grundschule),Grundschule,Private,Privatschule,Charlottenburg-Wilmersdorf,Charlottenburg,10587,Alt-Lietzow,31,http://www.aktivschule-charlottenburg.de,2024/25,Private School,,,,,,,False,13.31,52.519,111.0,04
04P23,Jüdische Traditionsschule,Kombinierte allgemein bildende Schule,Private,Privatschule,Charlottenburg-Wilmersdorf,Wilmersdorf,10709,Westfälische Straße,15,https://www.jschule.de,2024/25,Private School,,,,,,,False,13.307,52.493,143.0,04
04P24,Moser-Schule - Schweizer Gymnasium,Gymnasium,Private,Privatschule,Charlottenburg-Wilmersdorf,Westend,14052,Badenallee,31,http://www.moserschule.de,2024/25,Private School,,,,,,,False,13.263,52.51,196.0,04
04P27,Schule am Westend,Übrige Förderschwerpunkte,Private,Privatschule,Charlottenburg-Wilmersdorf,Westend,14050,Spandauer Damm,130,https://www.drk-kliniken-berlin.de,2024/25,Private School,,,,,,,False,13.276,52.519,196.0,04
04P35,Mentora Gymnasium,Gymnasium,Private,Privatschule,Charlottenburg-Wilmersdorf,Charlottenburg,10587,Salzufer,6,https://www.mentora-gymnasium.de,2024/25,Private School,,,,,,,False,13.328,52.516,111.0,04
04P37,Campus Berufsbildung e.V.,Berufsfachschule,Private,Privatschule,Charlottenburg-Wilmersdorf,Charlottenburg,10627,Wilmersdorfer Straße,126,http://www.campus-berlin.de,2024/25,Private School,,,,,,,False,13.306,52.51,133.0,04
04P39,Berlin British School (Grundschule),Grundschule,Private,Privatschule,Charlottenburg-Wilmersdorf,Westend,14055,Dickensweg,17,http://www.berlinbritishschool.de,2024/25,Private School,,,,,,,False,13.237,52.509,256.0,04
04P40,Berlin British School (Integrierte Sekundarschule),Integrierte Sekundarschule,Private,Privatschule,Charlottenburg-Wilmersdorf,Grunewald,14055,Am Postfenn,31,http://www.berlinbritishschool.de,2024/25,Private School,,,,,,,False,13.211,52.5,266.0,04
04P41,Freudberg-Gemeinschaftsschule,Gemeinschaftsschule,Private,Privatschule,Charlottenburg-Wilmersdorf,Wilmersdorf,10717,Bundesallee,35,https://www.freudbergschule.de,2024/25,Private School,,,,,,,False,13.33,52.489,98.0,04
04P42,Private Kant-Schule - Berlin International School,Integrierte Sekundarschule,Private,Privatschule,Charlottenburg-Wilmersdorf,Schmargendorf,14195,Lentzeallee,8,http://www.berlin-international-school.de,2024/25,Private School,,,,,,,False,13.293,52.47,174.0,04
04P45,Jewish International School - Masorti-Grundschule,Grundschule,Private,Privatschule,Charlottenburg-Wilmersdorf,Charlottenburg,10629,Roscherstraße,6,http://www.masorti.de,2024/25,Private School,,,,,,,False,13.302,52.501,151.0,04
04P46,Hasenschule (Grundschule),Grundschule,Private,Privatschule,Charlottenburg-Wilmersdorf,Wilmersdorf,10707,Lietzenburger Straße,107,http://www.hasenschule.de,2024/25,Private School,,,,,,,False,13.317,52.499,106.0,04
04P47,Privates Europa-Gymnasium Berlin,Gymnasium,Private,Privatschule,Charlottenburg-Wilmersdorf,Charlottenburg,10585,Haubachstraße,8,https://www.europa-gymnasium.eu,2024/25,Private School,,,,,,,False,13.306,52.516,165.0,04
04S02,Arno-Fuchs-Schule,"Förderschwerp. ""Geistige Entwicklung""",Public,Schule mit sonderpädagogischem Förderschwerpunkt,Charlottenburg-Wilmersdorf,Charlottenburg,10585,Richard-Wagner-Straße,30,https://www.arno-fuchs-schule.de,2024/25,Special Needs School,124.0,50.0,74.0,27.0,23.0,4.0,False,13.307,52.515,165.0,04
04S04,Reinfelder-Schule,Übrige Förderschwerpunkte,Public,Schule mit sonderpädagogischem Förderschwerpunkt,Charlottenburg-Wilmersdorf,Westend,14055,Maikäferpfad,30,http://www.reinfelder-schule.de,2024/25,Special Needs School,408.0,167.0,241.0,58.0,52.0,6.0,False,13.264,52.497,266.0,04
04S05,Ernst-Adolf-Eschke-Schule für Gehörlose,Förderschwerp. einschl. beruflichem Teil,Public,Schule mit sonderpädagogischem Förderschwerpunkt,Charlottenburg-Wilmersdorf,Westend,14055,Waldschulallee,29,https://eschke-schule.de,2024/25,Special Needs School,120.0,59.0,61.0,40.0,31.0,9.0,False,13.266,52.499,266.0,04
04S06,Finkenkrug-Schule,"Förderschwerp. ""Geistige Entwicklung""",Public,Schule mit sonderpädagogischem Förderschwerpunkt,Charlottenburg-Wilmersdorf,Wilmersdorf,10713,Mannheimer Straße,21,http://finkenkrug-berlin.de,2024/25,Special Needs School,133.0,38.0,95.0,25.0,19.0,6.0,False,13.316,52.484,128.0,04
04S07,Comenius-Schule,Übrige Förderschwerpunkte,Public,Schule mit sonderpädagogischem Förderschwerpunkt,Charlottenburg-Wilmersdorf,Wilmersdorf,10713,Gieselerstraße,4,http://www.schule-comenius.de,2024/25,Special Needs School,591.0,225.0,366.0,102.0,85.0,17.0,False,13.318,52.489,143.0,04
04Y01,Schiller-Gymnasium,Gymnasium,Public,Gymnasium,Charlottenburg-Wilmersdorf,Charlottenburg,10625,Schillerstraße,125,http://www.sgym.de,2024/25,Academic Secondary School,1005.0,552.0,453.0,89.0,59.0,30.0,False,13.322,52.511,97.0,04
04Y02,Wald-Gymnasium,Gymnasium,Public,Gymnasium,Charlottenburg-Wilmersdorf,Westend,14055,Waldschulallee,95,http://www.waldgymnasium.de,2024/25,Academic Secondary School,734.0,328.0,406.0,68.0,38.0,30.0,False,13.256,52.503,266.0,04
04Y03,Sophie-Charlotte-Gymnasium,Gymnasium,Public,Gymnasium,Charlottenburg-Wilmersdorf,Charlottenburg,10629,Sybelstraße,2,http://www.scgberlin.de,2024/25,Academic Secondary School,730.0,416.0,314.0,61.0,37.0,24.0,False,13.312,52.502,151.0,04
04Y04,Gottfried-Keller-Gymnasium,Gymnasium,Public,Gymnasium,Charlottenburg-Wilmersdorf,Charlottenburg,10589,Olbersstraße,38,http://www.gks-berlin.de,2024/25,Academic Secondary School,858.0,347.0,511.0,81.0,52.0,29.0,False,13.302,52.529,158.0,04
04Y05,Herder-Gymnasium,Gymnasium,Public,Gymnasium,Charlottenburg-Wilmersdorf,Westend,14052,Westendallee,45,https://www.herder-gymnasium.eu,2024/25,Academic Secondary School,900.0,301.0,599.0,72.0,39.0,33.0,False,13.258,52.511,196.0,04
04Y06,Heinz-Berggruen-Gymnasium,Gymnasium,Public,Gymnasium,Charlottenburg-Wilmersdorf,Westend,14052,Bayernallee,4,http://hbgym.de,2024/25,Academic Secondary School,874.0,565.0,309.0,74.0,45.0,29.0,False,13.267,52.511,196.0,04
04Y07,Friedrich-Ebert-Gymnasium,Gymnasium,Public,Gymnasium,Charlottenburg-Wilmersdorf,Wilmersdorf,10713,Blissestraße,22,https://feoberlin.de,2024/25,Academic Secondary School,791.0,446.0,345.0,64.0,35.0,29.0,False,13.319,52.484,128.0,04
04Y08,Hildegard-Wegscheider-Gymnasium,Gymnasium,Public,Gymnasium,Charlottenburg-Wilmersdorf,Grunewald,14193,Lassenstraße,16,https://www.wegscheider-gymnasium.de,2024/25,Academic Secondary School,619.0,258.0,361.0,47.0,31.0,16.0,False,13.276,52.485,263.0,04
04Y09,Walther-Rathenau-Gymnasium,Gymnasium,Public,Gymnasium,Charlottenburg-Wilmersdorf,Grunewald,14193,Herbertstraße,2,https://www.wrs-berlin.de,2024/25,Academic Secondary School,555.0,246.0,309.0,49.0,26.0,23.0,False,13.281,52.491,263.0,04
04Y10,Marie-Curie-Gymnasium,Gymnasium,Public,Gymnasium,Charlottenburg-Wilmersdorf,Wilmersdorf,10715,Weimarische Straße,21,http://www.mcg-berlin.de,2024/25,Academic Secondary School,717.0,335.0,382.0,64.0,37.0,27.0,False,13.325,52.48,128.0,04
04Y11,Goethe-Gymnasium,Gymnasium,Public,Gymnasium,Charlottenburg-Wilmersdorf,Wilmersdorf,10717,Gasteiner Straße,23,https://goethe-gymnasium.berlin,2024/25,Academic Secondary School,836.0,420.0,416.0,61.0,30.0,31.0,False,13.322,52.487,143.0,04
05A03,VHS Spandau - Harri-Reinert,Volkshochschule,Public,Andere Schule,Spandau,Spandau,13597,Carl-Schurz-Straße,59,https://www.berlin.de/vhs/volkshochschulen/spandau/kurse/grundbildung-schulabschluesse,2024/25,Other School,,,,,,,False,13.205,52.539,295.0,05
05B01,"OSZ TIEM (Technische Informatik, Industrieelektronik und EnergieManagement)",Oberstufenzentrum,Public,Berufsschule,Spandau,Haselhorst,13599,Goldbeckweg,8,https://www.osztiem.de,2024/25,Vocational School,1910.0,114.0,1796.0,82.0,22.0,60.0,True,13.23,52.544,298.0,05
05B02,Knobelsdorff-Schule (OSZ Bautechnik I),Oberstufenzentrum,Public,Berufsschule,Spandau,Haselhorst,13599,Nonnendammallee,140,https://www.knobelsdorff-schule.de,2024/25,Vocational School,1843.0,131.0,1712.0,133.0,38.0,95.0,False,13.243,52.539,269.0,05
05G01,Ernst-Ludwig-Heim-Grundschule,Grundschule,Public,Grundschule,Spandau,Spandau,13597,Grunewaldstraße,8,https://www.elhg.de,2024/25,Primary School,450.0,200.0,250.0,49.0,40.0,9.0,True,13.207,52.53,295.0,05
05G02,Grundschule am Eichenwald,Grundschule,Public,Grundschule,Spandau,Hakenfelde,13587,Gaismannshofer Weg,2,https://www.eichenwald-grundschule.de,2024/25,Primary School,447.0,224.0,223.0,38.0,28.0,10.0,False,13.199,52.558,351.0,05
05G07,Lynar-Grundschule,Grundschule,Public,Grundschule,Spandau,Spandau,13585,Lutherstraße,19,http://www.lynar-grundschule.de,2024/25,Primary School,518.0,251.0,267.0,58.0,46.0,12.0,True,13.207,52.548,315.0,05
05G11,Robert-Reinick-Grundschule,Grundschule,Public,Grundschule,Spandau,Siemensstadt,13629,Jungfernheideweg,33,https://www.robert-reinick-grundschule.de,2024/25,Primary School,548.0,259.0,289.0,41.0,29.0,12.0,True,13.273,52.541,232.0,05
05G13,Bernd-Ryke-Grundschule,Grundschule,Public,Grundschule,Spandau,Haselhorst,13599,Daumstraße,12,http://www.bernd-ryke-gs.de,2024/25,Primary School,639.0,310.0,329.0,59.0,30.0,29.0,False,13.233,52.545,269.0,05
05G20,Carl-Schurz-Grundschule,Grundschule,Public,Grundschule,Spandau,Hakenfelde,13587,Hakenfelder Straße,32,https://carl-schurz-grundschule.de,2024/25,Primary School,483.0,225.0,258.0,45.0,36.0,9.0,False,13.199,52.567,368.0,05
05G27,Peter-Härtling-Grundschule,Grundschule,Public,Grundschule,Spandau,Spandau,13585,Falkenseer Damm,22,http://www.peter-haertling-gs.de,2024/25,Primary School,629.0,298.0,331.0,56.0,53.0,3.0,True,13.198,52.544,336.0,05
05G28,Grundschule an der Pulvermühle,Grundschule,Public,Grundschule,Spandau,Haselhorst,13599,Grützmacherweg,7,http://www.gs-pulvermuehle.de,2024/25,Primary School,677.0,348.0,329.0,50.0,39.0,11.0,True,13.227,52.544,298.0,05
05G30,Birken-Grundschule,Grundschule,Public,Grundschule,Spandau,Spandau,13585,Hügelschanze,8,http://inklusiver-campus-spandau.de,2024/25,Primary School,525.0,256.0,269.0,59.0,46.0,13.0,True,13.197,52.549,343.0,05
05G31,Havel-Grundschule,Grundschule,Public,Grundschule,Spandau,Hakenfelde,13587,Goltzstraße,25,https://www.havel-grundschule.de,2024/25,Primary School,518.0,269.0,249.0,55.0,42.0,13.0,True,13.215,52.564,323.0,05
05G32,32. Schule (Grundschule),Grundschule,Public,Grundschule,Spandau,Spandau,13585,Fehrbelliner Tor,2,,2024/25,Primary School,37.0,17.0,20.0,3.0,3.0,,False,13.2,52.554,330.0,05
05K04,Heinrich-Böll-Oberschule (Integrierte Sekundarschule),Integrierte Sekundarschule,Public,Integrierte Sekundarschule,Spandau,Hakenfelde,13587,Am Forstacker,9,https://boell-schule.de,2024/25,Integrated Secondary School,1009.0,471.0,538.0,97.0,54.0,43.0,False,13.198,52.564,368.0,05
05K06,Wolfgang-Borchert-Schule (Integrierte Sekundarschule),Integrierte Sekundarschule,Public,Integrierte Sekundarschule,Spandau,Spandau,13585,Blumenstraße,13,http://borchertschule-spandau.de,2024/25,Integrated Secondary School,861.0,389.0,472.0,88.0,46.0,42.0,True,13.197,52.546,336.0,05
05K07,Schule an der Jungfernheide (Integrierte Sekundarschule),Integrierte Sekundarschule,Public,Integrierte Sekundarschule,Spandau,Siemensstadt,13629,Lenther Steig,1,http://www.schule-an-der-jungfernheide.de,2024/25,Integrated Secondary School,450.0,206.0,244.0,55.0,41.0,14.0,False,13.267,52.538,232.0,05
05P02,Katholische Schule Bernhard Lichtenberg (Grundschule),Grundschule,Private,Privatschule,Spandau,Spandau,13585,Hohenzollernring,159,http://www.ksbl.de,2024/25,Private School,,,,,,,False,13.193,52.543,341.0,05
05P03,Evangelische Schule Spandau im Johannesstift,Integrierte Sekundarschule,Private,Privatschule,Spandau,Hakenfelde,13587,Schönwalder Allee,26,https://www.ev-schule-spandau.de,2024/25,Private School,,,,,,,False,13.192,52.568,368.0,05
05P04,August-Hermann-Francke-Schule,"Förderschwerp. ""Geistige Entwicklung""",Private,Privatschule,Spandau,Hakenfelde,13587,Schönwalder Allee,26,http://www.johannesstift-diakonie.de/teilhabe-paedagogik/august-hermann-francke-schule/,2024/25,Private School,,,,,,,False,13.192,52.568,368.0,05
05P06,Werner-von-Siemens-Werkberufsschule der Siemens AG,Berufsschule,Private,Privatschule,Spandau,Siemensstadt,13629,Nonnendammallee,104,https://www.ausbildung.siemens.com,2024/25,Private School,,,,,,,False,13.261,52.537,232.0,05
05P10,Soziale Fachschulen Johannesstift Diakonie gGmbH,Kombinierte berufliche Schule,Private,Privatschule,Spandau,Hakenfelde,13587,Schönwalder Allee,26,https://www.johannesstift-diakonie.de/karriere-bildung/soziale-fachschulen,2024/25,Private School,,,,,,,False,13.192,52.568,368.0,05
05S01,Schule am Grüngürtel,"Förderschwerp. ""Lernen""",Public,Schule mit sonderpädagogischem Förderschwerpunkt,Spandau,Spandau,13585,Askanierring,42,http://schule-am-gruenguertel.de,2024/25,Special Needs School,136.0,44.0,92.0,20.0,13.0,7.0,False,13.194,52.549,343.0,05
05Y01,Freiherr-vom-Stein-Gymnasium,Gymnasium,Public,Gymnasium,Spandau,Spandau,13597,Galenstraße,40,http://www.steingymnasium.de,2024/25,Academic Secondary School,942.0,439.0,503.0,89.0,60.0,29.0,False,13.2,52.541,336.0,05
05Y02,Kant-Gymnasium,Gymnasium,Public,Gymnasium,Spandau,Spandau,13585,Bismarckstraße,54,http://www.Kant-gymnasium-berlin.de,2024/25,Academic Secondary School,833.0,505.0,328.0,71.0,45.0,26.0,False,13.201,52.543,336.0,05
05Y04,Carl-Friedrich-von-Siemens-Gymnasium,Gymnasium,Public,Gymnasium,Spandau,Siemensstadt,13629,Jungfernheideweg,79,http://www.cfvsiemens.de,2024/25,Academic Secondary School,790.0,379.0,411.0,65.0,38.0,27.0,False,13.271,52.546,232.0,05
05Y05,Lily-Braun-Gymnasium,Gymnasium,Public,Gymnasium,Spandau,Spandau,13597,Münsingerstraße,2,http://www.lily-braun-gymnasium.de,2024/25,Academic Secondary School,696.0,444.0,252.0,57.0,34.0,23.0,False,13.199,52.538,336.0,05
06A05,VHS Steglitz-Zehlendorf - Victor-Gollancz,Volkshochschule,Public,Andere Schule,Steglitz-Zehlendorf,Lichterfelde,12207,Goethestraße,9,https://www.zbw-berlin.de,2024/25,Other School,,,,,,,False,13.316,52.429,236.0,06
06B01,Peter-Lenné-Schule (OSZ Natur und Umwelt),Oberstufenzentrum,Public,Berufsschule,Steglitz-Zehlendorf,Zehlendorf,14163,Hartmannsweilerweg,29,https://www.peter-lenne-schule.de,2024/25,Vocational School,1276.0,556.0,720.0,70.0,35.0,35.0,True,13.249,52.442,300.0,06
06B02,Louise-Schroeder-Schule (OSZ Bürowirtschaft und Verwaltung),Oberstufenzentrum,Public,Berufsschule,Steglitz-Zehlendorf,Lichterfelde,12207,Lippstädter Straße,9,https://www.osz-louise-schroeder.de,2024/25,Vocational School,2256.0,1353.0,903.0,115.0,64.0,51.0,False,13.304,52.412,275.0,06
06B03,OSZ Bürowirtschaft 1,Oberstufenzentrum,Public,Berufsschule,Steglitz-Zehlendorf,Lichterfelde,12207,Ostpreußendamm,40,https://osz-buerowirtschaft.de,2024/25,Vocational School,1246.0,635.0,611.0,77.0,48.0,29.0,True,13.317,52.43,236.0,06
06B04,Wilhelm-Ostwald-Schule (OSZ Gestaltung),Oberstufenzentrum,Public,Berufsschule,Steglitz-Zehlendorf,Steglitz,12169,Immenweg,6,https://www.wilhelm-ostwald-schule.de,2024/25,Vocational School,1207.0,504.0,703.0,73.0,35.0,38.0,False,13.346,52.452,149.0,06
06G01,Nord-Grundschule,Grundschule,Public,Grundschule,Steglitz-Zehlendorf,Zehlendorf,14163,Potsdamer Straße,7,http://www.nordgrundschule.de,2024/25,Primary School,388.0,177.0,211.0,28.0,27.0,1.0,False,13.257,52.436,294.0,06
06G02,Süd-Grundschule,Grundschule,Public,Grundschule,Steglitz-Zehlendorf,Zehlendorf,14165,Claszeile,56,http://www.süd-grundschule-berlin.de,2024/25,Primary School,370.0,183.0,187.0,26.0,23.0,3.0,False,13.258,52.419,331.0,06
06G03,Johannes-Tews-Grundschule,Grundschule,Public,Grundschule,Steglitz-Zehlendorf,Nikolassee,14129,Wasgenstraße,50,http://www.johannes-tews-grundschule.de,2024/25,Primary School,421.0,192.0,229.0,29.0,23.0,6.0,False,13.213,52.432,346.0,06
06G04,Erich-Kästner-Grundschule,Grundschule,Public,Grundschule,Steglitz-Zehlendorf,Dahlem,14195,Bachstelzenweg,2,http://www.erich-kaestner-grundschule-berlin.de,2024/25,Primary School,434.0,207.0,227.0,30.0,26.0,4.0,False,13.283,52.458,215.0,06
06G06,Mühlenau-Grundschule,Grundschule,Public,Grundschule,Steglitz-Zehlendorf,Dahlem,14195,Molsheimer Straße,7,http://www.muehlenau.de,2024/25,Primary School,626.0,282.0,344.0,53.0,49.0,4.0,False,13.276,52.443,260.0,06
06G07,Zinnowwald-Grundschule,Grundschule,Public,Grundschule,Steglitz-Zehlendorf,Zehlendorf,14163,Wilskistraße,78,https://zinnowwaldschule.de,2024/25,Primary School,486.0,235.0,251.0,37.0,28.0,9.0,False,13.247,52.445,300.0,06
06G08,Schweizerhof-Grundschule,Grundschule,Public,Grundschule,Steglitz-Zehlendorf,Zehlendorf,14167,Leo-Baeck-Straße,28,http://www.schweizerhof-grundschule.de,2024/25,Primary School,421.0,217.0,204.0,31.0,28.0,3.0,False,13.265,52.422,307.0,06
06G10,Grundschule am Buschgraben,Grundschule,Public,Grundschule,Steglitz-Zehlendorf,Zehlendorf,14165,Ludwigsfelder Straße,43,http://www.grundschuleambuschgraben.de,2024/25,Primary School,253.0,129.0,124.0,24.0,20.0,4.0,False,13.244,52.422,328.0,06
06G12,Quentin-Blake-Grundschule,Grundschule,Public,Grundschule,Steglitz-Zehlendorf,Dahlem,14195,Hüttenweg,40,https://qbgs.de,2024/25,Primary School,445.0,192.0,253.0,34.0,25.0,9.0,False,13.27,52.454,254.0,06
06G14,Sachsenwald-Grundschule,Grundschule,Public,Grundschule,Steglitz-Zehlendorf,Steglitz,12157,Sachsenwaldstraße,20,http://www.sachsenwald-grundschule.de,2024/25,Primary School,440.0,237.0,203.0,34.0,27.0,7.0,False,13.336,52.462,142.0,06
06G15,Dunant-Grundschule,Grundschule,Public,Grundschule,Steglitz-Zehlendorf,Steglitz,12163,Gritznerstraße,19,http://www.dunant-grundschule.de,2024/25,Primary School,574.0,275.0,299.0,41.0,39.0,2.0,False,13.318,52.465,164.0,06
06G16,Rothenburg-Grundschule,Grundschule,Public,Grundschule,Steglitz-Zehlendorf,Steglitz,12165,Rothenburgstraße,16,https://www.rothenburg-grundschule.de,2024/25,Primary School,281.0,144.0,137.0,24.0,23.0,1.0,False,13.314,52.455,191.0,06
06G17,Grundschule am Insulaner,Grundschule,Public,Grundschule,Steglitz-Zehlendorf,Steglitz,12169,Hanstedter Weg,11,http://www.grundschuleaminsulaner.de,2024/25,Primary School,446.0,212.0,234.0,36.0,27.0,9.0,False,13.35,52.452,149.0,06
06G18,Athene-Grundschule,Grundschule,Public,Grundschule,Steglitz-Zehlendorf,Lichterfelde,12205,Curtiusstraße,37,http://www.athene-grundschule.de,2024/25,Primary School,478.0,239.0,239.0,39.0,33.0,6.0,False,13.291,52.441,229.0,06
06G20,Alt-Lankwitzer Grundschule,Grundschule,Public,Grundschule,Steglitz-Zehlendorf,Lankwitz,12247,Schulstraße,17,http://www.alt-lankwitzer-grundschule.de,2024/25,Primary School,484.0,220.0,264.0,34.0,31.0,3.0,False,13.352,52.437,184.0,06
06G21,Paul-Schneider-Grundschule,Grundschule,Public,Grundschule,Steglitz-Zehlendorf,Lankwitz,12249,Seydlitzstraße,30,http://www.paul-schneider-grundschule.de,2024/25,Primary School,533.0,264.0,269.0,36.0,28.0,8.0,False,13.34,52.431,201.0,06
06G22,Giesensdorfer Grundschule,Grundschule,Public,Grundschule,Steglitz-Zehlendorf,Lichterfelde,12207,Ostpreußendamm,63,http://www.giesensdorfer-grundschule.de,2024/25,Primary School,370.0,170.0,200.0,30.0,28.0,2.0,False,13.311,52.422,275.0,06
06G23,Kronach-Grundschule,Grundschule,Public,Grundschule,Steglitz-Zehlendorf,Lichterfelde,12203,Moltkestraße,24,http://www.kronach-grundschule.de,2024/25,Primary School,449.0,217.0,232.0,31.0,26.0,5.0,False,13.313,52.442,207.0,06
06G24,Grundschule unter den Kastanien,Grundschule,Public,Grundschule,Steglitz-Zehlendorf,Lichterfelde,12209,Kastanienstraße,6,http://www.grundschule-unter-den-kastanien.de,2024/25,Primary School,474.0,243.0,231.0,34.0,30.0,4.0,False,13.325,52.426,236.0,06
06G25,Clemens-Brentano-Grundschule,Grundschule,Public,Grundschule,Steglitz-Zehlendorf,Lichterfelde,12205,Kommandantenstraße,83,http://www.c-brentano-grundschule.de,2024/25,Primary School,485.0,253.0,232.0,35.0,31.0,4.0,False,13.293,52.434,262.0,06
06G26,Käthe-Kruse-Grundschule,Grundschule,Public,Grundschule,Steglitz-Zehlendorf,Lichterfelde,12203,Tietzenweg,108,http://www.kaethe-kruse-grundschule.de,2024/25,Primary School,412.0,209.0,203.0,32.0,29.0,3.0,False,13.31,52.438,226.0,06
06G27,Grundschule am Königsgraben,Grundschule,Public,Grundschule,Steglitz-Zehlendorf,Lankwitz,12249,Gallwitzallee,136,http://www.grundschule-am-koenigsgraben.de,2024/25,Primary School,628.0,305.0,323.0,45.0,40.0,5.0,False,13.347,52.423,224.0,06
06G28,Ludwig-Bechstein-Grundschule,Grundschule,Public,Grundschule,Steglitz-Zehlendorf,Lankwitz,12249,Halbauer Weg,25,https://www.ludwig-bechstein-grundschule.net,2024/25,Primary School,261.0,124.0,137.0,25.0,19.0,6.0,False,13.362,52.433,200.0,06
06G29,Grundschule am Karpfenteich,Grundschule,Public,Grundschule,Steglitz-Zehlendorf,Lichterfelde,12209,Hildburghauser Straße,135,http://www.grundschule-am-karpfenteich.de,2024/25,Primary School,474.0,252.0,222.0,33.0,29.0,4.0,False,13.333,52.417,250.0,06
06G30,Mercator-Grundschule,Grundschule,Public,Grundschule,Steglitz-Zehlendorf,Lichterfelde,12207,Mercatorweg,8,http://www.mercator-gs.de,2024/25,Primary School,323.0,161.0,162.0,28.0,23.0,5.0,False,13.317,52.412,285.0,06
06G31,Grundschule an der Bäke,Grundschule,Public,Grundschule,Steglitz-Zehlendorf,Lichterfelde,12203,Haydnstraße,15,http://www.baeke.net,2024/25,Primary School,440.0,214.0,226.0,37.0,33.0,4.0,False,13.319,52.448,185.0,06
06G32,Grundschule am Stadtpark Steglitz,Grundschule,Public,Grundschule,Steglitz-Zehlendorf,Steglitz,12167,Karl-Stieler-Straße,10,http://www.grundschule-am-stadtpark-steglitz.de,2024/25,Primary School,523.0,255.0,268.0,38.0,32.0,6.0,False,13.343,52.449,173.0,06
06G33,Friedrich-Drake-Grundschule,Grundschule,Public,Grundschule,Steglitz-Zehlendorf,Lichterfelde,12205,Drakestraße,80,http://www.friedrich-drake-grundschule.de,2024/25,Primary School,317.0,148.0,169.0,25.0,23.0,2.0,False,13.308,52.432,255.0,06
06G34,Grundschule in der Plantagenstraße,Grundschule,Public,Grundschule,Steglitz-Zehlendorf,Steglitz,12169,Plantagenstraße,8,https://www.grundschuleplantagenstrasse.de,2024/25,Primary School,280.0,129.0,151.0,19.0,16.0,3.0,False,13.331,52.455,162.0,06
06K01,John-F.-Kennedy-Schule,Integrierte Sekundarschule,Public,Integrierte Sekundarschule,Steglitz-Zehlendorf,Zehlendorf,14167,Teltower Damm,87,https://jfks.de,2024/25,Integrated Secondary School,1463.0,705.0,758.0,159.0,99.0,60.0,False,13.262,52.426,307.0,06
06K02,Wilma-Rudolph-Schule (Integrierte Sekundarschule),Integrierte Sekundarschule,Public,Integrierte Sekundarschule,Steglitz-Zehlendorf,Dahlem,14169,Am Hegewinkel,2A,https://www.wilma-rudolph.de,2024/25,Integrated Secondary School,1012.0,470.0,542.0,102.0,60.0,42.0,False,13.261,52.455,254.0,06
