immo_id,title,address,zip_code,latitude,longitude,contact_name,kitchen,balcony,garden,cellar,private,rooms,sqm,rent,extra_costs,media_count,url,neighborhood,district
immowelt_ultimate_0_00001,"Elegante 5,5-Zimmer-Dachgeschoss in Berlin-Köpenick",Potsdamer Platz 249,12559,52.399868,13.778443,Mitte Immobilien,0,0,0,0,0,5.5,176,3935.5445,,6,https://www.immowelt.de/expose/berlin-köpenick-1,,Oder-Spree
immowelt_ultimate_0_00002,Zentrale 1-Zimmer-Dachgeschoss in Berlin-Tegel,Thielallee 36,13509,52.542892,13.28857,Wedding Wohnen,0,0,1,1,1,1.0,24,325.3995938,,24,https://www.immowelt.de/expose/berlin-tegel-2,Charlottenburg-Nord,Charlottenburg-Nord
immowelt_ultimate_0_00003,"Moderne 1,5-Zimmer-Zwischenetage in Berlin-Wilmersdorf",Neukölln 279,10707,52.327373,13.15303,Tempelhof Immobilien,1,0,0,0,1,1.5,42,2579.260287,149.07,17,https://www.immowelt.de/expose/berlin-wilmersdorf-3,,Potsdam-Mittelmark
immowelt_ultimate_0_00004,Sonnige 1-Zimmer-Gartenwohnung in Berlin-Treptow,Clayallee 5,12489,52.572061,13.578163,,0,0,0,0,0,1.0,26,889.4795852,351.25,7,https://www.immowelt.de/expose/berlin-treptow-4,Marzahn,Ahrensfelde
immowelt_ultimate_0_00005,Kernsanierte 2-Zimmer-Penthouse in Berlin-Tempelhof,Mehringdamm 84,12109,52.661071,13.300279,Berlin Living GmbH,0,0,0,1,0,2.0,65,1045.752209,,11,https://www.immowelt.de/expose/berlin-tempelhof-5,Bergfelde,Bergfelde
immowelt_ultimate_0_00006,"Lichtdurchflutete 4,5-Zimmer-Wohnung in Berlin-Marzahn",Invalidenstraße 200,12687,52.612107,13.291342,,1,0,0,0,0,4.5,107,1232.004812,56.32,23,https://www.immowelt.de/expose/berlin-marzahn-6,Hermsdorf,Hermsdorf
immowelt_ultimate_0_00007,Gemütliche 4-Zimmer-Turmwohnung in Berlin-Neukölln,Winterfeldtplatz 50,12049,52.304916,13.775823,,0,1,0,0,0,4.0,112,2852.640479,283.39,12,https://www.immowelt.de/expose/berlin-neukölln-7,,Dahme-Spreewald
immowelt_ultimate_0_00008,"Charmante 4,5-Zimmer-Hochparterre in Berlin-Grunewald",Spandauer Damm 172,14193,52.668569,13.218046,,1,1,1,0,0,4.5,137,5562.514741,231.03,15,https://www.immowelt.de/expose/berlin-grunewald-8,,Oberhavel
immowelt_ultimate_0_00009,"Lichtdurchflutete 1,5-Zimmer-Penthouse in Berlin-Dahlem",Spandauer Damm 11,14195,52.694205,13.587333,,1,1,0,1,1,1.5,56,1201.266917,285.96,27,https://www.immowelt.de/expose/berlin-dahlem-9,Rollberg,Rollberg
immowelt_ultimate_0_00010,Möblierte 3-Zimmer-Loft in Berlin-Steglitz,Kollwitzplatz 192,12165,52.618202,13.737933,,1,1,0,0,0,3.0,63,2179.607253,,23,https://www.immowelt.de/expose/berlin-steglitz-10,,Barnim
immowelt_ultimate_0_00011,Komplett renovierte 3-Zimmer-Studio in Berlin-Pankow,Rheinstraße 209,13159,52.354818,13.133751,,0,0,0,0,1,3.0,63,560.9738934,136.36,11,https://www.immowelt.de/expose/berlin-pankow-11,Drewitz,Drewitz
immowelt_ultimate_0_00012,"Moderne 4,5-Zimmer-Gartenwohnung in Berlin-Tempelhof",Wilmersdorfer Straße 212,12109,52.461346,13.453501,,1,1,0,0,0,4.5,119,3533.857312,326.38,16,https://www.immowelt.de/expose/berlin-tempelhof-12,Britz,Britz
immowelt_ultimate_0_00013,"Charmante 2,5-Zimmer-Wohnung in Berlin-Neukölln",Invalidenstraße 91,12045,52.358764,13.763489,,1,0,0,1,1,2.5,57,750.3075225,131.9,29,https://www.immowelt.de/expose/berlin-neukölln-13,Hartmannsdorf,Hartmannsdorf
immowelt_ultimate_0_00014,"Attraktive 1,5-Zimmer-Wohnung mit Terrasse in Berlin-Lichtenberg",Danziger Straße 49,10317,52.32615,13.778641,City Living Berlin,0,0,0,0,0,1.5,47,662.4121396,,34,https://www.immowelt.de/expose/berlin-lichtenberg-14,,Dahme-Spreewald
immowelt_ultimate_0_00015,"Geräumige 2,5-Zimmer-Zwischenetage in Berlin-Marzahn",Danziger Straße 107,12683,52.323624,13.691822,Prenzlauer Berg Living,1,1,0,0,1,2.5,62,1734.328277,,23,https://www.immowelt.de/expose/berlin-marzahn-15,Wernsdorf,Wernsdorf
immowelt_ultimate_0_00016,Sanierte 2-Zimmer-Erdgeschoss in Berlin-Mitte,Leipziger Straße 63,10119,52.596426,13.558049,Prenzlauer Berg Living,1,1,0,0,1,2.0,62,2296.863967,216.13,14,https://www.immowelt.de/expose/berlin-mitte-16,,Barnim
immowelt_ultimate_0_00017,"Traumhafte 3,5-Zimmer-Souterrainwohnung in Berlin-Zehlendorf",Steglitzer Damm 69,14169,52.60288,13.749427,,0,1,0,0,0,3.5,99,1951.982432,161.53,15,https://www.immowelt.de/expose/berlin-zehlendorf-17,,Märkisch-Oderland
immowelt_ultimate_0_00018,Teilmöblierte 5-Zimmer-Maisonette in Berlin-Charlottenburg,Clayallee 27,10627,52.645083,13.255628,,1,1,0,0,1,5.0,111,1967.353856,209.0,17,https://www.immowelt.de/expose/berlin-charlottenburg-18,,Oberhavel
immowelt_ultimate_0_00019,Renovierte 6-Zimmer-Zwischenetage in Berlin-Tegel,Greifswalder Straße 187,13509,52.31724,13.124996,Steglitz Properties,1,1,0,1,1,6.0,184,4596.094149,381.37,32,https://www.immowelt.de/expose/berlin-tegel-19,,Potsdam-Mittelmark
immowelt_ultimate_0_00020,"Bezugsfreie 1,5-Zimmer-Wohnung in Berlin-Pankow",Alexanderplatz 94,13159,52.39506,13.275351,,0,0,0,1,1,1.5,36,1179.619418,387.43,28,https://www.immowelt.de/expose/berlin-pankow-20,Mühlendorf,Mühlendorf
immowelt_ultimate_0_00021,Elegante 2-Zimmer-Neubau in Berlin-Zehlendorf,Unter den Linden 7,14129,52.688126,13.540128,Hausverwaltung Berlin,1,1,0,0,0,2.0,71,1516.749811,,20,https://www.immowelt.de/expose/berlin-zehlendorf-21,Schönow,Schönow
immowelt_ultimate_0_00022,Gepflegte 4-Zimmer-Apartment in Berlin-Frohnau,Kurfürstendamm 103,13465,52.359741,13.474448,Steglitz Properties,0,0,0,0,1,4.0,81,1496.080309,93.8,5,https://www.immowelt.de/expose/berlin-frohnau-22,,Dahme-Spreewald
immowelt_ultimate_0_00023,Schöne 2-Zimmer-Dachterrassenwohnung in Berlin-Wedding,Friedrichstraße 150,13357,52.500632,13.25972,Steglitz Properties,0,0,0,0,1,2.0,36,328.4834421,199.56,12,https://www.immowelt.de/expose/berlin-wedding-23,Westend,Westend
immowelt_ultimate_0_00024,"Freundliche 2,5-Zimmer-Loft in Berlin-Charlottenburg",Kurfürstendamm 104,10589,52.355493,13.598871,Spree Properties,0,1,0,0,0,2.5,92,2571.379218,254.37,9,https://www.immowelt.de/expose/berlin-charlottenburg-24,,Dahme-Spreewald
immowelt_ultimate_0_00025,"Großzügige 2,5-Zimmer-Etagenwohnung in Berlin-Steglitz",Kantstraße 53,12165,52.510073,13.393508,City Living Berlin,1,1,0,0,0,2.5,74,2079.026374,298.11,31,https://www.immowelt.de/expose/berlin-steglitz-25,Friedrichswerder,Mitte
immowelt_ultimate_0_00026,"Gemütliche 4,5-Zimmer-Maisonette in Berlin-Kreuzberg",Savignyplatz 278,10965,52.401719,13.382558,Berliner Immobilien Service,1,1,0,1,0,4.5,119,5064.170684,341.52,12,https://www.immowelt.de/expose/berlin-kreuzberg-26,Marienfelde,Marienfelde
immowelt_ultimate_0_00027,"Exklusive 2,5-Zimmer-Maisonette in Berlin-Mitte",Kollwitzplatz 104,10119,52.318518,13.172821,Steglitz Properties,0,1,0,0,0,2.5,72,1957.215139,225.42,34,https://www.immowelt.de/expose/berlin-mitte-27,,Potsdam-Mittelmark
immowelt_ultimate_0_00028,Charmante 5-Zimmer-Dachgeschoss in Berlin-Reinickendorf,Frankfurter Allee 243,13409,52.599567,13.288038,Kreuzberg Wohnen,1,1,1,0,0,5.0,101,1082.201147,102.04,26,https://www.immowelt.de/expose/berlin-reinickendorf-28,Tegel,Tegel
immowelt_ultimate_0_00029,Stilvolle 7-Zimmer-Etagenwohnung in Berlin-Grunewald,Unter den Linden 265,14193,52.308116,13.202035,Kreuzberg Wohnen,0,1,1,0,1,7.0,127,2920.511857,189.98,5,https://www.immowelt.de/expose/berlin-grunewald-29,Ahrensdorf,Ahrensdorf
immowelt_ultimate_0_00030,"Hochwertige 3,5-Zimmer-Wohnung mit Balkon in Berlin-Lichtenberg",Neukölln 132,10319,52.30844,13.453526,Mitte Immobilien,1,0,1,0,0,3.5,91,2136.169092,95.89,18,https://www.immowelt.de/expose/berlin-lichtenberg-30,,Teltow-Fläming
immowelt_ultimate_0_00031,Renovierte 6-Zimmer-Zwischenetage in Berlin-Frohnau,Alexanderplatz 222,13465,52.35196,13.271346,Berlin Living GmbH,0,1,0,0,0,6.0,124,3906.885125,98.49,33,https://www.immowelt.de/expose/berlin-frohnau-31,Großbeeren,Großbeeren
immowelt_ultimate_0_00032,"Attraktive 6,5-Zimmer-Turmwohnung in Berlin-Wedding",Invalidenstraße 40,13351,52.321027,13.425237,,1,1,0,0,0,6.5,163,2339.269433,,15,https://www.immowelt.de/expose/berlin-wedding-32,,Teltow-Fläming
immowelt_ultimate_0_00033,Zentrale 7-Zimmer-Etagenwohnung in Berlin-Tempelhof,Unter den Linden 166,12109,52.384683,13.748449,Premium Wohnen Berlin,0,1,0,0,0,7.0,194,3856.859409,,16,https://www.immowelt.de/expose/berlin-tempelhof-33,,Oder-Spree
immowelt_ultimate_0_00034,"Attraktive 5,5-Zimmer-Hochparterre in Berlin-Grunewald",Potsdamer Platz 109,14193,52.425493,13.405723,Müller & Partner Immobilien,1,1,0,0,0,5.5,130,3806.371481,,32,https://www.immowelt.de/expose/berlin-grunewald-34,Neu-Buckow,Buckow
immowelt_ultimate_0_00035,"Sanierte 5,5-Zimmer-Penthouse in Berlin-Lichtenberg",Kastanienallee 172,10318,52.676301,13.522531,Tempelhof Immobilien,1,0,0,0,1,5.5,159,3247.353431,153.34,5,https://www.immowelt.de/expose/berlin-lichtenberg-35,Schönow,Schönow
immowelt_ultimate_1_00036,"Geräumige 4,5-Zimmer-Wohnung mit Garten in Berlin-Frohnau",Wilmersdorfer Straße 258,13465,52.348269,13.362657,Spree Properties,0,1,0,1,1,4.5,103,3327.936505,116.36,23,https://www.immowelt.de/expose/berlin-frohnau-36,,Teltow-Fläming
immowelt_ultimate_1_00037,"Bezugsfreie 6,5-Zimmer-Wohnung mit Terrasse in Berlin-Tegel",Hackescher Markt 70,13507,52.536078,13.69779,City Living Berlin,1,1,1,0,0,6.5,155,2778.78935,377.01,19,https://www.immowelt.de/expose/berlin-tegel-37,,Märkisch-Oderland
immowelt_ultimate_1_00038,"Ruhige 5,5-Zimmer-Erdgeschoss in Berlin-Wedding",Simon-Dach-Straße 188,13357,52.345822,13.187091,Kiez Immobilien,0,0,0,1,1,5.5,168,1795.540837,321.45,20,https://www.immowelt.de/expose/berlin-wedding-38,,Potsdam-Mittelmark
immowelt_ultimate_1_00039,"Erstbezug 1,5-Zimmer-Turmwohnung in Berlin-Charlottenburg",Kollwitzplatz 8,10629,52.480203,13.666013,,0,1,0,0,1,1.5,68,2291.876632,,9,https://www.immowelt.de/expose/berlin-charlottenburg-39,,Märkisch-Oderland
immowelt_ultimate_1_00040,"Helle 2,5-Zimmer-Galeriewohnung in Berlin-Spandau",Sonnenallee 237,13593,52.538735,13.615054,Urban Living Berlin,0,0,0,0,0,2.5,72,1105.160892,,21,https://www.immowelt.de/expose/berlin-spandau-40,Hellersdorf,Hellersdorf
immowelt_ultimate_1_00041,"Charmante 6,5-Zimmer-Studio in Berlin-Schöneberg",Unter den Linden 239,10787,52.572557,13.717965,City Living Berlin,1,1,0,0,1,6.5,167,6247.603182,343.9,10,https://www.immowelt.de/expose/berlin-schöneberg-41,Amtsfreiheit,Amtsfreiheit
immowelt_ultimate_1_00042,Attraktive 4-Zimmer-Etagenwohnung in Berlin-Wedding,Spandauer Damm 141,13349,52.637351,13.221604,Steglitz Properties,1,0,0,0,1,4.0,99,1900.921971,,23,https://www.immowelt.de/expose/berlin-wedding-42,,Oberhavel
immowelt_ultimate_1_00043,"Gemütliche 1,5-Zimmer-Dachterrassenwohnung in Berlin-Schöneberg",Neukölln 49,10781,52.627575,13.429694,Steglitz Properties,0,0,0,1,1,1.5,50,980.8283355,,19,https://www.immowelt.de/expose/berlin-schöneberg-43,Blankenfelde,Blankenfelde
immowelt_ultimate_1_00044,Schöne 2-Zimmer-Turmwohnung in Berlin-Neukölln,Alexanderplatz 194,12045,52.59946,13.262066,Schmidt Immobilien,0,0,1,1,1,2.0,35,393.2608631,235.25,5,https://www.immowelt.de/expose/berlin-neukölln-44,Tegel,Tegel
immowelt_ultimate_1_00045,Gemütliche 1-Zimmer-Altbau in Berlin-Moabit,Thielallee 65,10553,52.378872,13.577245,Charlottenburg Estates,0,0,0,0,0,1.0,48,522.8328933,,8,https://www.immowelt.de/expose/berlin-moabit-45,,Dahme-Spreewald
immowelt_ultimate_1_00046,"Lichtdurchflutete 3,5-Zimmer-Apartment in Berlin-Grunewald",Landsberger Allee 127,14193,52.326051,13.318676,,0,1,1,0,0,3.5,91,2381.020998,210.43,10,https://www.immowelt.de/expose/berlin-grunewald-46,,Teltow-Fläming
immowelt_ultimate_1_00047,Geräumige 1-Zimmer-Wohnung mit Terrasse in Berlin-Steglitz,Yorckstraße 187,12167,52.305354,13.586899,Steglitz Properties,1,0,0,0,1,1.0,26,437.6420301,,18,https://www.immowelt.de/expose/berlin-steglitz-47,Diepensee,Königs Wusterhausen
immowelt_ultimate_1_00048,"Traumhafte 4,5-Zimmer-Dachterrassenwohnung in Berlin-Lichtenberg",Potsdamer Platz 18,10317,52.415996,13.331282,,1,1,0,0,0,4.5,137,2082.529665,344.93,20,https://www.immowelt.de/expose/berlin-lichtenberg-48,Lichterfelde Süd,Lichterfelde
immowelt_ultimate_1_00049,"Teilmöblierte 6,5-Zimmer-Studio in Berlin-Mitte",Clayallee 197,10115,52.368282,13.268671,,1,1,1,0,0,6.5,200,5720.037523,99.36,28,https://www.immowelt.de/expose/berlin-mitte-49,Ruhlsdorf,Ruhlsdorf
immowelt_ultimate_1_00050,Sanierte 6-Zimmer-Apartment in Berlin-Lichtenberg,Warschauer Straße 67,10315,52.346236,13.413842,,0,0,0,0,1,6.0,135,1726.66484,149.43,21,https://www.immowelt.de/expose/berlin-lichtenberg-50,,Teltow-Fläming
immowelt_ultimate_1_00051,Zentrale 5-Zimmer-Erdgeschoss in Berlin-Grunewald,Rosenthaler Straße 230,14193,52.406621,13.551467,Prenzlauer Berg Living,1,1,0,0,1,5.0,125,4099.529297,,23,https://www.immowelt.de/expose/berlin-grunewald-51,Altglienicke,Altglienicke
immowelt_ultimate_1_00052,Traumhafte 4-Zimmer-Neubau in Berlin-Frohnau,Chausseestraße 123,13465,52.443758,13.30285,,1,1,0,0,0,4.0,81,1559.995565,229.0,29,https://www.immowelt.de/expose/berlin-frohnau-52,Lichterfelde West,Lichterfelde
immowelt_ultimate_1_00053,Bezugsfreie 5-Zimmer-Wohnung mit Balkon in Berlin-Frohnau,Kurfürstendamm 98,13465,52.376663,13.284137,,1,1,0,1,0,5.0,117,3384.854842,206.67,13,https://www.immowelt.de/expose/berlin-frohnau-53,Ruhlsdorf,Ruhlsdorf
immowelt_ultimate_1_00054,Elegante 6-Zimmer-Wohnung mit Garten in Berlin-Charlottenburg,Neukölln 120,10625,52.480256,13.124613,Schmidt Immobilien,0,1,0,0,0,6.0,194,9464.102907,,8,https://www.immowelt.de/expose/berlin-charlottenburg-54,,
immowelt_ultimate_1_00055,"Geräumige 5,5-Zimmer-Hochparterre in Berlin-Prenzlauer Berg",Chausseestraße 269,10405,52.514266,13.211865,,0,1,0,0,1,5.5,184,2912.381301,330.84,25,https://www.immowelt.de/expose/berlin-prenzlauer-berg-55,Wilhelmstadt,Spandau
immowelt_ultimate_1_00056,"Luxuriöse 2,5-Zimmer-Dachterrassenwohnung in Berlin-Dahlem",Hermannstraße 177,14195,52.414175,13.269131,Steglitz Properties,1,1,0,0,1,2.5,76,2099.726251,129.32,26,https://www.immowelt.de/expose/berlin-dahlem-56,Schönow,Zehlendorf
immowelt_ultimate_1_00057,Luxuriöse 5-Zimmer-Dachterrassenwohnung in Berlin-Neukölln,Karl-Marx-Straße 120,12045,52.521598,13.476815,,0,0,0,1,1,5.0,119,1314.597998,203.96,6,https://www.immowelt.de/expose/berlin-neukölln-57,Lichtenberg,Lichtenberg
immowelt_ultimate_1_00058,Moderne 5-Zimmer-Hochparterre in Berlin-Spandau,Simon-Dach-Straße 103,13597,52.438366,13.157328,,0,1,0,0,1,5.0,115,2320.394295,326.63,33,https://www.immowelt.de/expose/berlin-spandau-58,Wannsee,Wannsee
immowelt_ultimate_1_00059,Geräumige 7-Zimmer-Galeriewohnung in Berlin-Frohnau,Schönhauser Allee 242,13465,52.5258,13.636183,Metropolitan Properties,0,1,0,1,0,7.0,136,4288.226815,287.51,21,https://www.immowelt.de/expose/berlin-frohnau-59,Mahlsdorf Nord,Mahlsdorf
immowelt_ultimate_1_00060,Teilmöblierte 5-Zimmer-Erdgeschoss in Berlin-Friedrichshain,Kastanienallee 212,10245,52.663361,13.342228,,1,1,0,0,1,5.0,133,4338.729511,59.45,6,https://www.immowelt.de/expose/berlin-friedrichshain-60,,Oberhavel
immowelt_ultimate_1_00061,"Traumhafte 5,5-Zimmer-Zwischenetage in Berlin-Prenzlauer Berg",Hackescher Markt 166,10407,52.462814,13.105835,Premium Wohnen Berlin,0,1,0,0,0,5.5,173,6792.117321,68.95,13,https://www.immowelt.de/expose/berlin-prenzlauer-berg-61,,
immowelt_ultimate_1_00062,Moderne 1-Zimmer-Erdgeschoss in Berlin-Steglitz,Hermannstraße 158,12169,52.630852,13.731866,Steglitz Properties,1,1,0,0,1,1.0,49,1439.091591,102.08,26,https://www.immowelt.de/expose/berlin-steglitz-62,,Barnim
immowelt_ultimate_1_00063,"Komplett renovierte 6,5-Zimmer-Gartenwohnung in Berlin-Friedrichshain",Potsdamer Platz 92,10245,52.355836,13.15854,,0,1,1,0,1,6.5,186,4283.365055,79.08,23,https://www.immowelt.de/expose/berlin-friedrichshain-63,Drewitz,Drewitz
immowelt_ultimate_1_00064,Top-moderne 2-Zimmer-Penthouse in Berlin-Dahlem,Potsdamer Platz 251,14195,52.301948,13.689802,Berlin Living GmbH,0,0,0,0,1,2.0,54,1655.184315,85.28,13,https://www.immowelt.de/expose/berlin-dahlem-64,Zernsdorf,Zernsdorf
immowelt_ultimate_1_00065,"Attraktive 1,5-Zimmer-Apartment in Berlin-Zehlendorf",Warschauer Straße 260,14167,52.333398,13.341492,Kiez Immobilien,0,1,0,0,0,1.5,71,2786.283285,,30,https://www.immowelt.de/expose/berlin-zehlendorf-65,,Teltow-Fläming
immowelt_ultimate_1_00066,Renovierte 2-Zimmer-Etagenwohnung in Berlin-Marzahn,Potsdamer Platz 222,12689,52.32962,13.546904,Wedding Wohnen,0,1,0,1,1,2.0,65,1209.710096,103.36,6,https://www.immowelt.de/expose/berlin-marzahn-66,,Dahme-Spreewald
immowelt_ultimate_2_00067,Top-moderne 6-Zimmer-Wohnung mit Terrasse in Berlin-Spandau,Rosenthaler Straße 130,13597,52.571853,13.361349,,1,1,0,0,1,6.0,123,1654.240032,331.45,16,https://www.immowelt.de/expose/berlin-spandau-67,Reinickendorf,Reinickendorf
immowelt_ultimate_2_00068,"Renovierte 5,5-Zimmer-Maisonette in Berlin-Marzahn",Karl-Marx-Allee 115,12683,52.487013,13.343884,Hauptstadt Immobilien,0,1,0,0,1,5.5,125,2648.065278,,29,https://www.immowelt.de/expose/berlin-marzahn-68,Schöneberg,Schöneberg
immowelt_ultimate_2_00069,"Helle 2,5-Zimmer-Wohnung mit Terrasse in Berlin-Tegel",Rosenthaler Straße 4,13509,52.308453,13.143533,Premium Wohnen Berlin,0,1,0,0,0,2.5,79,907.3738185,,20,https://www.immowelt.de/expose/berlin-tegel-69,,Potsdam-Mittelmark
immowelt_ultimate_2_00070,"Charmante 2,5-Zimmer-Dachgeschoss in Berlin-Neukölln",Brunnenstraße 130,12057,52.672599,13.389642,,1,1,0,0,1,2.5,63,1318.070102,64.86,18,https://www.immowelt.de/expose/berlin-neukölln-70,,Oberhavel
immowelt_ultimate_2_00071,"Helle 4,5-Zimmer-Altbau in Berlin-Friedrichshain",Residenzstraße 16,10249,52.377126,13.704027,,1,1,1,0,1,4.5,110,1894.840656,392.28,35,https://www.immowelt.de/expose/berlin-friedrichshain-71,Wernsdorf,Wernsdorf
immowelt_ultimate_2_00072,Ruhige 1-Zimmer-Dachterrassenwohnung in Berlin-Pankow,Sonnenallee 52,13159,52.674131,13.458919,Neukölln Properties,0,0,1,0,1,1.0,31,530.1707788,245.04,15,https://www.immowelt.de/expose/berlin-pankow-72,,Barnim
immowelt_ultimate_2_00073,Sanierte 7-Zimmer-Hochparterre in Berlin-Spandau,Hackescher Markt 264,13599,52.429334,13.557085,Steglitz Properties,1,1,0,0,1,7.0,120,2084.791754,,5,https://www.immowelt.de/expose/berlin-spandau-73,Adlershof,Adlershof
immowelt_ultimate_2_00074,"Gemütliche 3,5-Zimmer-Etagenwohnung in Berlin-Friedrichshain",Landsberger Allee 157,10247,52.587848,13.444986,,1,1,0,1,1,3.5,92,3440.538331,314.12,21,https://www.immowelt.de/expose/berlin-friedrichshain-74,Blankenburg,Blankenburg
immowelt_ultimate_2_00075,Renovierte 4-Zimmer-Wohnung mit Balkon in Berlin-Spandau,Clayallee 116,13589,52.575675,13.593919,,0,0,0,0,1,4.0,113,1291.357698,71.87,18,https://www.immowelt.de/expose/berlin-spandau-75,Ahrensfelde,Ahrensfelde
immowelt_ultimate_2_00076,"Helle 3,5-Zimmer-Dachterrassenwohnung in Berlin-Reinickendorf",Unter den Linden 62,13437,52.581524,13.497145,,1,1,0,0,1,3.5,108,2093.902872,67.7,11,https://www.immowelt.de/expose/berlin-reinickendorf-76,Wartenberg,Wartenberg
immowelt_ultimate_2_00077,"Großzügige 2,5-Zimmer-Galeriewohnung in Berlin-Wedding",Steglitzer Damm 208,13351,52.530183,13.729996,Urban Living Berlin,1,1,0,0,0,2.5,64,1513.193551,,25,https://www.immowelt.de/expose/berlin-wedding-77,,Märkisch-Oderland
immowelt_ultimate_2_00078,Komplett renovierte 3-Zimmer-Maisonette in Berlin-Schöneberg,Friedrichstraße 123,10777,52.62119,13.513715,Mitte Immobilien,0,1,0,0,1,3.0,77,3704.311008,146.76,18,https://www.immowelt.de/expose/berlin-schöneberg-78,Neu Buch,Neu Buch
immowelt_ultimate_2_00079,Zentrale 5-Zimmer-Dachterrassenwohnung in Berlin-Tempelhof,Steglitzer Damm 74,12101,52.518439,13.507324,Berlin Living GmbH,1,1,0,1,1,5.0,105,2245.605526,,11,https://www.immowelt.de/expose/berlin-tempelhof-79,Lichtenberg,Lichtenberg
immowelt_ultimate_2_00080,"Erstbezug 3,5-Zimmer-Erdgeschoss in Berlin-Wedding",Warschauer Straße 51,13355,52.476731,13.450922,Schmidt Immobilien,0,1,1,1,0,3.5,119,2020.381132,295.38,20,https://www.immowelt.de/expose/berlin-wedding-80,Harzer Kiez,Neukölln
immowelt_ultimate_2_00081,"Designer 2,5-Zimmer-Dachgeschoss in Berlin-Mitte",Spandauer Damm 163,10117,52.656952,13.502415,Tempelhof Immobilien,0,0,1,0,0,2.5,88,3212.941776,33.74,6,https://www.immowelt.de/expose/berlin-mitte-81,Zepernick,Zepernick
immowelt_ultimate_2_00082,"Designer 1,5-Zimmer-Dachgeschoss in Berlin-Mitte",Karl-Marx-Straße 193,10117,52.576244,13.565292,,0,1,1,0,1,1.5,64,2334.274932,187.93,8,https://www.immowelt.de/expose/berlin-mitte-82,Falkenberg,Falkenberg
immowelt_ultimate_2_00083,Lichtdurchflutete 1-Zimmer-Wohnung mit Terrasse in Berlin-Kreuzberg,Badstraße 184,10965,52.48899,13.396178,Friedrichshain Properties,0,1,0,0,1,1.0,47,1785.674446,38.12,12,https://www.immowelt.de/expose/berlin-kreuzberg-83,Kreuzberg,Kreuzberg
immowelt_ultimate_2_00084,Luxuriöse 7-Zimmer-Etagenwohnung in Berlin-Zehlendorf,Landsberger Allee 129,14165,52.472624,13.767482,Prenzlauer Berg Living,1,1,0,0,1,7.0,166,3345.075434,348.66,35,https://www.immowelt.de/expose/berlin-zehlendorf-84,Hinterberge,Hinterberge
immowelt_ultimate_2_00085,Gemütliche 5-Zimmer-Apartment in Berlin-Tempelhof,Schönhauser Allee 23,12101,52.399553,13.740037,,1,0,0,0,0,5.0,135,3586.993818,,30,https://www.immowelt.de/expose/berlin-tempelhof-85,,Oder-Spree
immowelt_ultimate_2_00086,"Renovierte 4,5-Zimmer-Wohnung mit Terrasse in Berlin-Tegel",Clayallee 215,13509,52.326288,13.28025,,1,1,1,0,1,4.5,140,2154.681194,65.34,18,https://www.immowelt.de/expose/berlin-tegel-86,,Teltow-Fläming
immowelt_ultimate_2_00087,"Zentrale 1,5-Zimmer-Erdgeschoss in Berlin-Spandau",Chausseestraße 217,13585,52.487688,13.305314,Steglitz Properties,1,0,0,0,1,1.5,47,805.6034476,,11,https://www.immowelt.de/expose/berlin-spandau-87,Wilmersdorf,Wilmersdorf
immowelt_ultimate_2_00088,Helle 4-Zimmer-Gartenwohnung in Berlin-Wedding,Hackescher Markt 98,13349,52.592331,13.39931,City Living Berlin,1,1,0,0,0,4.0,123,1589.69967,232.87,11,https://www.immowelt.de/expose/berlin-wedding-88,Rosenthal,Rosenthal
immowelt_ultimate_2_00089,"Großzügige 1,5-Zimmer-Turmwohnung in Berlin-Zehlendorf",Hackescher Markt 110,14169,52.696137,13.143152,,1,1,1,0,1,1.5,63,2655.906388,,18,https://www.immowelt.de/expose/berlin-zehlendorf-89,Wendemark,Marwitz
immowelt_ultimate_3_00090,"Top-moderne 6,5-Zimmer-Hochparterre in Berlin-Spandau",Torstraße 110,13591,52.533161,13.731582,Spree Properties,0,0,0,0,1,6.5,178,1402.813158,221.1,35,https://www.immowelt.de/expose/berlin-spandau-90,,Märkisch-Oderland
immowelt_ultimate_3_00091,Komplett renovierte 6-Zimmer-Erdgeschoss in Berlin-Schöneberg,Rosenthaler Straße 150,10781,52.388657,13.527495,Schmidt Immobilien,0,1,0,0,0,6.0,138,2915.237267,83.51,17,https://www.immowelt.de/expose/berlin-schöneberg-91,Schönefeld,Schönefeld
immowelt_ultimate_3_00092,Attraktive 7-Zimmer-Penthouse in Berlin-Moabit,Gneisenaustraße 134,10551,52.460273,13.150092,,0,1,0,0,1,7.0,151,2825.272768,244.04,26,https://www.immowelt.de/expose/berlin-moabit-92,Kladow,Spandau
immowelt_ultimate_3_00093,Moderne 1-Zimmer-Dachgeschoss in Berlin-Prenzlauer Berg,Kantstraße 23,10407,52.548616,13.319092,Steglitz Properties,1,1,1,1,1,1.0,38,1773.111932,253.53,14,https://www.immowelt.de/expose/berlin-prenzlauer-berg-93,Wedding,Wedding
immowelt_ultimate_3_00094,"Gepflegte 5,5-Zimmer-Loft in Berlin-Neukölln",Badstraße 51,12049,52.469523,13.171935,Premium Wohnen Berlin,1,1,0,0,1,5.5,200,2845.169188,152.69,20,https://www.immowelt.de/expose/berlin-neukölln-94,Gatow,Spandau
immowelt_ultimate_3_00095,Gemütliche 5-Zimmer-Neubau in Berlin-Mitte,Unter den Linden 62,10179,52.594054,13.362858,Hausverwaltung Berlin,0,1,0,0,1,5.0,116,2173.881312,,19,https://www.immowelt.de/expose/berlin-mitte-95,Märkisches Viertel,Märkisches Viertel
immowelt_ultimate_3_00096,Möblierte 3-Zimmer-Penthouse in Berlin-Friedrichshain,Prenzlauer Allee 258,10247,52.344674,13.365305,,0,1,0,0,0,3.0,61,1854.862772,211.53,8,https://www.immowelt.de/expose/berlin-friedrichshain-96,,Teltow-Fläming
immowelt_ultimate_3_00097,Lichtdurchflutete 1-Zimmer-Dachgeschoss in Berlin-Wedding,Badstraße 228,13347,52.577074,13.452526,,0,0,1,0,1,1.0,50,1510.644448,107.3,7,https://www.immowelt.de/expose/berlin-wedding-97,Blankenburg,Blankenburg
immowelt_ultimate_3_00098,Hochwertige 1-Zimmer-Etagenwohnung in Berlin-Steglitz,Bergmannstraße 54,12165,52.387003,13.550285,Wedding Wohnen,0,0,1,0,0,1.0,40,393.4981409,378.69,28,https://www.immowelt.de/expose/berlin-steglitz-98,Bohnsdorf,Bohnsdorf
immowelt_ultimate_3_00099,"Traumhafte 5,5-Zimmer-Dachterrassenwohnung in Berlin-Moabit",Oranienstraße 294,10551,52.607719,13.305831,,1,0,0,0,1,5.5,159,3726.814342,112.49,24,https://www.immowelt.de/expose/berlin-moabit-99,Hermsdorf,Hermsdorf
immowelt_ultimate_3_00100,Gepflegte 5-Zimmer-Hochparterre in Berlin-Friedrichshain,Leipziger Straße 144,10249,52.629402,13.141911,,0,0,0,0,1,5.0,113,1457.129019,117.75,18,https://www.immowelt.de/expose/berlin-friedrichshain-100,Schönwalde-Dorf,Schönwalde-Dorf
immowelt_ultimate_3_00101,Gepflegte 3-Zimmer-Souterrainwohnung in Berlin-Spandau,Danziger Straße 72,13587,52.446989,13.206582,Kiez Immobilien,0,1,0,0,0,3.0,77,1755.858965,323.23,26,https://www.immowelt.de/expose/berlin-spandau-101,Nikolassee,Nikolassee
immowelt_ultimate_3_00102,"Freundliche 1,5-Zimmer-Wohnung mit Balkon in Berlin-Kreuzberg",Hermannstraße 49,10969,52.449688,13.657907,Hauptstadt Immobilien,1,0,0,0,0,1.5,37,2210.421898,60.43,14,https://www.immowelt.de/expose/berlin-kreuzberg-102,Friedrichshagen,Friedrichshagen
immowelt_ultimate_3_00103,Exklusive 2-Zimmer-Dachterrassenwohnung in Berlin-Köpenick,Rheinstraße 67,12557,52.394298,13.668317,Premium Wohnen Berlin,0,0,0,0,1,2.0,56,1421.526465,53.21,35,https://www.immowelt.de/expose/berlin-köpenick-103,Müggelheim,Müggelheim
immowelt_ultimate_3_00104,"Kernsanierte 5,5-Zimmer-Neubau in Berlin-Dahlem",Clayallee 12,14195,52.547548,13.614751,Premium Wohnen Berlin,0,1,0,0,1,5.5,187,5936.629588,,23,https://www.immowelt.de/expose/berlin-dahlem-104,,Märkisch-Oderland
immowelt_ultimate_3_00105,"Charmante 1,5-Zimmer-Wohnung mit Garten in Berlin-Schöneberg",Rosenthaler Straße 166,10781,52.357547,13.658842,Hausverwaltung Berlin,0,0,0,1,1,1.5,62,2437.102891,,32,https://www.immowelt.de/expose/berlin-schöneberg-105,Schmöckwitz,Schmöckwitz
immowelt_ultimate_3_00106,"Top-moderne 4,5-Zimmer-Studio in Berlin-Zehlendorf",Kastanienallee 68,14109,52.589431,13.76338,,1,0,0,0,0,4.5,135,1406.113471,98.7,18,https://www.immowelt.de/expose/berlin-zehlendorf-106,,Märkisch-Oderland
immowelt_ultimate_3_00107,"Bezugsfreie 5,5-Zimmer-Dachgeschoss in Berlin-Steglitz",Potsdamer Platz 41,12169,52.544724,13.49226,,0,1,0,1,0,5.5,176,4058.935021,175.77,25,https://www.immowelt.de/expose/berlin-steglitz-107,Alt-Hohenschönhausen,Alt-Hohenschönhausen
immowelt_ultimate_3_00108,"Geräumige 1,5-Zimmer-Zwischenetage in Berlin-Spandau",Torstraße 214,13593,52.661755,13.250806,,1,1,0,0,1,1.5,54,1426.730252,112.57,24,https://www.immowelt.de/expose/berlin-spandau-108,,Oberhavel
immowelt_ultimate_3_00109,Komplett renovierte 1-Zimmer-Wohnung mit Balkon in Berlin-Tempelhof,Schönhauser Allee 245,12109,52.38362,13.282137,,0,0,0,0,1,1.0,35,1593.668189,49.27,30,https://www.immowelt.de/expose/berlin-tempelhof-109,Städtlersiedlung,Städtlersiedlung
immowelt_ultimate_3_00110,Bezugsfreie 3-Zimmer-Zwischenetage in Berlin-Treptow,Rheinstraße 72,12489,52.381141,13.465553,,1,0,0,0,0,3.0,67,1806.098315,,16,https://www.immowelt.de/expose/berlin-treptow-110,,Dahme-Spreewald
immowelt_ultimate_4_00111,Elegante 7-Zimmer-Loft in Berlin-Dahlem,Frankfurter Allee 181,14195,52.678332,13.78333,,0,0,0,0,1,7.0,120,2025.841234,217.61,23,https://www.immowelt.de/expose/berlin-dahlem-111,Beiersdorf,Beiersdorf
immowelt_ultimate_4_00112,"Stilvolle 3,5-Zimmer-Hochparterre in Berlin-Treptow",Heerstraße 174,12435,52.411797,13.525812,City Living Berlin,0,1,0,0,1,3.5,86,1595.23112,231.7,23,https://www.immowelt.de/expose/berlin-treptow-112,Siedlung Grüneck,Altglienicke
immowelt_ultimate_4_00113,Zentrale 3-Zimmer-Penthouse in Berlin-Friedrichshain,Torstraße 292,10243,52.53109,13.667373,Tempelhof Immobilien,0,1,0,0,0,3.0,59,1929.183296,185.72,32,https://www.immowelt.de/expose/berlin-friedrichshain-113,,Märkisch-Oderland
immowelt_ultimate_4_00114,"Freundliche 5,5-Zimmer-Altbau in Berlin-Charlottenburg",Warschauer Straße 21,10585,52.536266,13.530227,,1,1,0,1,0,5.5,149,7335.910833,,5,https://www.immowelt.de/expose/berlin-charlottenburg-114,Marzahn,Marzahn
immowelt_ultimate_4_00115,"Helle 5,5-Zimmer-Loft in Berlin-Schöneberg",Mehringdamm 145,10781,52.313547,13.743348,,0,1,0,0,1,5.5,176,6945.34496,348.46,5,https://www.immowelt.de/expose/berlin-schöneberg-115,,Dahme-Spreewald
immowelt_ultimate_4_00116,Charmante 5-Zimmer-Penthouse in Berlin-Pankow,Friedrichstraße 227,13127,52.518413,13.308763,Wedding Wohnen,1,0,1,1,0,5.0,125,3051.16843,,11,https://www.immowelt.de/expose/berlin-pankow-116,Charlottenburg,Charlottenburg
immowelt_ultimate_4_00117,Bezugsfreie 4-Zimmer-Maisonette in Berlin-Frohnau,Schloßstraße 198,13465,52.623331,13.279951,Kiez Immobilien,0,0,0,1,1,4.0,89,1853.623918,283.22,35,https://www.immowelt.de/expose/berlin-frohnau-117,Hermsdorf,Hermsdorf
immowelt_ultimate_4_00118,"Designer 6,5-Zimmer-Zwischenetage in Berlin-Wedding",Alexanderplatz 221,13355,52.440178,13.470931,Charlottenburg Estates,0,1,0,1,0,6.5,155,3812.207994,162.27,6,https://www.immowelt.de/expose/berlin-wedding-118,Britz,Britz
immowelt_ultimate_4_00119,"Schöne 6,5-Zimmer-Erdgeschoss in Berlin-Moabit",Clayallee 67,10559,52.324009,13.534315,Hausverwaltung Berlin,0,1,1,1,1,6.5,134,4074.954684,,35,https://www.immowelt.de/expose/berlin-moabit-119,,Dahme-Spreewald
immowelt_ultimate_4_00120,"Geräumige 5,5-Zimmer-Dachterrassenwohnung in Berlin-Steglitz",Winterfeldtplatz 167,12165,52.343523,13.704525,Prenzlauer Berg Living,1,1,0,0,0,5.5,190,3330.490735,278.81,24,https://www.immowelt.de/expose/berlin-steglitz-120,Wernsdorf,Wernsdorf
immowelt_ultimate_4_00121,Ruhige 7-Zimmer-Erdgeschoss in Berlin-Lichtenberg,Schloßstraße 274,10315,52.624093,13.357533,Müller & Partner Immobilien,1,1,1,0,1,7.0,200,3157.798302,68.95,30,https://www.immowelt.de/expose/berlin-lichtenberg-121,Lübars,Lübars
immowelt_ultimate_4_00122,Gemütliche 4-Zimmer-Dachgeschoss in Berlin-Friedrichshain,Alexanderplatz 244,10245,52.419602,13.371646,,0,1,1,1,1,4.0,88,2961.554599,205.27,18,https://www.immowelt.de/expose/berlin-friedrichshain-122,Marienfelde,Marienfelde
immowelt_ultimate_4_00123,"Gemütliche 2,5-Zimmer-Wohnung mit Terrasse in Berlin-Tegel",Karl-Marx-Straße 263,13509,52.602669,13.215206,Müller & Partner Immobilien,0,1,0,0,1,2.5,65,1740.733887,304.98,19,https://www.immowelt.de/expose/berlin-tegel-123,Heiligensee,Heiligensee
immowelt_ultimate_4_00124,Charmante 6-Zimmer-Erdgeschoss in Berlin-Treptow,Alexanderplatz 142,12439,52.672638,13.497076,,0,0,0,1,1,6.0,152,1533.20757,,19,https://www.immowelt.de/expose/berlin-treptow-124,Zepernick,Zepernick
immowelt_ultimate_4_00125,"Traumhafte 4,5-Zimmer-Gartenwohnung in Berlin-Grunewald",Wilmersdorfer Straße 138,14193,52.490179,13.266883,,1,1,1,1,1,4.5,124,2949.031383,242.99,17,https://www.immowelt.de/expose/berlin-grunewald-125,Grunewald,Grunewald
immowelt_ultimate_4_00126,Bezugsfreie 6-Zimmer-Dachgeschoss in Berlin-Hellersdorf,Schloßstraße 234,12627,52.563647,13.264604,,0,1,0,0,1,6.0,152,1311.303119,253.58,25,https://www.immowelt.de/expose/berlin-hellersdorf-126,Saatwinkel,Tegel
immowelt_ultimate_4_00127,Gemütliche 5-Zimmer-Neubau in Berlin-Marzahn,Potsdamer Platz 59,12683,52.45117,13.644199,Hauptstadt Immobilien,1,1,0,0,0,5.0,125,1873.563435,241.06,12,https://www.immowelt.de/expose/berlin-marzahn-127,Friedrichshagen,Friedrichshagen
immowelt_ultimate_4_00128,"Moderne 3,5-Zimmer-Hochparterre in Berlin-Neukölln",Yorckstraße 227,12047,52.633108,13.745426,Premium Wohnen Berlin,1,1,0,0,1,3.5,122,2174.008206,167.23,7,https://www.immowelt.de/expose/berlin-neukölln-128,,Barnim
immowelt_ultimate_4_00129,"Attraktive 3,5-Zimmer-Apartment in Berlin-Tegel",Schloßstraße 214,13507,52.416985,13.660684,,0,0,0,1,1,3.5,77,1374.341643,,22,https://www.immowelt.de/expose/berlin-tegel-129,Müggelheim,Müggelheim
immowelt_ultimate_4_00130,Repräsentative 6-Zimmer-Hochparterre in Berlin-Reinickendorf,Alexanderplatz 129,13437,52.656831,13.712647,,1,1,0,0,1,6.0,151,4002.795566,333.6,15,https://www.immowelt.de/expose/berlin-reinickendorf-130,,Barnim
immowelt_ultimate_4_00131,Renovierte 1-Zimmer-Galeriewohnung in Berlin-Reinickendorf,Alexanderplatz 190,13403,52.399692,13.560228,,0,0,1,0,0,1.0,26,407.4406322,,33,https://www.immowelt.de/expose/berlin-reinickendorf-131,Falkenberg,Bohnsdorf
immowelt_ultimate_4_00132,Exklusive 4-Zimmer-Erdgeschoss in Berlin-Lichtenberg,Steglitzer Damm 103,10369,52.358388,13.205192,Premium Wohnen Berlin,1,1,0,0,1,4.0,111,3068.882297,352.32,18,https://www.immowelt.de/expose/berlin-lichtenberg-132,,Potsdam-Mittelmark
immowelt_ultimate_4_00133,"Attraktive 4,5-Zimmer-Apartment in Berlin-Grunewald",Residenzstraße 246,14193,52.473478,13.109959,,0,1,0,0,1,4.5,133,4490.944456,165.12,18,https://www.immowelt.de/expose/berlin-grunewald-133,,
immowelt_ultimate_4_00134,"Erstbezug 6,5-Zimmer-Maisonette in Berlin-Hellersdorf",Kantstraße 131,12623,52.447554,13.641755,Kreuzberg Wohnen,1,1,0,0,1,6.5,130,2124.664461,173.07,26,https://www.immowelt.de/expose/berlin-hellersdorf-134,Friedrichshagen,Friedrichshagen
immowelt_ultimate_4_00135,Schöne 7-Zimmer-Souterrainwohnung in Berlin-Charlottenburg,Reinickendorfer Straße 233,10587,52.402615,13.434369,Friedrichshain Properties,0,1,0,0,1,7.0,190,3910.097593,92.14,9,https://www.immowelt.de/expose/berlin-charlottenburg-135,,Dahme-Spreewald
immowelt_ultimate_4_00136,"Renovierte 3,5-Zimmer-Penthouse in Berlin-Zehlendorf",Clayallee 216,14167,52.365267,13.715872,Neukölln Properties,0,0,0,0,0,3.5,93,1948.527168,249.72,22,https://www.immowelt.de/expose/berlin-zehlendorf-136,Wernsdorf,Wernsdorf
immowelt_ultimate_4_00137,"Zentrale 1,5-Zimmer-Wohnung mit Balkon in Berlin-Steglitz",Landsberger Allee 91,12161,52.580019,13.233839,Hausverwaltung Berlin,1,0,0,1,0,1.5,67,2323.422217,289.57,11,https://www.immowelt.de/expose/berlin-steglitz-137,Konradshöhe,Konradshöhe
immowelt_ultimate_4_00138,Sonnige 2-Zimmer-Erdgeschoss in Berlin-Treptow,Residenzstraße 162,12439,52.382035,13.644545,City Living Berlin,0,0,0,0,0,2.0,46,1301.284802,124.47,29,https://www.immowelt.de/expose/berlin-treptow-138,Schmöckwitz,Schmöckwitz
immowelt_ultimate_4_00139,"Sanierte 5,5-Zimmer-Wohnung mit Terrasse in Berlin-Marzahn",Kollwitzplatz 194,12681,52.69758,13.592758,,1,1,0,0,1,5.5,182,4328.846983,63.32,18,https://www.immowelt.de/expose/berlin-marzahn-139,,Barnim
immowelt_ultimate_4_00140,Teilmöblierte 6-Zimmer-Wohnung mit Terrasse in Berlin-Kreuzberg,Spandauer Damm 295,10965,52.606766,13.779012,,0,1,0,1,0,6.0,130,3065.170767,368.75,35,https://www.immowelt.de/expose/berlin-kreuzberg-140,,Märkisch-Oderland
immowelt_ultimate_4_00141,"Teilmöblierte 4,5-Zimmer-Wohnung mit Terrasse in Berlin-Lichtenberg",Bergmannstraße 208,10319,52.627814,13.630535,,0,0,1,0,0,4.5,109,2900.821445,82.74,31,https://www.immowelt.de/expose/berlin-lichtenberg-141,Börnicke,Börnicke
immowelt_ultimate_4_00142,Komplett renovierte 5-Zimmer-Gartenwohnung in Berlin-Friedrichshain,Badstraße 170,10245,52.301755,13.233687,Mitte Immobilien,1,1,0,0,1,5.0,134,4224.526159,,26,https://www.immowelt.de/expose/berlin-friedrichshain-142,Ludwigsfelde,Siethen
immowelt_ultimate_5_00143,"Großzügige 2,5-Zimmer-Dachterrassenwohnung in Berlin-Kreuzberg",Heerstraße 147,10961,52.671333,13.239254,,1,0,0,1,1,2.5,58,2394.387554,398.59,14,https://www.immowelt.de/expose/berlin-kreuzberg-143,,Oberhavel
immowelt_ultimate_5_00144,Charmante 2-Zimmer-Dachgeschoss in Berlin-Grunewald,Neukölln 90,14193,52.352674,13.311433,,0,0,0,0,0,2.0,55,1495.584437,88.38,29,https://www.immowelt.de/expose/berlin-grunewald-144,Großbeeren,Großbeeren
immowelt_ultimate_5_00145,Sanierte 3-Zimmer-Studio in Berlin-Prenzlauer Berg,Friedrichstraße 107,10407,52.587315,13.425843,,1,1,1,1,0,3.0,82,3406.854581,132.85,23,https://www.immowelt.de/expose/berlin-prenzlauer-berg-145,Französisch Buchholz,Französisch Buchholz
immowelt_ultimate_5_00146,Geräumige 2-Zimmer-Altbau in Berlin-Friedrichshain,Mehringdamm 75,10247,52.53481,13.396736,Metropolitan Properties,0,0,0,0,1,2.0,60,1446.942857,,19,https://www.immowelt.de/expose/berlin-friedrichshain-146,Mitte,Mitte
immowelt_ultimate_5_00147,"Repräsentative 3,5-Zimmer-Altbau in Berlin-Friedrichshain",Steglitzer Damm 257,10245,52.680088,13.37091,Metropolitan Properties,1,1,1,0,0,3.5,86,3930.038503,,8,https://www.immowelt.de/expose/berlin-friedrichshain-147,,Oberhavel
immowelt_ultimate_5_00148,"Renovierte 3,5-Zimmer-Loft in Berlin-Frohnau",Rosenthaler Straße 202,13465,52.359959,13.608346,Premium Wohnen Berlin,1,1,1,1,1,3.5,111,3006.840111,122.54,17,https://www.immowelt.de/expose/berlin-frohnau-148,,Dahme-Spreewald
immowelt_ultimate_5_00149,Repräsentative 2-Zimmer-Maisonette in Berlin-Grunewald,Karl-Marx-Allee 150,14193,52.483585,13.668947,,0,1,0,0,1,2.0,39,710.9107752,,5,https://www.immowelt.de/expose/berlin-grunewald-149,,Märkisch-Oderland
immowelt_ultimate_5_00150,Ruhige 5-Zimmer-Zwischenetage in Berlin-Zehlendorf,Karl-Marx-Straße 170,14163,52.373518,13.741399,Friedrichshain Properties,0,0,0,0,1,5.0,104,3149.962182,162.56,20,https://www.immowelt.de/expose/berlin-zehlendorf-150,,Oder-Spree
immowelt_ultimate_5_00151,Geräumige 1-Zimmer-Altbau in Berlin-Friedrichshain,Hackescher Markt 99,10243,52.525744,13.662041,Spree Properties,0,0,0,0,0,1.0,23,575.8601637,296.06,19,https://www.immowelt.de/expose/berlin-friedrichshain-151,,Märkisch-Oderland
immowelt_ultimate_5_00152,"Ruhige 6,5-Zimmer-Souterrainwohnung in Berlin-Treptow",Schloßstraße 37,12459,52.604387,13.433141,,0,0,0,0,1,6.5,159,4443.089487,196.92,28,https://www.immowelt.de/expose/berlin-treptow-152,Französisch Buchholz,Französisch Buchholz
immowelt_ultimate_5_00153,Top-moderne 5-Zimmer-Penthouse in Berlin-Schöneberg,Helmholtzplatz 27,10787,52.525072,13.344352,,1,0,0,1,1,5.0,120,4601.435686,388.68,13,https://www.immowelt.de/expose/berlin-schöneberg-153,Moabit,Moabit
immowelt_ultimate_5_00154,"Attraktive 3,5-Zimmer-Turmwohnung in Berlin-Reinickendorf",Unter den Linden 287,13407,52.558825,13.278567,,0,1,1,0,1,3.5,79,1622.204685,46.1,9,https://www.immowelt.de/expose/berlin-reinickendorf-154,Tegel,Tegel
immowelt_ultimate_5_00155,Lichtdurchflutete 1-Zimmer-Erdgeschoss in Berlin-Neukölln,Sonnenallee 280,12053,52.339249,13.119834,,0,0,0,0,0,1.0,40,1478.902962,397.73,7,https://www.immowelt.de/expose/berlin-neukölln-155,,Potsdam-Mittelmark
immowelt_ultimate_5_00156,"Renovierte 1,5-Zimmer-Wohnung mit Balkon in Berlin-Marzahn",Müllerstraße 295,12679,52.403974,13.398717,Metropolitan Properties,1,0,0,0,0,1.5,41,993.2135971,75.94,9,https://www.immowelt.de/expose/berlin-marzahn-156,Gartenheimsiedlung Grenzland,Lichtenrade
immowelt_ultimate_5_00157,Ruhige 1-Zimmer-Hochparterre in Berlin-Wedding,Clayallee 212,13351,52.30957,13.787936,Kreuzberg Wohnen,0,0,0,0,0,1.0,28,432.3437683,186.39,28,https://www.immowelt.de/expose/berlin-wedding-157,,Dahme-Spreewald
immowelt_ultimate_5_00158,Schöne 5-Zimmer-Loft in Berlin-Prenzlauer Berg,Gneisenaustraße 240,10407,52.631233,13.614069,,1,0,0,0,0,5.0,138,2309.204283,,34,https://www.immowelt.de/expose/berlin-prenzlauer-berg-158,Elisenau,Elisenau
immowelt_ultimate_5_00159,"Moderne 3,5-Zimmer-Zwischenetage in Berlin-Spandau",Yorckstraße 230,13589,52.521427,13.469634,Müller & Partner Immobilien,0,1,1,1,1,3.5,80,957.1437309,,15,https://www.immowelt.de/expose/berlin-spandau-159,Prenzlauer Berg,Prenzlauer Berg
immowelt_ultimate_5_00160,Gemütliche 5-Zimmer-Hochparterre in Berlin-Hellersdorf,Oranienstraße 66,12619,52.62873,13.685516,City Living Berlin,0,0,0,1,0,5.0,102,590.9469735,203.45,10,https://www.immowelt.de/expose/berlin-hellersdorf-160,,Barnim
immowelt_ultimate_5_00161,"Gepflegte 6,5-Zimmer-Galeriewohnung in Berlin-Neukölln",Brunnenstraße 165,12053,52.437626,13.498166,Urban Living Berlin,1,1,0,0,1,6.5,172,3629.423501,,12,https://www.immowelt.de/expose/berlin-neukölln-161,Johannisthal,Johannisthal
immowelt_ultimate_5_00162,"Hochwertige 1,5-Zimmer-Erdgeschoss in Berlin-Grunewald",Kollwitzplatz 134,14193,52.481766,13.247848,Müller & Partner Immobilien,1,0,1,0,1,1.5,40,1561.906912,204.42,5,https://www.immowelt.de/expose/berlin-grunewald-162,Grunewald,Grunewald
immowelt_ultimate_5_00163,Sanierte 4-Zimmer-Wohnung mit Garten in Berlin-Neukölln,Unter den Linden 138,12047,52.304881,13.43945,,0,1,0,0,1,4.0,98,1304.08021,81.58,31,https://www.immowelt.de/expose/berlin-neukölln-163,,Teltow-Fläming
immowelt_ultimate_5_00164,"Traumhafte 1,5-Zimmer-Dachterrassenwohnung in Berlin-Tempelhof",Potsdamer Platz 267,12107,52.424947,13.498117,Charlottenburg Estates,0,0,1,0,0,1.5,38,1105.444381,62.66,35,https://www.immowelt.de/expose/berlin-tempelhof-164,Rudow,Rudow
immowelt_ultimate_5_00165,Repräsentative 4-Zimmer-Wohnung mit Garten in Berlin-Köpenick,Kantstraße 266,12587,52.591796,13.456681,Friedrichshain Properties,1,1,1,1,1,4.0,116,1580.08292,322.34,34,https://www.immowelt.de/expose/berlin-köpenick-165,Blankenburg,Blankenburg
immowelt_ultimate_5_00166,"Gepflegte 2,5-Zimmer-Dachgeschoss in Berlin-Marzahn",Karl-Marx-Allee 131,12679,52.619958,13.137423,,1,0,1,1,0,2.5,65,1420.972798,36.2,23,https://www.immowelt.de/expose/berlin-marzahn-166,Schönwalde-Dorf,Schönwalde-Dorf
immowelt_ultimate_5_00167,"Lichtdurchflutete 2,5-Zimmer-Wohnung in Berlin-Hellersdorf",Rheinstraße 292,12627,52.643346,13.116309,,0,0,0,1,1,2.5,82,1058.119351,,32,https://www.immowelt.de/expose/berlin-hellersdorf-167,Bötzow,Bötzow
immowelt_ultimate_5_00168,"Großzügige 6,5-Zimmer-Wohnung mit Garten in Berlin-Köpenick",Steglitzer Damm 3,12555,52.367647,13.605326,,0,1,0,0,1,6.5,145,2572.686071,138.41,27,https://www.immowelt.de/expose/berlin-köpenick-168,,Dahme-Spreewald
immowelt_ultimate_5_00169,"Repräsentative 5,5-Zimmer-Wohnung mit Garten in Berlin-Tegel",Sonnenallee 162,13509,52.594367,13.463154,,1,1,0,0,0,5.5,184,2832.538181,171.36,28,https://www.immowelt.de/expose/berlin-tegel-169,Blankenburg,Blankenburg
immowelt_ultimate_5_00170,"Moderne 4,5-Zimmer-Dachterrassenwohnung in Berlin-Hellersdorf",Alexanderplatz 53,12627,52.585992,13.517984,Berliner Immobilien Service,1,1,0,0,1,4.5,122,2131.541647,247.77,21,https://www.immowelt.de/expose/berlin-hellersdorf-170,Wartenberg,Wartenberg
immowelt_ultimate_6_00171,"Teilmöblierte 1,5-Zimmer-Wohnung mit Balkon in Berlin-Mitte",Greifswalder Straße 15,10179,52.590746,13.359583,Wedding Wohnen,0,1,0,0,1,1.5,43,2253.260082,388.79,24,https://www.immowelt.de/expose/berlin-mitte-171,Wilhelmsruh,Wilhelmsruh
immowelt_ultimate_6_00172,"Gepflegte 1,5-Zimmer-Hochparterre in Berlin-Mitte",Yorckstraße 134,10178,52.339356,13.594592,Schmidt Immobilien,0,1,1,0,0,1.5,46,1957.348096,63.28,22,https://www.immowelt.de/expose/berlin-mitte-172,,Dahme-Spreewald
immowelt_ultimate_6_00173,"Exklusive 4,5-Zimmer-Souterrainwohnung in Berlin-Mitte",Neukölln 90,10179,52.331166,13.275373,,0,1,0,0,1,4.5,104,2443.707256,376.93,26,https://www.immowelt.de/expose/berlin-mitte-173,Ludwigsfelde,Ludwigsfelde
immowelt_ultimate_6_00174,Zentrale 2-Zimmer-Hochparterre in Berlin-Mitte,Steglitzer Damm 150,10179,52.382296,13.298717,,0,1,0,0,1,2.0,74,3600.579219,277.62,35,https://www.immowelt.de/expose/berlin-mitte-174,Städtlersiedlung,Großbeeren
immowelt_ultimate_6_00175,"Kernsanierte 5,5-Zimmer-Hochparterre in Berlin-Mitte",Chausseestraße 128,10179,52.515142,13.788247,,0,1,0,0,1,5.5,170,6950.711939,252.34,22,https://www.immowelt.de/expose/berlin-mitte-175,Petershagen-Süd,Petershagen-Süd
immowelt_ultimate_6_00176,"Schöne 5,5-Zimmer-Loft in Berlin-Mitte",Hermannstraße 109,10178,52.380703,13.395535,,1,1,1,0,0,5.5,169,4303.027724,,5,https://www.immowelt.de/expose/berlin-mitte-176,Lichtenrade,Lichtenrade
immowelt_ultimate_6_00177,Großzügige 5-Zimmer-Turmwohnung in Berlin-Mitte,Heerstraße 178,10119,52.642384,13.316307,Metropolitan Properties,0,0,0,0,1,5.0,122,5096.354376,331.7,13,https://www.immowelt.de/expose/berlin-mitte-177,Glienicke/Nordbahn,Glienicke/Nordbahn
immowelt_ultimate_6_00178,"Geräumige 4,5-Zimmer-Dachterrassenwohnung in Berlin-Mitte",Steglitzer Damm 23,10117,52.625942,13.347755,Berlin Living GmbH,1,1,1,0,1,4.5,104,3448.41068,,14,https://www.immowelt.de/expose/berlin-mitte-178,,Oberhavel
immowelt_ultimate_6_00179,"Zentrale 5,5-Zimmer-Gartenwohnung in Berlin-Mitte",Spandauer Damm 106,10115,52.611658,13.550273,,1,1,0,0,1,5.5,153,2753.651765,216.19,19,https://www.immowelt.de/expose/berlin-mitte-179,,Barnim
immowelt_ultimate_6_00180,"Freundliche 4,5-Zimmer-Maisonette in Berlin-Mitte",Winterfeldtplatz 124,10117,52.690453,13.479987,Wedding Wohnen,0,1,0,0,0,4.5,138,4571.757521,214.72,20,https://www.immowelt.de/expose/berlin-mitte-180,,Barnim
immowelt_ultimate_6_00181,Top-moderne 5-Zimmer-Neubau in Berlin-Mitte,Residenzstraße 275,10179,52.345406,13.345438,Hausverwaltung Berlin,1,1,0,0,1,5.0,103,5465.634444,81.92,23,https://www.immowelt.de/expose/berlin-mitte-181,,Teltow-Fläming
immowelt_ultimate_6_00182,Ruhige 4-Zimmer-Maisonette in Berlin-Mitte,Mehringdamm 84,10119,52.569734,13.266844,Tempelhof Immobilien,1,1,0,1,1,4.0,90,2000.978681,48.2,13,https://www.immowelt.de/expose/berlin-mitte-182,Tegel,Tegel
immowelt_ultimate_6_00183,Freundliche 3-Zimmer-Neubau in Berlin-Mitte,Hermannstraße 143,10117,52.665992,13.570029,,0,0,0,1,0,3.0,76,2562.257654,60.3,9,https://www.immowelt.de/expose/berlin-mitte-183,Viehtrift,Viehtrift
immowelt_ultimate_6_00184,Komplett renovierte 1-Zimmer-Penthouse in Berlin-Mitte,Spandauer Damm 144,10119,52.363917,13.331903,Neukölln Properties,0,1,0,1,1,1.0,21,1543.98379,287.14,19,https://www.immowelt.de/expose/berlin-mitte-184,,Teltow-Fläming
immowelt_ultimate_6_00185,Schöne 1-Zimmer-Dachterrassenwohnung in Berlin-Mitte,Kurfürstendamm 201,10178,52.483853,13.237395,Premium Wohnen Berlin,1,1,0,1,0,1.0,39,2709.507356,335.56,15,https://www.immowelt.de/expose/berlin-mitte-185,Grunewald,Grunewald
immowelt_ultimate_6_00186,Attraktive 6-Zimmer-Dachterrassenwohnung in Berlin-Mitte,Bergmannstraße 27,10115,52.598904,13.698061,Spree Properties,1,1,0,0,0,6.0,122,4612.734149,137.96,13,https://www.immowelt.de/expose/berlin-mitte-186,,Barnim
immowelt_ultimate_6_00187,Sanierte 7-Zimmer-Maisonette in Berlin-Mitte,Alexanderplatz 293,10117,52.676092,13.693291,Tempelhof Immobilien,1,1,0,1,0,7.0,158,6842.084259,,5,https://www.immowelt.de/expose/berlin-mitte-187,,Barnim
immowelt_ultimate_6_00188,Komplett renovierte 3-Zimmer-Gartenwohnung in Berlin-Mitte,Danziger Straße 70,10115,52.365792,13.408213,Tempelhof Immobilien,0,0,0,0,0,3.0,67,3193.63407,77.57,28,https://www.immowelt.de/expose/berlin-mitte-188,,Teltow-Fläming
immowelt_ultimate_6_00189,Geräumige 1-Zimmer-Dachgeschoss in Berlin-Mitte,Oranienstraße 236,10115,52.300539,13.598245,Hausverwaltung Berlin,0,0,0,0,0,1.0,20,312.64438,,8,https://www.immowelt.de/expose/berlin-mitte-189,Diepensee,Königs Wusterhausen
immowelt_ultimate_6_00190,Hochwertige 2-Zimmer-Loft in Berlin-Mitte,Chausseestraße 188,10117,52.5075,13.38128,,0,0,0,0,1,2.0,62,2105.789714,123.87,5,https://www.immowelt.de/expose/berlin-mitte-190,Mitte,Mitte
immowelt_ultimate_6_00191,"Luxuriöse 2,5-Zimmer-Turmwohnung in Berlin-Mitte",Heerstraße 146,10117,52.569744,13.541983,Tempelhof Immobilien,1,1,0,0,0,2.5,77,4557.50395,,33,https://www.immowelt.de/expose/berlin-mitte-191,Falkenberg,Falkenberg
immowelt_ultimate_6_00192,"Großzügige 1,5-Zimmer-Dachterrassenwohnung in Berlin-Mitte",Rosenthaler Straße 167,10179,52.36722,13.681306,,0,1,0,1,0,1.5,39,3131.330104,274.84,11,https://www.immowelt.de/expose/berlin-mitte-192,Schmöckwitz,Schmöckwitz
immowelt_ultimate_6_00193,Charmante 6-Zimmer-Wohnung mit Balkon in Berlin-Mitte,Frankfurter Allee 22,10115,52.587265,13.150507,Berliner Immobilien Service,1,0,0,1,0,6.0,155,3056.185652,287.77,14,https://www.immowelt.de/expose/berlin-mitte-193,Hakenfelde,Spandau
immowelt_ultimate_6_00194,"Sanierte 4,5-Zimmer-Maisonette in Berlin-Mitte",Residenzstraße 115,10178,52.419025,13.105405,,1,1,0,0,1,4.5,116,1788.481315,366.5,29,https://www.immowelt.de/expose/berlin-mitte-194,Nikolskoe,Wannsee
immowelt_ultimate_6_00195,Möblierte 6-Zimmer-Gartenwohnung in Berlin-Mitte,Potsdamer Platz 299,10115,52.37591,13.406725,Charlottenburg Estates,1,0,0,0,0,6.0,135,2903.264025,208.63,11,https://www.immowelt.de/expose/berlin-mitte-195,Lichtenrade,Lichtenrade
immowelt_ultimate_6_00196,Traumhafte 7-Zimmer-Wohnung mit Terrasse in Berlin-Mitte,Schloßstraße 12,10179,52.667782,13.163065,Friedrichshain Properties,0,1,0,0,0,7.0,172,4333.261021,382.18,11,https://www.immowelt.de/expose/berlin-mitte-196,Marwitz,Marwitz
immowelt_ultimate_6_00197,Gemütliche 7-Zimmer-Zwischenetage in Berlin-Mitte,Wilmersdorfer Straße 242,10179,52.433528,13.792081,Charlottenburg Estates,1,1,0,0,1,7.0,178,3738.538455,,18,https://www.immowelt.de/expose/berlin-mitte-197,,Oder-Spree
immowelt_ultimate_6_00198,"Helle 6,5-Zimmer-Wohnung mit Balkon in Berlin-Mitte",Müllerstraße 47,10117,52.633061,13.559439,,1,1,0,0,0,6.5,151,8974.790666,382.22,5,https://www.immowelt.de/expose/berlin-mitte-198,,Barnim
immowelt_ultimate_8_00199,Traumhafte 7-Zimmer-Wohnung mit Garten in Berlin-Köpenick,Schloßstraße 112,12555,52.611099,13.445799,,1,1,0,0,1,7.0,174,3067.776025,,17,https://www.immowelt.de/expose/berlin-köpenick-199,Anlage Gravenstein,Französisch Buchholz
immowelt_ultimate_8_00200,"Schöne 6,5-Zimmer-Dachterrassenwohnung in Berlin-Lichtenberg",Sonnenallee 180,10315,52.684546,13.600688,Urban Living Berlin,1,1,0,0,1,6.5,122,2336.835326,67.2,12,https://www.immowelt.de/expose/berlin-lichtenberg-200,Rutenfeld,Rutenfeld
immowelt_ultimate_8_00201,Repräsentative 2-Zimmer-Loft in Berlin-Frohnau,Thielallee 47,13465,52.519931,13.354343,,1,0,0,0,0,2.0,57,1294.951925,357.74,21,https://www.immowelt.de/expose/berlin-frohnau-201,Moabit,Moabit
immowelt_ultimate_8_00202,Erstbezug 4-Zimmer-Penthouse in Berlin-Lichtenberg,Reinickendorfer Straße 225,10365,52.474977,13.445952,,0,0,0,0,1,4.0,117,1247.513556,,33,https://www.immowelt.de/expose/berlin-lichtenberg-202,Rixdorf,Neukölln
immowelt_ultimate_8_00203,Helle 7-Zimmer-Studio in Berlin-Zehlendorf,Heerstraße 264,14109,52.359953,13.467899,Berliner Immobilien Service,0,1,0,0,1,7.0,194,6243.09095,,5,https://www.immowelt.de/expose/berlin-zehlendorf-203,,Dahme-Spreewald
immowelt_ultimate_8_00204,Luxuriöse 5-Zimmer-Altbau in Berlin-Tempelhof,Reinickendorfer Straße 231,12109,52.520538,13.687458,,0,1,1,0,1,5.0,129,1299.263394,243.12,5,https://www.immowelt.de/expose/berlin-tempelhof-204,,Märkisch-Oderland
immowelt_ultimate_8_00205,Stilvolle 6-Zimmer-Maisonette in Berlin-Hellersdorf,Schloßstraße 233,12619,52.45985,13.389916,Berliner Immobilien Service,1,0,1,0,0,6.0,151,1830.490635,393.34,9,https://www.immowelt.de/expose/berlin-hellersdorf-205,Tempelhof,Tempelhof
immowelt_ultimate_8_00206,Hochwertige 4-Zimmer-Dachterrassenwohnung in Berlin-Treptow,Danziger Straße 32,12487,52.532349,13.681252,Berlin Living GmbH,0,1,0,0,1,4.0,117,1079.997569,170.85,34,https://www.immowelt.de/expose/berlin-treptow-206,,Märkisch-Oderland
immowelt_ultimate_8_00207,Freundliche 4-Zimmer-Etagenwohnung in Berlin-Wedding,Bergmannstraße 279,13357,52.355599,13.794094,,0,0,0,0,0,4.0,91,1215.107017,67.63,25,https://www.immowelt.de/expose/berlin-wedding-207,Hartmannsdorf,Hartmannsdorf
immowelt_ultimate_8_00208,Teilmöblierte 3-Zimmer-Wohnung in Berlin-Grunewald,Wilmersdorfer Straße 249,14193,52.301639,13.799052,Kiez Immobilien,0,1,0,0,1,3.0,69,2514.444061,138.87,26,https://www.immowelt.de/expose/berlin-grunewald-208,,Dahme-Spreewald
immowelt_ultimate_8_00209,Attraktive 4-Zimmer-Dachgeschoss in Berlin-Treptow,Chausseestraße 213,12487,52.480276,13.354715,,0,0,0,1,0,4.0,83,2012.587811,40.45,23,https://www.immowelt.de/expose/berlin-treptow-209,Schöneberg,Schöneberg
immowelt_ultimate_8_00210,"Möblierte 5,5-Zimmer-Wohnung in Berlin-Wilmersdorf",Yorckstraße 148,10711,52.592354,13.554712,Mitte Immobilien,1,1,0,1,0,5.5,140,3972.263355,166.87,30,https://www.immowelt.de/expose/berlin-wilmersdorf-210,Ahrensfelde,Ahrensfelde
immowelt_ultimate_8_00211,Repräsentative 5-Zimmer-Altbau in Berlin-Zehlendorf,Badstraße 41,14165,52.687556,13.771491,Wedding Wohnen,0,0,0,1,1,5.0,138,4564.933403,,32,https://www.immowelt.de/expose/berlin-zehlendorf-211,Beiersdorf,Beiersdorf
immowelt_ultimate_8_00212,"Top-moderne 2,5-Zimmer-Loft in Berlin-Neukölln",Yorckstraße 53,12057,52.633772,13.637719,City Living Berlin,0,1,0,0,0,2.5,81,894.2763975,,34,https://www.immowelt.de/expose/berlin-neukölln-212,Börnicke,Börnicke
immowelt_ultimate_8_00213,"Helle 4,5-Zimmer-Apartment in Berlin-Frohnau",Brunnenstraße 176,13465,52.409603,13.708211,Hauptstadt Immobilien,0,0,0,0,0,4.5,136,3560.010015,,25,https://www.immowelt.de/expose/berlin-frohnau-213,Müggelheim,Müggelheim
immowelt_ultimate_8_00214,"Luxuriöse 6,5-Zimmer-Etagenwohnung in Berlin-Lichtenberg",Hermannstraße 132,10318,52.64701,13.24837,,1,1,0,0,0,6.5,182,3161.941754,304.92,24,https://www.immowelt.de/expose/berlin-lichtenberg-214,,Oberhavel
immowelt_ultimate_8_00215,Charmante 6-Zimmer-Penthouse in Berlin-Tempelhof,Helmholtzplatz 212,12109,52.655156,13.501541,,1,1,1,1,0,6.0,181,2974.268797,32.48,26,https://www.immowelt.de/expose/berlin-tempelhof-215,Zepernick,Zepernick
immowelt_ultimate_8_00216,Erstbezug 6-Zimmer-Wohnung mit Terrasse in Berlin-Treptow,Reinickendorfer Straße 86,12435,52.400805,13.585208,Kreuzberg Wohnen,1,0,0,0,1,6.0,167,2482.656793,77.58,23,https://www.immowelt.de/expose/berlin-treptow-216,Bohnsdorf,Bohnsdorf
immowelt_ultimate_8_00217,Exklusive 3-Zimmer-Loft in Berlin-Mitte,Residenzstraße 293,10179,52.643118,13.446389,Hauptstadt Immobilien,1,1,0,0,1,3.0,71,4312.264196,,28,https://www.immowelt.de/expose/berlin-mitte-217,Buch,Buch
immowelt_ultimate_8_00218,"Repräsentative 6,5-Zimmer-Dachterrassenwohnung in Berlin-Grunewald",Leipziger Straße 54,14193,52.642319,13.205763,Berliner Immobilien Service,1,1,0,0,1,6.5,134,5089.672262,171.38,20,https://www.immowelt.de/expose/berlin-grunewald-218,,Oberhavel
immowelt_ultimate_8_00219,Top-moderne 1-Zimmer-Studio in Berlin-Kreuzberg,Invalidenstraße 276,10999,52.305471,13.700463,Tempelhof Immobilien,0,1,0,0,1,1.0,32,1767.447737,353.48,27,https://www.immowelt.de/expose/berlin-kreuzberg-219,Zernsdorf,Zernsdorf
immowelt_ultimate_10_00220,"Traumhafte 4,5-Zimmer-Dachterrassenwohnung in Berlin-Köpenick",Gneisenaustraße 36,12555,52.693546,13.358922,Berlin Living GmbH,1,1,0,0,1,4.5,101,943.8587539,,31,https://www.immowelt.de/expose/berlin-köpenick-220,,Oberhavel
immowelt_ultimate_10_00221,Lichtdurchflutete 3-Zimmer-Erdgeschoss in Berlin-Prenzlauer Berg,Landsberger Allee 219,10409,52.428066,13.195098,Kiez Immobilien,1,1,0,0,1,3.0,78,3068.811335,177.52,13,https://www.immowelt.de/expose/berlin-prenzlauer-berg-221,Nikolassee,Nikolassee
immowelt_ultimate_10_00222,Zentrale 4-Zimmer-Zwischenetage in Berlin-Schöneberg,Warschauer Straße 134,10783,52.498536,13.387232,Spree Properties,0,1,0,1,1,4.0,102,2186.624004,360.36,12,https://www.immowelt.de/expose/berlin-schöneberg-222,Kreuzberg,Kreuzberg
immowelt_ultimate_10_00223,Attraktive 6-Zimmer-Wohnung in Berlin-Tempelhof,Bergmannstraße 127,12101,52.302714,13.226941,Müller & Partner Immobilien,1,1,1,0,0,6.0,193,2930.970349,169.64,32,https://www.immowelt.de/expose/berlin-tempelhof-223,Ludwigsfelde,Siethen
immowelt_ultimate_10_00224,"Großzügige 4,5-Zimmer-Wohnung mit Garten in Berlin-Spandau",Kurfürstendamm 238,13589,52.533728,13.567095,Charlottenburg Estates,1,0,0,0,0,4.5,139,3228.374854,,31,https://www.immowelt.de/expose/berlin-spandau-224,Biesdorf,Biesdorf
immowelt_ultimate_10_00225,"Komplett renovierte 1,5-Zimmer-Erdgeschoss in Berlin-Wedding",Torstraße 90,13351,52.541418,13.706316,,1,0,0,0,0,1.5,43,1149.340963,76.23,27,https://www.immowelt.de/expose/berlin-wedding-225,,Märkisch-Oderland
immowelt_ultimate_10_00226,Kernsanierte 4-Zimmer-Souterrainwohnung in Berlin-Lichtenberg,Spandauer Damm 73,10315,52.499303,13.338266,Mitte Immobilien,1,0,1,0,0,4.0,113,2766.941917,,16,https://www.immowelt.de/expose/berlin-lichtenberg-226,Wilmersdorf,Wilmersdorf
immowelt_ultimate_10_00227,"Charmante 2,5-Zimmer-Wohnung mit Terrasse in Berlin-Wedding",Karl-Marx-Allee 72,13353,52.622346,13.787091,,1,0,0,0,1,2.5,73,1402.330331,177.17,24,https://www.immowelt.de/expose/berlin-wedding-227,,Märkisch-Oderland
immowelt_ultimate_10_00228,Sonnige 3-Zimmer-Loft in Berlin-Wilmersdorf,Kastanienallee 183,10713,52.581839,13.188987,Premium Wohnen Berlin,0,1,1,0,1,3.0,77,2743.6435,151.4,25,https://www.immowelt.de/expose/berlin-wilmersdorf-228,Hakenfelde,Spandau
immowelt_ultimate_10_00229,"Teilmöblierte 2,5-Zimmer-Hochparterre in Berlin-Zehlendorf",Danziger Straße 171,14129,52.547457,13.506765,,1,0,0,0,0,2.5,92,1368.693566,302.92,29,https://www.immowelt.de/expose/berlin-zehlendorf-229,Alt-Hohenschönhausen,Alt-Hohenschönhausen
immowelt_ultimate_10_00230,Zentrale 4-Zimmer-Hochparterre in Berlin-Marzahn,Residenzstraße 72,12687,52.537974,13.580625,,1,1,0,0,1,4.0,103,2166.717006,316.68,26,https://www.immowelt.de/expose/berlin-marzahn-230,Wohngebiet Landsberger Tor,Marzahn
immowelt_ultimate_10_00231,Gemütliche 6-Zimmer-Zwischenetage in Berlin-Zehlendorf,Schönhauser Allee 250,14163,52.454513,13.550456,,0,0,1,0,1,6.0,189,5260.763033,,22,https://www.immowelt.de/expose/berlin-zehlendorf-231,Niederschöneweide,Niederschöneweide
immowelt_ultimate_10_00232,Luxuriöse 3-Zimmer-Maisonette in Berlin-Friedrichshain,Frankfurter Allee 18,10245,52.368821,13.431936,Müller & Partner Immobilien,1,1,0,1,0,3.0,81,3058.57343,293.07,6,https://www.immowelt.de/expose/berlin-friedrichshain-232,,Dahme-Spreewald
immowelt_ultimate_10_00233,"Gemütliche 5,5-Zimmer-Maisonette in Berlin-Pankow",Neukölln 102,13127,52.384188,13.723565,,0,1,0,0,1,5.5,171,2451.33838,267.33,26,https://www.immowelt.de/expose/berlin-pankow-233,Wernsdorf,Wernsdorf
immowelt_ultimate_10_00234,"Moderne 1,5-Zimmer-Hochparterre in Berlin-Grunewald",Friedrichstraße 170,14193,52.338915,13.681384,Metropolitan Properties,1,1,1,1,1,1.5,59,2939.562579,241.33,29,https://www.immowelt.de/expose/berlin-grunewald-234,Wernsdorf,Wernsdorf
immowelt_ultimate_10_00235,"Bezugsfreie 5,5-Zimmer-Erdgeschoss in Berlin-Schöneberg",Kantstraße 167,10785,52.526805,13.168379,Premium Wohnen Berlin,1,1,0,0,0,5.5,186,8424.069458,171.24,31,https://www.immowelt.de/expose/berlin-schöneberg-235,Wilhelmstadt,Spandau
immowelt_ultimate_10_00236,Stilvolle 4-Zimmer-Souterrainwohnung in Berlin-Steglitz,Friedrichstraße 54,12163,52.313672,13.642013,Urban Living Berlin,1,0,1,0,1,4.0,92,1576.534316,,31,https://www.immowelt.de/expose/berlin-steglitz-236,,Dahme-Spreewald
immowelt_ultimate_10_00237,Freundliche 2-Zimmer-Wohnung mit Balkon in Berlin-Neukölln,Brunnenstraße 15,12043,52.342255,13.598579,Müller & Partner Immobilien,1,1,1,0,1,2.0,47,532.9105847,198.6,34,https://www.immowelt.de/expose/berlin-neukölln-237,,Dahme-Spreewald
immowelt_ultimate_10_00238,Sanierte 7-Zimmer-Galeriewohnung in Berlin-Tegel,Leipziger Straße 174,13507,52.655517,13.542839,,0,1,0,0,1,7.0,128,2269.136041,,21,https://www.immowelt.de/expose/berlin-tegel-238,Zepernick,Zepernick
immowelt_ultimate_10_00239,Renovierte 1-Zimmer-Penthouse in Berlin-Schöneberg,Reinickendorfer Straße 276,10785,52.327695,13.555724,Berliner Immobilien Service,0,1,1,0,1,1.0,46,2393.366266,292.05,28,https://www.immowelt.de/expose/berlin-schöneberg-239,,Dahme-Spreewald
immowelt_ultimate_10_00240,"Schöne 1,5-Zimmer-Turmwohnung in Berlin-Moabit",Kurfürstendamm 16,10555,52.52594,13.252446,,0,0,1,0,0,1.5,52,1417.22376,396.9,13,https://www.immowelt.de/expose/berlin-moabit-240,Westend,Westend
immowelt_ultimate_10_00241,Bezugsfreie 4-Zimmer-Neubau in Berlin-Wedding,Residenzstraße 105,13347,52.496496,13.263934,Kiez Immobilien,0,1,1,0,0,4.0,98,2441.055692,,21,https://www.immowelt.de/expose/berlin-wedding-241,Westend,Westend
immowelt_ultimate_10_00242,Designer 5-Zimmer-Dachgeschoss in Berlin-Frohnau,Winterfeldtplatz 144,13465,52.361257,13.710453,City Living Berlin,1,1,0,1,1,5.0,117,3218.302997,398.5,27,https://www.immowelt.de/expose/berlin-frohnau-242,Wernsdorf,Wernsdorf
immowelt_ultimate_10_00243,"Schöne 4,5-Zimmer-Maisonette in Berlin-Kreuzberg",Friedrichstraße 187,10965,52.522102,13.274538,Kreuzberg Wohnen,1,1,0,1,0,4.5,135,2347.784894,274.16,26,https://www.immowelt.de/expose/berlin-kreuzberg-243,Westend,Westend
immowelt_ultimate_10_00244,"Moderne 6,5-Zimmer-Wohnung mit Garten in Berlin-Spandau",Thielallee 145,13595,52.300759,13.422477,Hausverwaltung Berlin,0,1,0,0,0,6.5,174,2587.759165,128.74,13,https://www.immowelt.de/expose/berlin-spandau-244,Rangsdorf,Rangsdorf
immowelt_ultimate_10_00245,"Charmante 5,5-Zimmer-Galeriewohnung in Berlin-Friedrichshain",Yorckstraße 148,10245,52.567827,13.574316,Kreuzberg Wohnen,1,1,0,0,0,5.5,192,5024.179851,391.75,25,https://www.immowelt.de/expose/berlin-friedrichshain-245,Berlin-Ahrensfelde,Marzahn
immowelt_ultimate_10_00246,Luxuriöse 1-Zimmer-Wohnung mit Terrasse in Berlin-Dahlem,Rheinstraße 218,14195,52.323774,13.33771,Berliner Immobilien Service,0,0,0,0,1,1.0,23,776.8570466,82.52,34,https://www.immowelt.de/expose/berlin-dahlem-246,,Teltow-Fläming
immowelt_ultimate_10_00247,"Zentrale 1,5-Zimmer-Wohnung in Berlin-Spandau",Karl-Marx-Allee 124,13599,52.31411,13.212823,,0,0,0,0,0,1.5,40,710.7667205,315.79,17,https://www.immowelt.de/expose/berlin-spandau-247,Struveshof,Struveshof
immowelt_ultimate_13_00248,"Charmante 1,5-Zimmer-Zwischenetage in Berlin-Reinickendorf",Königin-Luise-Straße 241,13435,52.570324,13.169133,Spree Properties,0,0,0,0,0,1.5,41,998.6228378,,29,https://www.immowelt.de/expose/berlin-reinickendorf-248,Hakenfelde,Spandau
immowelt_ultimate_13_00249,"Helle 3,5-Zimmer-Studio in Berlin-Tegel",Mehringdamm 93,13507,52.462773,13.680609,Kreuzberg Wohnen,0,0,0,0,1,3.5,110,1099.660128,86.54,27,https://www.immowelt.de/expose/berlin-tegel-249,,Oder-Spree
immowelt_ultimate_13_00250,Stilvolle 4-Zimmer-Neubau in Berlin-Grunewald,Leipziger Straße 255,14193,52.427923,13.260376,Premium Wohnen Berlin,1,1,1,0,1,4.0,118,4752.23291,45.7,12,https://www.immowelt.de/expose/berlin-grunewald-250,Zehlendorf,Zehlendorf
immowelt_ultimate_13_00251,"Kernsanierte 6,5-Zimmer-Etagenwohnung in Berlin-Neukölln",Bergmannstraße 176,12051,52.366893,13.727135,,0,1,0,0,0,6.5,159,3725.233787,,17,https://www.immowelt.de/expose/berlin-neukölln-251,Wernsdorf,Wernsdorf
immowelt_ultimate_13_00252,"Ruhige 1,5-Zimmer-Wohnung in Berlin-Wilmersdorf",Bergmannstraße 192,10717,52.346949,13.524867,,1,0,0,1,1,1.5,37,2061.590648,255.58,22,https://www.immowelt.de/expose/berlin-wilmersdorf-252,,Dahme-Spreewald
immowelt_ultimate_13_00253,"Helle 3,5-Zimmer-Gartenwohnung in Berlin-Treptow",Clayallee 5,12459,52.465505,13.498757,,0,0,0,0,0,3.5,81,1251.916347,357.88,14,https://www.immowelt.de/expose/berlin-treptow-253,Niederschöneweide,Niederschöneweide
immowelt_ultimate_13_00254,Großzügige 2-Zimmer-Altbau in Berlin-Mitte,Alexanderplatz 297,10178,52.416717,13.413665,,0,1,0,0,0,2.0,40,1340.016037,,20,https://www.immowelt.de/expose/berlin-mitte-254,Neu-Buckow,Buckow
immowelt_ultimate_13_00255,Möblierte 6-Zimmer-Gartenwohnung in Berlin-Dahlem,Greifswalder Straße 84,14195,52.331046,13.10555,,1,0,0,0,0,6.0,158,4902.77091,212.24,29,https://www.immowelt.de/expose/berlin-dahlem-255,,Potsdam-Mittelmark
immowelt_ultimate_13_00256,Top-moderne 2-Zimmer-Zwischenetage in Berlin-Wedding,Unter den Linden 113,13351,52.690855,13.283685,,1,1,0,0,1,2.0,70,1336.324029,,25,https://www.immowelt.de/expose/berlin-wedding-256,Birkenwerder Nord,Birkenwerder Nord
immowelt_ultimate_13_00257,"Designer 1,5-Zimmer-Souterrainwohnung in Berlin-Frohnau",Kantstraße 161,13465,52.319204,13.556033,Berlin Living GmbH,0,1,0,0,1,1.5,47,1615.632936,300.78,27,https://www.immowelt.de/expose/berlin-frohnau-257,,Dahme-Spreewald
immowelt_ultimate_13_00258,"Sonnige 2,5-Zimmer-Galeriewohnung in Berlin-Hellersdorf",Karl-Marx-Straße 65,12627,52.660753,13.616133,,0,0,0,0,1,2.5,78,806.7796984,,21,https://www.immowelt.de/expose/berlin-hellersdorf-258,Börnicke,Börnicke
immowelt_ultimate_13_00259,"Ruhige 1,5-Zimmer-Altbau in Berlin-Kreuzberg",Müllerstraße 232,10961,52.370086,13.717812,Steglitz Properties,0,1,0,1,1,1.5,75,2800.972183,234.85,14,https://www.immowelt.de/expose/berlin-kreuzberg-259,Wernsdorf,Wernsdorf
immowelt_ultimate_13_00260,Gemütliche 4-Zimmer-Wohnung mit Garten in Berlin-Kreuzberg,Torstraße 108,10997,52.676699,13.591424,Steglitz Properties,1,1,0,0,0,4.0,81,3797.155371,251.62,31,https://www.immowelt.de/expose/berlin-kreuzberg-260,Stadtkern,Stadtkern
immowelt_ultimate_13_00261,Ruhige 7-Zimmer-Altbau in Berlin-Hellersdorf,Leipziger Straße 3,12623,52.531884,13.670114,Friedrichshain Properties,0,0,1,0,1,7.0,123,1425.029132,250.57,21,https://www.immowelt.de/expose/berlin-hellersdorf-261,,Märkisch-Oderland
immowelt_ultimate_13_00262,Geräumige 2-Zimmer-Turmwohnung in Berlin-Neukölln,Hermannstraße 78,12049,52.330928,13.417409,Urban Living Berlin,1,1,0,0,1,2.0,71,1488.402064,184.0,7,https://www.immowelt.de/expose/berlin-neukölln-262,,Teltow-Fläming
immowelt_ultimate_13_00263,Großzügige 2-Zimmer-Maisonette in Berlin-Marzahn,Winterfeldtplatz 261,12681,52.546195,13.406713,Hausverwaltung Berlin,0,0,0,0,1,2.0,43,590.2202267,158.82,6,https://www.immowelt.de/expose/berlin-marzahn-263,Gleimviertel,Prenzlauer Berg
immowelt_ultimate_13_00264,"Gemütliche 4,5-Zimmer-Galeriewohnung in Berlin-Prenzlauer Berg",Torstraße 123,10409,52.5651,13.760388,,1,1,0,1,0,4.5,135,6990.870619,322.78,26,https://www.immowelt.de/expose/berlin-prenzlauer-berg-264,,Märkisch-Oderland
immowelt_ultimate_13_00265,"Attraktive 5,5-Zimmer-Apartment in Berlin-Moabit",Potsdamer Platz 170,10555,52.328885,13.366972,,0,1,0,0,1,5.5,156,2487.937243,125.63,18,https://www.immowelt.de/expose/berlin-moabit-265,,Teltow-Fläming
immowelt_ultimate_13_00266,Top-moderne 4-Zimmer-Maisonette in Berlin-Neukölln,Neukölln 111,12051,52.359737,13.60763,Neukölln Properties,1,1,1,1,1,4.0,84,1227.133807,314.53,20,https://www.immowelt.de/expose/berlin-neukölln-266,,Dahme-Spreewald
immowelt_ultimate_13_00267,Hochwertige 6-Zimmer-Gartenwohnung in Berlin-Charlottenburg,Wilmersdorfer Straße 148,10623,52.450874,13.323532,Wedding Wohnen,0,1,0,0,1,6.0,132,4841.929185,,16,https://www.immowelt.de/expose/berlin-charlottenburg-267,Steglitz,Steglitz
immowelt_ultimate_13_00268,Exklusive 3-Zimmer-Loft in Berlin-Hellersdorf,Warschauer Straße 291,12623,52.646729,13.427305,,1,0,1,1,0,3.0,93,1470.633501,191.89,13,https://www.immowelt.de/expose/berlin-hellersdorf-268,,Barnim
immowelt_ultimate_13_00269,Helle 4-Zimmer-Maisonette in Berlin-Mitte,Badstraße 163,10117,52.396764,13.179399,Kreuzberg Wohnen,1,1,0,1,0,4.0,109,5401.448349,255.95,16,https://www.immowelt.de/expose/berlin-mitte-269,Stahnsdorf,Stahnsdorf
immowelt_ultimate_13_00270,Traumhafte 3-Zimmer-Penthouse in Berlin-Neukölln,Schönhauser Allee 270,12057,52.607225,13.603254,,0,1,0,0,1,3.0,78,1157.727329,187.37,9,https://www.immowelt.de/expose/berlin-neukölln-270,,Barnim
immowelt_ultimate_13_00271,Zentrale 5-Zimmer-Dachterrassenwohnung in Berlin-Pankow,Alexanderplatz 44,13189,52.312069,13.484882,,0,1,0,1,1,5.0,114,2237.122969,,31,https://www.immowelt.de/expose/berlin-pankow-271,,Teltow-Fläming
immowelt_ultimate_13_00272,Luxuriöse 6-Zimmer-Penthouse in Berlin-Charlottenburg,Spandauer Damm 219,10627,52.453536,13.399592,Urban Living Berlin,1,1,0,1,1,6.0,172,7163.158871,,22,https://www.immowelt.de/expose/berlin-charlottenburg-272,Tempelhof,Tempelhof
immowelt_ultimate_13_00273,"Repräsentative 3,5-Zimmer-Erdgeschoss in Berlin-Köpenick",Warschauer Straße 190,12555,52.350158,13.111002,,0,1,0,0,0,3.5,101,1361.362914,354.82,25,https://www.immowelt.de/expose/berlin-köpenick-273,,Potsdam-Mittelmark
immowelt_ultimate_13_00274,Erstbezug 3-Zimmer-Dachgeschoss in Berlin-Zehlendorf,Kantstraße 142,14165,52.52957,13.337266,,0,1,0,0,0,3.0,63,998.8343232,,17,https://www.immowelt.de/expose/berlin-zehlendorf-274,Moabit,Moabit
immowelt_ultimate_13_00275,"Sonnige 3,5-Zimmer-Hochparterre in Berlin-Prenzlauer Berg",Simon-Dach-Straße 45,10409,52.685374,13.742203,,0,1,1,1,1,3.5,113,5788.45152,159.85,32,https://www.immowelt.de/expose/berlin-prenzlauer-berg-275,,Barnim
immowelt_ultimate_13_00276,"Traumhafte 4,5-Zimmer-Zwischenetage in Berlin-Wilmersdorf",Thielallee 63,10715,52.517514,13.288384,Berlin Living GmbH,0,0,1,0,1,4.5,119,6414.835419,,12,https://www.immowelt.de/expose/berlin-wilmersdorf-276,Charlottenburg,Charlottenburg
immowelt_ultimate_13_00277,Charmante 7-Zimmer-Hochparterre in Berlin-Tempelhof,Residenzstraße 286,12105,52.353276,13.254442,Prenzlauer Berg Living,1,1,0,0,1,7.0,120,3789.329805,188.15,26,https://www.immowelt.de/expose/berlin-tempelhof-277,Ruhlsdorf,Ruhlsdorf
immowelt_ultimate_13_00278,"Möblierte 4,5-Zimmer-Wohnung mit Garten in Berlin-Tegel",Karl-Marx-Allee 118,13509,52.689576,13.415758,,1,1,0,0,0,4.5,117,2354.672302,253.34,35,https://www.immowelt.de/expose/berlin-tegel-278,,Barnim
immowelt_ultimate_13_00279,Großzügige 6-Zimmer-Maisonette in Berlin-Lichtenberg,Karl-Marx-Allee 205,10365,52.512821,13.725034,Mitte Immobilien,1,1,1,0,0,6.0,145,3600.5661,218.04,17,https://www.immowelt.de/expose/berlin-lichtenberg-279,,Märkisch-Oderland
immowelt_ultimate_13_00280,"Gepflegte 3,5-Zimmer-Wohnung mit Terrasse in Berlin-Wilmersdorf",Leipziger Straße 173,10711,52.411608,13.253208,Metropolitan Properties,1,1,0,0,0,3.5,104,2031.591406,205.09,27,https://www.immowelt.de/expose/berlin-wilmersdorf-280,Zehlendorf,Zehlendorf
immowelt_ultimate_13_00281,"Erstbezug 1,5-Zimmer-Wohnung mit Garten in Berlin-Marzahn",Mehringdamm 284,12683,52.403279,13.753483,,0,0,0,0,0,1.5,60,1274.32296,357.24,8,https://www.immowelt.de/expose/berlin-marzahn-281,,Oder-Spree
immowelt_ultimate_13_00282,Lichtdurchflutete 4-Zimmer-Gartenwohnung in Berlin-Prenzlauer Berg,Sonnenallee 199,10405,52.303765,13.345923,Charlottenburg Estates,0,1,0,0,0,4.0,98,4546.483927,,16,https://www.immowelt.de/expose/berlin-prenzlauer-berg-282,,Teltow-Fläming
immowelt_ultimate_16_00283,Attraktive 2-Zimmer-Wohnung mit Terrasse in Berlin-Dahlem,Oranienstraße 149,14195,52.37046,13.372916,Hausverwaltung Berlin,0,0,0,0,0,2.0,54,1420.689062,388.72,32,https://www.immowelt.de/expose/berlin-dahlem-283,,Teltow-Fläming
immowelt_ultimate_16_00284,Geräumige 2-Zimmer-Penthouse in Berlin-Mitte,Leipziger Straße 227,10178,52.53785,13.484129,Berlin Living GmbH,0,0,0,0,0,2.0,63,3384.097956,201.67,18,https://www.immowelt.de/expose/berlin-mitte-284,Alt-Hohenschönhausen,Alt-Hohenschönhausen
immowelt_ultimate_16_00285,Gepflegte 1-Zimmer-Studio in Berlin-Steglitz,Friedrichstraße 154,12165,52.651748,13.355394,Charlottenburg Estates,0,1,0,0,1,1.0,42,732.832659,34.56,29,https://www.immowelt.de/expose/berlin-steglitz-285,,Oberhavel
immowelt_ultimate_16_00286,Top-moderne 7-Zimmer-Penthouse in Berlin-Steglitz,Bergmannstraße 6,12163,52.428629,13.467331,Berlin Living GmbH,1,1,0,0,0,7.0,171,2868.479407,289.35,10,https://www.immowelt.de/expose/berlin-steglitz-286,Campus Efeuweg,Gropiusstadt
immowelt_ultimate_16_00287,"Exklusive 2,5-Zimmer-Neubau in Berlin-Grunewald",Hermannstraße 226,14193,52.451934,13.62891,Spree Properties,1,1,1,0,1,2.5,83,2878.595313,322.36,26,https://www.immowelt.de/expose/berlin-grunewald-287,Friedrichshagen,Friedrichshagen
immowelt_ultimate_16_00288,Großzügige 5-Zimmer-Souterrainwohnung in Berlin-Steglitz,Bergmannstraße 272,12167,52.370599,13.330128,,1,1,0,1,1,5.0,137,4590.486984,,6,https://www.immowelt.de/expose/berlin-steglitz-288,,Teltow-Fläming
immowelt_ultimate_16_00289,Erstbezug 3-Zimmer-Altbau in Berlin-Grunewald,Residenzstraße 258,14193,52.318184,13.321088,,1,1,0,0,1,3.0,65,1492.855418,276.45,24,https://www.immowelt.de/expose/berlin-grunewald-289,,Teltow-Fläming
immowelt_ultimate_16_00290,"Sanierte 3,5-Zimmer-Erdgeschoss in Berlin-Spandau",Chausseestraße 274,13583,52.512497,13.484701,,1,0,0,0,1,3.5,125,2383.231549,,29,https://www.immowelt.de/expose/berlin-spandau-290,Lichtenberg,Lichtenberg
immowelt_ultimate_16_00291,"Repräsentative 3,5-Zimmer-Zwischenetage in Berlin-Mitte",Königin-Luise-Straße 150,10117,52.317147,13.144666,Kreuzberg Wohnen,1,1,0,1,1,3.5,104,5087.82461,261.14,10,https://www.immowelt.de/expose/berlin-mitte-291,,Potsdam-Mittelmark
immowelt_ultimate_16_00292,Komplett renovierte 3-Zimmer-Gartenwohnung in Berlin-Lichtenberg,Spandauer Damm 63,10317,52.557377,13.505513,,0,1,1,0,0,3.0,72,1759.65965,173.72,32,https://www.immowelt.de/expose/berlin-lichtenberg-292,Alt-Hohenschönhausen,Alt-Hohenschönhausen
immowelt_ultimate_16_00293,"Kernsanierte 1,5-Zimmer-Gartenwohnung in Berlin-Mitte",Torstraße 299,10117,52.493391,13.203022,Hauptstadt Immobilien,0,1,0,0,1,1.5,56,2113.624101,40.59,23,https://www.immowelt.de/expose/berlin-mitte-293,Grunewald,Grunewald
immowelt_ultimate_16_00294,Ruhige 2-Zimmer-Wohnung in Berlin-Spandau,Schönhauser Allee 205,13599,52.693419,13.676061,,1,0,0,0,0,2.0,59,928.8195442,,6,https://www.immowelt.de/expose/berlin-spandau-294,Sydower Fließ,Sydower Fließ
immowelt_ultimate_16_00295,"Elegante 4,5-Zimmer-Galeriewohnung in Berlin-Charlottenburg",Chausseestraße 18,10625,52.553732,13.710962,,1,1,0,0,0,4.5,112,5351.735161,366.44,33,https://www.immowelt.de/expose/berlin-charlottenburg-295,,Märkisch-Oderland
immowelt_ultimate_16_00296,"Attraktive 6,5-Zimmer-Wohnung in Berlin-Tempelhof",Bergmannstraße 15,12103,52.420628,13.478187,,1,1,0,1,1,6.5,178,4848.685901,112.6,31,https://www.immowelt.de/expose/berlin-tempelhof-296,Gropiusstadt,Gropiusstadt
immowelt_ultimate_16_00297,"Hochwertige 1,5-Zimmer-Zwischenetage in Berlin-Prenzlauer Berg",Leipziger Straße 200,10439,52.561395,13.632222,Hauptstadt Immobilien,1,1,0,0,0,1.5,59,2197.87559,149.92,26,https://www.immowelt.de/expose/berlin-prenzlauer-berg-297,,Märkisch-Oderland
immowelt_ultimate_16_00298,"Elegante 4,5-Zimmer-Etagenwohnung in Berlin-Wilmersdorf",Steglitzer Damm 185,10707,52.371241,13.443077,,0,1,0,0,1,4.5,105,4918.668003,128.23,35,https://www.immowelt.de/expose/berlin-wilmersdorf-298,,Dahme-Spreewald
immowelt_ultimate_16_00299,Komplett renovierte 1-Zimmer-Etagenwohnung in Berlin-Neukölln,Neukölln 84,12047,52.511633,13.724133,Charlottenburg Estates,0,1,0,1,1,1.0,21,300.0,328.36,27,https://www.immowelt.de/expose/berlin-neukölln-299,,Märkisch-Oderland
immowelt_ultimate_16_00300,Renovierte 1-Zimmer-Wohnung mit Garten in Berlin-Köpenick,Residenzstraße 39,12555,52.547479,13.67061,Metropolitan Properties,0,0,0,1,1,1.0,42,1062.230045,180.69,19,https://www.immowelt.de/expose/berlin-köpenick-300,,Märkisch-Oderland
immowelt_ultimate_16_00301,Möblierte 3-Zimmer-Dachterrassenwohnung in Berlin-Charlottenburg,Rheinstraße 146,10629,52.34436,13.720866,Berlin Living GmbH,1,1,0,0,0,3.0,93,3253.722925,206.96,25,https://www.immowelt.de/expose/berlin-charlottenburg-301,Wernsdorf,Wernsdorf
immowelt_ultimate_16_00302,Charmante 2-Zimmer-Penthouse in Berlin-Zehlendorf,Sonnenallee 239,14109,52.675702,13.248142,Steglitz Properties,1,1,0,0,0,2.0,59,1070.962899,,24,https://www.immowelt.de/expose/berlin-zehlendorf-302,Niederheide,Hohen Neuendorf
immowelt_ultimate_16_00303,Top-moderne 1-Zimmer-Penthouse in Berlin-Frohnau,Clayallee 268,13465,52.432605,13.705917,Schmidt Immobilien,1,0,0,0,0,1.0,27,1013.091923,177.6,33,https://www.immowelt.de/expose/berlin-frohnau-303,Rahnsdorf,Rahnsdorf
immowelt_ultimate_16_00304,"Komplett renovierte 4,5-Zimmer-Wohnung mit Balkon in Berlin-Treptow",Hackescher Markt 246,12437,52.40268,13.415341,,1,0,0,0,0,4.5,119,1567.926499,,24,https://www.immowelt.de/expose/berlin-treptow-304,Lichtenrade,Lichtenrade
immowelt_ultimate_16_00305,Sonnige 3-Zimmer-Altbau in Berlin-Steglitz,Invalidenstraße 161,12169,52.66467,13.701575,,0,0,0,0,1,3.0,76,942.1369823,,32,https://www.immowelt.de/expose/berlin-steglitz-305,,Barnim
immowelt_ultimate_16_00306,"Ruhige 6,5-Zimmer-Wohnung in Berlin-Mitte",Neukölln 53,10179,52.503776,13.361952,Urban Living Berlin,1,1,0,0,0,6.5,154,7935.549452,,27,https://www.immowelt.de/expose/berlin-mitte-306,Botschaftsviertel,Tiergarten
immowelt_ultimate_16_00307,"Komplett renovierte 6,5-Zimmer-Dachgeschoss in Berlin-Dahlem",Simon-Dach-Straße 165,14195,52.63972,13.551756,Mitte Immobilien,1,0,0,0,0,6.5,197,3508.150244,241.8,23,https://www.immowelt.de/expose/berlin-dahlem-307,Kolonie Gehrenberge,Kolonie Gehrenberge
immowelt_ultimate_16_00308,Bezugsfreie 2-Zimmer-Apartment in Berlin-Marzahn,Rheinstraße 186,12683,52.34686,13.227522,Hausverwaltung Berlin,0,1,1,1,1,2.0,58,521.0466701,,19,https://www.immowelt.de/expose/berlin-marzahn-308,,Potsdam-Mittelmark
immowelt_ultimate_16_00309,Attraktive 4-Zimmer-Souterrainwohnung in Berlin-Wilmersdorf,Prenzlauer Allee 142,10719,52.670602,13.601477,Kreuzberg Wohnen,1,0,0,0,1,4.0,96,4426.512908,,30,https://www.immowelt.de/expose/berlin-wilmersdorf-309,Bernau Süd,Bernau Süd
immowelt_ultimate_16_00310,Geräumige 4-Zimmer-Wohnung mit Balkon in Berlin-Marzahn,Chausseestraße 173,12683,52.423093,13.172954,,1,1,0,1,0,4.0,119,2897.933492,208.01,7,https://www.immowelt.de/expose/berlin-marzahn-310,Wannsee,Wannsee
immowelt_ultimate_16_00311,"Schöne 3,5-Zimmer-Apartment in Berlin-Prenzlauer Berg",Kantstraße 232,10407,52.375876,13.738732,,1,0,0,0,1,3.5,75,3390.711359,299.22,6,https://www.immowelt.de/expose/berlin-prenzlauer-berg-311,,Oder-Spree
immowelt_ultimate_16_00312,Traumhafte 7-Zimmer-Wohnung mit Balkon in Berlin-Mitte,Kastanienallee 34,10117,52.574727,13.326575,,1,0,0,0,1,7.0,168,7632.310786,173.64,21,https://www.immowelt.de/expose/berlin-mitte-312,Reinickendorf,Reinickendorf
immowelt_ultimate_17_00313,"Hochwertige 5,5-Zimmer-Erdgeschoss in Berlin-Mitte",Kantstraße 64,10117,52.41446,13.474289,,1,1,1,0,0,5.5,189,4779.411937,37.3,34,https://www.immowelt.de/expose/berlin-mitte-313,Postsiedlung,Rudow
immowelt_ultimate_17_00314,Renovierte 7-Zimmer-Etagenwohnung in Berlin-Wilmersdorf,Spandauer Damm 62,10719,52.308465,13.542053,,1,0,1,0,0,7.0,131,5720.220273,,23,https://www.immowelt.de/expose/berlin-wilmersdorf-314,,Dahme-Spreewald
immowelt_ultimate_17_00315,Hochwertige 4-Zimmer-Loft in Berlin-Mitte,Winterfeldtplatz 199,10117,52.692214,13.681242,,0,0,0,0,1,4.0,117,7003.076259,347.6,27,https://www.immowelt.de/expose/berlin-mitte-315,Sydower Fließ,Sydower Fließ
immowelt_ultimate_17_00316,"Charmante 2,5-Zimmer-Turmwohnung in Berlin-Tempelhof",Potsdamer Platz 176,12103,52.504615,13.498461,Kreuzberg Wohnen,0,1,0,0,1,2.5,76,2563.438047,227.48,17,https://www.immowelt.de/expose/berlin-tempelhof-316,Weitlingkiez,Rummelsburg
immowelt_ultimate_17_00317,"Sonnige 1,5-Zimmer-Apartment in Berlin-Lichtenberg",Alexanderplatz 146,10317,52.651795,13.299841,Tempelhof Immobilien,1,0,1,0,0,1.5,57,1199.747532,,16,https://www.immowelt.de/expose/berlin-lichtenberg-317,Frohnau,Frohnau
immowelt_ultimate_17_00318,"Geräumige 3,5-Zimmer-Studio in Berlin-Steglitz",Greifswalder Straße 21,12163,52.678263,13.512686,,0,1,0,0,1,3.5,109,1671.02882,,27,https://www.immowelt.de/expose/berlin-steglitz-318,Schönow,Schönow
immowelt_ultimate_17_00319,"Teilmöblierte 4,5-Zimmer-Wohnung in Berlin-Dahlem",Winterfeldtplatz 18,14195,52.50673,13.590057,City Living Berlin,0,1,0,1,0,4.5,116,2188.08205,,31,https://www.immowelt.de/expose/berlin-dahlem-319,Kaulsdorf,Kaulsdorf
immowelt_ultimate_17_00320,"Kernsanierte 3,5-Zimmer-Maisonette in Berlin-Dahlem",Steglitzer Damm 283,14195,52.356747,13.610437,,1,1,0,0,0,3.5,98,4195.032714,142.11,33,https://www.immowelt.de/expose/berlin-dahlem-320,,Dahme-Spreewald
immowelt_ultimate_17_00321,Großzügige 3-Zimmer-Zwischenetage in Berlin-Frohnau,Savignyplatz 22,13465,52.432323,13.606398,,0,0,0,0,0,3.0,85,1078.212951,255.01,29,https://www.immowelt.de/expose/berlin-frohnau-321,Salvador-Allende-Viertel II,Köpenick
immowelt_ultimate_17_00322,Sonnige 7-Zimmer-Dachgeschoss in Berlin-Kreuzberg,Neukölln 87,10961,52.695426,13.748587,,1,1,0,1,0,7.0,170,8017.859974,129.56,26,https://www.immowelt.de/expose/berlin-kreuzberg-322,,Barnim
immowelt_ultimate_17_00323,"Schöne 6,5-Zimmer-Loft in Berlin-Dahlem",Brunnenstraße 218,14195,52.68289,13.135022,,1,1,1,1,1,6.5,136,4603.40921,128.17,29,https://www.immowelt.de/expose/berlin-dahlem-323,Marwitz,Marwitz
immowelt_ultimate_17_00324,"Repräsentative 5,5-Zimmer-Wohnung mit Terrasse in Berlin-Spandau",Bergmannstraße 154,13585,52.653618,13.793876,City Living Berlin,0,1,0,0,0,5.5,123,2513.047499,280.35,13,https://www.immowelt.de/expose/berlin-spandau-324,,Barnim
immowelt_ultimate_17_00325,Zentrale 4-Zimmer-Loft in Berlin-Wedding,Torstraße 109,13355,52.31945,13.787181,Hauptstadt Immobilien,1,1,0,1,0,4.0,96,2316.109684,309.33,29,https://www.immowelt.de/expose/berlin-wedding-325,Hartmannsdorf,Hartmannsdorf
immowelt_ultimate_17_00326,Gepflegte 2-Zimmer-Wohnung mit Garten in Berlin-Prenzlauer Berg,Rheinstraße 251,10435,52.658775,13.647141,Charlottenburg Estates,1,1,0,1,0,2.0,67,3326.192988,307.39,19,https://www.immowelt.de/expose/berlin-prenzlauer-berg-326,Börnicke,Börnicke
immowelt_ultimate_17_00327,"Großzügige 3,5-Zimmer-Dachterrassenwohnung in Berlin-Reinickendorf",Friedrichstraße 235,13439,52.548287,13.12492,,1,0,0,0,1,3.5,110,2036.86165,345.31,9,https://www.immowelt.de/expose/berlin-reinickendorf-327,,Havelland
immowelt_ultimate_17_00328,"Bezugsfreie 4,5-Zimmer-Penthouse in Berlin-Wedding",Sonnenallee 176,13351,52.315771,13.628499,,1,1,1,0,1,4.5,96,2846.599239,306.59,27,https://www.immowelt.de/expose/berlin-wedding-328,,Dahme-Spreewald
immowelt_ultimate_17_00329,Hochwertige 6-Zimmer-Maisonette in Berlin-Pankow,Spandauer Damm 70,13187,52.621813,13.405269,,0,1,0,0,1,6.0,184,5508.71983,331.47,25,https://www.immowelt.de/expose/berlin-pankow-329,Blankenfelde,Blankenfelde
immowelt_ultimate_17_00330,"Geräumige 2,5-Zimmer-Penthouse in Berlin-Mitte",Prenzlauer Allee 75,10117,52.48386,13.316907,Metropolitan Properties,0,1,0,1,1,2.5,76,2452.851825,,23,https://www.immowelt.de/expose/berlin-mitte-330,Wilmersdorf,Wilmersdorf
immowelt_ultimate_17_00331,Kernsanierte 3-Zimmer-Galeriewohnung in Berlin-Reinickendorf,Kurfürstendamm 98,13403,52.348447,13.728271,Tempelhof Immobilien,0,1,1,0,0,3.0,79,1426.743934,135.7,16,https://www.immowelt.de/expose/berlin-reinickendorf-331,Wernsdorf,Wernsdorf
immowelt_ultimate_17_00332,"Charmante 6,5-Zimmer-Galeriewohnung in Berlin-Grunewald",Clayallee 100,14193,52.415328,13.431291,Wedding Wohnen,0,0,1,0,1,6.5,188,2801.371898,204.87,34,https://www.immowelt.de/expose/berlin-grunewald-332,Buckow,Buckow
immowelt_ultimate_17_00333,"Kernsanierte 3,5-Zimmer-Wohnung mit Balkon in Berlin-Grunewald",Schloßstraße 179,14193,52.625981,13.366334,Friedrichshain Properties,1,1,0,0,1,3.5,88,2072.010158,216.73,20,https://www.immowelt.de/expose/berlin-grunewald-333,,Oberhavel
immowelt_ultimate_17_00334,Exklusive 6-Zimmer-Loft in Berlin-Moabit,Torstraße 259,10553,52.432464,13.16195,,1,1,0,0,0,6.0,148,1578.794653,221.68,11,https://www.immowelt.de/expose/berlin-moabit-334,Wannsee,Wannsee
immowelt_ultimate_17_00335,Großzügige 3-Zimmer-Wohnung in Berlin-Frohnau,Gneisenaustraße 261,13465,52.577232,13.773246,Friedrichshain Properties,1,1,0,1,0,3.0,62,1523.006203,,27,https://www.immowelt.de/expose/berlin-frohnau-335,,Märkisch-Oderland
immowelt_ultimate_17_00336,Freundliche 2-Zimmer-Wohnung mit Terrasse in Berlin-Grunewald,Oranienstraße 272,14193,52.426024,13.718621,Premium Wohnen Berlin,1,0,0,1,0,2.0,60,958.4342991,,18,https://www.immowelt.de/expose/berlin-grunewald-336,Rahnsdorf,Rahnsdorf
immowelt_ultimate_17_00337,"Top-moderne 6,5-Zimmer-Wohnung mit Terrasse in Berlin-Moabit",Potsdamer Platz 29,10557,52.564881,13.661157,City Living Berlin,1,1,0,0,0,6.5,164,4851.268177,173.88,6,https://www.immowelt.de/expose/berlin-moabit-337,Mehrow,Mehrow
immowelt_ultimate_17_00338,"Traumhafte 5,5-Zimmer-Neubau in Berlin-Kreuzberg",Brunnenstraße 194,10963,52.445115,13.422622,,1,1,1,0,1,5.5,140,6716.215727,203.83,25,https://www.immowelt.de/expose/berlin-kreuzberg-338,Britz,Britz
immowelt_ultimate_17_00339,Freundliche 6-Zimmer-Turmwohnung in Berlin-Charlottenburg,Rheinstraße 211,10587,52.535494,13.150538,City Living Berlin,1,1,0,1,0,6.0,122,6440.899855,,34,https://www.immowelt.de/expose/berlin-charlottenburg-339,Staaken,Spandau
immowelt_ultimate_17_00340,Sonnige 5-Zimmer-Maisonette in Berlin-Lichtenberg,Unter den Linden 41,10319,52.41704,13.220629,City Living Berlin,1,0,0,0,0,5.0,134,2959.344864,,10,https://www.immowelt.de/expose/berlin-lichtenberg-340,Bürgerhaussiedlung,Bürgerhaussiedlung
immowelt_ultimate_17_00341,Traumhafte 3-Zimmer-Altbau in Berlin-Charlottenburg,Heerstraße 258,10623,52.357267,13.52327,,1,1,0,0,0,3.0,79,1972.526647,376.37,28,https://www.immowelt.de/expose/berlin-charlottenburg-341,Schönefeld,Schönefeld
immowelt_ultimate_17_00342,Komplett renovierte 1-Zimmer-Wohnung in Berlin-Wilmersdorf,Schönhauser Allee 235,10713,52.375155,13.284143,,1,1,1,0,1,1.0,29,1543.010388,,6,https://www.immowelt.de/expose/berlin-wilmersdorf-342,Ruhlsdorf,Ruhlsdorf
immowelt_ultimate_17_00343,Zentrale 1-Zimmer-Wohnung mit Terrasse in Berlin-Dahlem,Neukölln 168,14195,52.468337,13.133011,,1,1,0,1,0,1.0,29,702.2488931,382.61,16,https://www.immowelt.de/expose/berlin-dahlem-343,Landstadt Gatow,Spandau
immowelt_ultimate_17_00344,"Renovierte 3,5-Zimmer-Apartment in Berlin-Wedding",Spandauer Damm 235,13357,52.604599,13.297846,,0,1,0,0,0,3.5,84,711.0192208,,10,https://www.immowelt.de/expose/berlin-wedding-344,Tegel,Tegel
immowelt_ultimate_17_00345,"Sonnige 1,5-Zimmer-Neubau in Berlin-Steglitz",Residenzstraße 106,12169,52.388919,13.13083,Neukölln Properties,1,0,0,0,0,1.5,40,1255.361547,102.18,27,https://www.immowelt.de/expose/berlin-steglitz-345,Steinstücken,Wannsee
immowelt_ultimate_18_00346,Charmante 2-Zimmer-Zwischenetage in Berlin-Prenzlauer Berg,Helmholtzplatz 299,10409,52.698898,13.716285,,1,1,1,1,0,2.0,53,1320.023527,,8,https://www.immowelt.de/expose/berlin-prenzlauer-berg-346,Sydower Fließ,Sydower Fließ
immowelt_ultimate_18_00347,Möblierte 5-Zimmer-Erdgeschoss in Berlin-Prenzlauer Berg,Wilmersdorfer Straße 168,10439,52.537358,13.732653,Steglitz Properties,0,1,1,0,1,5.0,138,3260.943194,67.66,11,https://www.immowelt.de/expose/berlin-prenzlauer-berg-347,Fredersdorf-Nord,Fredersdorf-Nord
immowelt_ultimate_18_00348,"Traumhafte 5,5-Zimmer-Dachterrassenwohnung in Berlin-Prenzlauer Berg",Kollwitzplatz 85,10435,52.648384,13.554241,Hauptstadt Immobilien,1,0,0,0,0,5.5,200,10486.74105,187.02,29,https://www.immowelt.de/expose/berlin-prenzlauer-berg-348,Zepernick,Zepernick
immowelt_ultimate_18_00349,Gepflegte 6-Zimmer-Souterrainwohnung in Berlin-Prenzlauer Berg,Wilmersdorfer Straße 259,10439,52.634739,13.158263,Steglitz Properties,0,0,0,0,0,6.0,191,6127.17973,,15,https://www.immowelt.de/expose/berlin-prenzlauer-berg-349,Bötzow Ausbau,Bötzow
immowelt_ultimate_18_00350,Zentrale 6-Zimmer-Maisonette in Berlin-Prenzlauer Berg,Invalidenstraße 98,10437,52.557734,13.652338,Neukölln Properties,1,0,1,1,1,6.0,139,2846.052182,376.13,22,https://www.immowelt.de/expose/berlin-prenzlauer-berg-350,,Märkisch-Oderland
immowelt_ultimate_18_00351,Erstbezug 3-Zimmer-Erdgeschoss in Berlin-Prenzlauer Berg,Thielallee 122,10405,52.562869,13.52374,Müller & Partner Immobilien,1,1,0,0,1,3.0,95,1737.142257,229.41,27,https://www.immowelt.de/expose/berlin-prenzlauer-berg-351,Neu-Hohenschönhausen,Neu-Hohenschönhausen
immowelt_ultimate_18_00352,Sonnige 7-Zimmer-Etagenwohnung in Berlin-Prenzlauer Berg,Helmholtzplatz 171,10437,52.500801,13.697626,,0,0,1,0,1,7.0,148,5718.198914,151.49,33,https://www.immowelt.de/expose/berlin-prenzlauer-berg-352,,Oder-Spree
immowelt_ultimate_18_00353,"Renovierte 4,5-Zimmer-Gartenwohnung in Berlin-Prenzlauer Berg",Steglitzer Damm 41,10407,52.405851,13.362777,Berlin Living GmbH,0,1,0,0,0,4.5,135,5068.973988,88.8,17,https://www.immowelt.de/expose/berlin-prenzlauer-berg-353,Marienfelde,Marienfelde
immowelt_ultimate_18_00354,"Möblierte 5,5-Zimmer-Hochparterre in Berlin-Prenzlauer Berg",Rheinstraße 276,10437,52.387709,13.483799,,0,1,0,1,0,5.5,177,8116.466415,197.05,12,https://www.immowelt.de/expose/berlin-prenzlauer-berg-354,,Dahme-Spreewald
immowelt_ultimate_18_00355,"Komplett renovierte 4,5-Zimmer-Wohnung mit Balkon in Berlin-Prenzlauer Berg",Kurfürstendamm 62,10407,52.401789,13.354895,,1,1,0,1,1,4.5,123,2004.965097,243.8,35,https://www.immowelt.de/expose/berlin-prenzlauer-berg-355,Stadtrandsiedlung Marienfelde II,Marienfelde
immowelt_ultimate_18_00356,"Renovierte 3,5-Zimmer-Wohnung in Berlin-Prenzlauer Berg",Mehringdamm 180,10409,52.539854,13.657054,,0,1,0,0,1,3.5,78,2646.736203,352.13,33,https://www.immowelt.de/expose/berlin-prenzlauer-berg-356,,Märkisch-Oderland
immowelt_ultimate_18_00357,"Renovierte 4,5-Zimmer-Wohnung mit Garten in Berlin-Prenzlauer Berg",Schönhauser Allee 9,10439,52.687387,13.634475,City Living Berlin,1,1,0,1,1,4.5,110,2463.986649,,10,https://www.immowelt.de/expose/berlin-prenzlauer-berg-357,,Barnim
immowelt_ultimate_18_00358,Sonnige 3-Zimmer-Altbau in Berlin-Prenzlauer Berg,Steglitzer Damm 163,10409,52.486642,13.718742,,0,1,0,0,0,3.0,55,1500.218272,,18,https://www.immowelt.de/expose/berlin-prenzlauer-berg-358,,Oder-Spree
immowelt_ultimate_18_00359,"Zentrale 4,5-Zimmer-Wohnung mit Garten in Berlin-Prenzlauer Berg",Rosenthaler Straße 172,10405,52.365671,13.646679,Berlin Living GmbH,0,1,0,0,0,4.5,129,7394.503277,224.76,13,https://www.immowelt.de/expose/berlin-prenzlauer-berg-359,,Dahme-Spreewald
immowelt_ultimate_18_00360,Lichtdurchflutete 5-Zimmer-Penthouse in Berlin-Prenzlauer Berg,Schloßstraße 217,10439,52.543845,13.387775,,1,1,0,0,1,5.0,131,7343.897181,191.99,15,https://www.immowelt.de/expose/berlin-prenzlauer-berg-360,Brunnenviertel,Gesundbrunnen
immowelt_ultimate_18_00361,"Designer 4,5-Zimmer-Apartment in Berlin-Prenzlauer Berg",Kollwitzplatz 91,10435,52.408739,13.254491,,1,1,0,0,0,4.5,131,1912.81547,317.4,15,https://www.immowelt.de/expose/berlin-prenzlauer-berg-361,Zehlendorf,Zehlendorf
immowelt_ultimate_18_00362,Kernsanierte 6-Zimmer-Gartenwohnung in Berlin-Prenzlauer Berg,Savignyplatz 242,10405,52.309489,13.62225,Neukölln Properties,1,1,0,0,0,6.0,144,5807.44252,341.59,13,https://www.immowelt.de/expose/berlin-prenzlauer-berg-362,,Dahme-Spreewald
immowelt_ultimate_18_00363,"Designer 6,5-Zimmer-Etagenwohnung in Berlin-Prenzlauer Berg",Königin-Luise-Straße 294,10405,52.466236,13.198092,Hausverwaltung Berlin,1,1,0,0,1,6.5,145,3551.628861,,12,https://www.immowelt.de/expose/berlin-prenzlauer-berg-363,Nikolassee,Nikolassee
immowelt_ultimate_18_00364,Geräumige 7-Zimmer-Studio in Berlin-Prenzlauer Berg,Neukölln 163,10409,52.388757,13.169351,Neukölln Properties,1,1,0,0,0,7.0,200,8861.636567,109.75,14,https://www.immowelt.de/expose/berlin-prenzlauer-berg-364,Stahnsdorf,Stahnsdorf
immowelt_ultimate_18_00365,"Teilmöblierte 3,5-Zimmer-Penthouse in Berlin-Prenzlauer Berg",Residenzstraße 270,10407,52.359041,13.680909,Hauptstadt Immobilien,1,1,0,0,1,3.5,84,1824.671449,188.53,28,https://www.immowelt.de/expose/berlin-prenzlauer-berg-365,Wernsdorf,Wernsdorf
immowelt_ultimate_18_00366,"Möblierte 1,5-Zimmer-Wohnung mit Balkon in Berlin-Prenzlauer Berg",Hermannstraße 128,10407,52.515385,13.588572,Prenzlauer Berg Living,1,1,0,0,1,1.5,64,3672.943138,248.37,9,https://www.immowelt.de/expose/berlin-prenzlauer-berg-366,Kaulsdorf,Kaulsdorf
immowelt_ultimate_18_00367,"Gemütliche 3,5-Zimmer-Dachterrassenwohnung in Berlin-Prenzlauer Berg",Leipziger Straße 73,10407,52.530713,13.566827,Wedding Wohnen,1,1,0,0,0,3.5,101,5448.357306,134.12,8,https://www.immowelt.de/expose/berlin-prenzlauer-berg-367,Biesdorf,Biesdorf
immowelt_ultimate_18_00368,"Repräsentative 4,5-Zimmer-Erdgeschoss in Berlin-Prenzlauer Berg",Kastanienallee 262,10409,52.376523,13.248596,,1,1,0,0,1,4.5,107,3779.053022,173.0,19,https://www.immowelt.de/expose/berlin-prenzlauer-berg-368,Stahnsdorf,Stahnsdorf
immowelt_ultimate_18_00369,Erstbezug 3-Zimmer-Wohnung in Berlin-Prenzlauer Berg,Steglitzer Damm 67,10439,52.662796,13.645737,Müller & Partner Immobilien,0,0,0,0,1,3.0,81,3914.055737,329.16,24,https://www.immowelt.de/expose/berlin-prenzlauer-berg-369,Börnicke,Börnicke
immowelt_ultimate_18_00370,Repräsentative 4-Zimmer-Studio in Berlin-Prenzlauer Berg,Oranienstraße 159,10437,52.31413,13.251796,,1,1,0,0,0,4.0,122,4397.510724,349.1,10,https://www.immowelt.de/expose/berlin-prenzlauer-berg-370,Industriepark-West,Industriepark-West
immowelt_ultimate_19_00371,Möblierte 4-Zimmer-Galeriewohnung in Berlin-Kreuzberg,Landsberger Allee 236,10997,52.652809,13.516418,Premium Wohnen Berlin,0,1,0,0,0,4.0,121,4383.649732,122.9,25,https://www.immowelt.de/expose/berlin-kreuzberg-371,Zepernick,Zepernick
immowelt_ultimate_19_00372,Großzügige 4-Zimmer-Dachgeschoss in Berlin-Kreuzberg,Kastanienallee 70,10965,52.687048,13.711443,Hauptstadt Immobilien,1,1,0,0,1,4.0,95,4277.859094,85.45,24,https://www.immowelt.de/expose/berlin-kreuzberg-372,,Barnim
immowelt_ultimate_19_00373,Attraktive 6-Zimmer-Erdgeschoss in Berlin-Kreuzberg,Heerstraße 34,10997,52.684321,13.649823,Metropolitan Properties,0,1,0,0,0,6.0,176,5680.550286,110.72,30,https://www.immowelt.de/expose/berlin-kreuzberg-373,Börnicke,Börnicke
immowelt_ultimate_19_00374,"Teilmöblierte 6,5-Zimmer-Erdgeschoss in Berlin-Kreuzberg",Hackescher Markt 120,10965,52.407263,13.279974,Mitte Immobilien,1,1,0,1,0,6.5,126,2133.004678,155.48,28,https://www.immowelt.de/expose/berlin-kreuzberg-374,Lichterfelde West,Lichterfelde
immowelt_ultimate_19_00375,Luxuriöse 5-Zimmer-Wohnung mit Terrasse in Berlin-Kreuzberg,Sonnenallee 130,10967,52.316298,13.759019,Berliner Immobilien Service,1,0,0,0,1,5.0,138,6135.04067,,10,https://www.immowelt.de/expose/berlin-kreuzberg-375,Hartmannsdorf,Hartmannsdorf
immowelt_ultimate_19_00376,Helle 4-Zimmer-Zwischenetage in Berlin-Kreuzberg,Warschauer Straße 188,10997,52.436369,13.461829,,1,1,0,1,0,4.0,82,2893.62508,209.97,11,https://www.immowelt.de/expose/berlin-kreuzberg-376,Buckow,Buckow
immowelt_ultimate_19_00377,"Charmante 6,5-Zimmer-Dachgeschoss in Berlin-Kreuzberg",Danziger Straße 93,10963,52.413423,13.189594,Charlottenburg Estates,1,1,0,1,1,6.5,156,3768.56611,356.01,33,https://www.immowelt.de/expose/berlin-kreuzberg-377,Nikolassee,Nikolassee
immowelt_ultimate_19_00378,Möblierte 6-Zimmer-Apartment in Berlin-Kreuzberg,Schloßstraße 143,10967,52.350945,13.474631,Wedding Wohnen,1,1,0,0,0,6.0,138,6044.208869,245.45,21,https://www.immowelt.de/expose/berlin-kreuzberg-378,,Dahme-Spreewald
immowelt_ultimate_19_00379,Charmante 5-Zimmer-Altbau in Berlin-Kreuzberg,Badstraße 38,10967,52.425771,13.389963,Schmidt Immobilien,1,0,1,0,1,5.0,96,5791.304274,94.96,27,https://www.immowelt.de/expose/berlin-kreuzberg-379,Mariendorf,Mariendorf
immowelt_ultimate_19_00380,Sonnige 2-Zimmer-Wohnung in Berlin-Kreuzberg,Spandauer Damm 131,10961,52.563669,13.313671,,1,1,0,0,1,2.0,47,1981.11566,,17,https://www.immowelt.de/expose/berlin-kreuzberg-380,Reinickendorf,Reinickendorf
immowelt_ultimate_19_00381,"Möblierte 5,5-Zimmer-Loft in Berlin-Kreuzberg",Schloßstraße 131,10963,52.542312,13.337421,Tempelhof Immobilien,1,1,0,0,1,5.5,152,3330.876775,127.56,34,https://www.immowelt.de/expose/berlin-kreuzberg-381,Wedding,Wedding
immowelt_ultimate_19_00382,"Sonnige 6,5-Zimmer-Loft in Berlin-Kreuzberg",Landsberger Allee 98,10961,52.638228,13.300229,Hauptstadt Immobilien,1,0,0,0,0,6.5,180,7550.585094,132.18,29,https://www.immowelt.de/expose/berlin-kreuzberg-382,Frohnau,Frohnau
immowelt_ultimate_19_00383,Bezugsfreie 5-Zimmer-Loft in Berlin-Kreuzberg,Gneisenaustraße 199,10999,52.322678,13.629618,Metropolitan Properties,1,1,0,0,0,5.0,117,3386.625423,,13,https://www.immowelt.de/expose/berlin-kreuzberg-383,,Dahme-Spreewald
immowelt_ultimate_19_00384,Luxuriöse 4-Zimmer-Loft in Berlin-Kreuzberg,Frankfurter Allee 192,10961,52.503716,13.576304,,1,1,0,1,1,4.0,75,2314.264339,358.38,33,https://www.immowelt.de/expose/berlin-kreuzberg-384,Biesdorf,Biesdorf
immowelt_ultimate_19_00385,"Sanierte 3,5-Zimmer-Dachgeschoss in Berlin-Kreuzberg",Prenzlauer Allee 76,10999,52.630781,13.411653,,0,1,0,0,0,3.5,78,3112.294737,325.61,12,https://www.immowelt.de/expose/berlin-kreuzberg-385,Blankenfelde,Blankenfelde
immowelt_ultimate_19_00386,"Traumhafte 6,5-Zimmer-Dachgeschoss in Berlin-Kreuzberg",Königin-Luise-Straße 283,10961,52.445678,13.249582,,1,1,0,0,0,6.5,161,7288.473836,395.06,22,https://www.immowelt.de/expose/berlin-kreuzberg-386,Zehlendorf,Zehlendorf
immowelt_ultimate_19_00387,"Sanierte 1,5-Zimmer-Galeriewohnung in Berlin-Kreuzberg",Winterfeldtplatz 289,10999,52.463869,13.312685,,0,1,0,0,1,1.5,66,2052.095925,282.83,28,https://www.immowelt.de/expose/berlin-kreuzberg-387,Steglitz,Steglitz
immowelt_ultimate_19_00388,Gepflegte 5-Zimmer-Wohnung mit Garten in Berlin-Kreuzberg,Prenzlauer Allee 112,10969,52.506737,13.535517,,1,1,1,0,1,5.0,95,3440.635248,,25,https://www.immowelt.de/expose/berlin-kreuzberg-388,Gensinger Viertel,Friedrichsfelde
immowelt_ultimate_19_00389,Ruhige 1-Zimmer-Wohnung in Berlin-Kreuzberg,Oranienstraße 142,10997,52.416878,13.46685,Hausverwaltung Berlin,1,1,0,0,0,1.0,34,1096.039964,358.17,17,https://www.immowelt.de/expose/berlin-kreuzberg-389,,Dahme-Spreewald
immowelt_ultimate_19_00390,Stilvolle 2-Zimmer-Galeriewohnung in Berlin-Kreuzberg,Residenzstraße 272,10997,52.349821,13.730084,Neukölln Properties,0,0,0,0,0,2.0,61,1376.436939,329.87,33,https://www.immowelt.de/expose/berlin-kreuzberg-390,Wernsdorf,Wernsdorf
immowelt_ultimate_20_00391,Großzügige 5-Zimmer-Loft in Berlin-Steglitz,Potsdamer Platz 271,12167,52.663659,13.171758,Berliner Immobilien Service,1,1,0,0,1,5.0,122,2989.562771,223.26,28,https://www.immowelt.de/expose/berlin-steglitz-391,Marwitz,Marwitz
immowelt_ultimate_20_00392,"Renovierte 2,5-Zimmer-Wohnung in Berlin-Pankow",Wilmersdorfer Straße 71,13129,52.38838,13.420742,Friedrichshain Properties,0,0,0,1,1,2.5,71,832.9984021,294.36,25,https://www.immowelt.de/expose/berlin-pankow-392,Lichtenrade,Lichtenrade
immowelt_ultimate_20_00393,"Top-moderne 3,5-Zimmer-Studio in Berlin-Mitte",Badstraße 23,10179,52.673439,13.473492,,0,0,0,1,0,3.5,119,6190.009575,,8,https://www.immowelt.de/expose/berlin-mitte-393,,Barnim
immowelt_ultimate_20_00394,Ruhige 6-Zimmer-Turmwohnung in Berlin-Schöneberg,Hackescher Markt 226,10781,52.678781,13.754081,,1,1,0,0,1,6.0,179,5902.309117,192.69,13,https://www.immowelt.de/expose/berlin-schöneberg-394,,Barnim
immowelt_ultimate_20_00395,Zentrale 2-Zimmer-Erdgeschoss in Berlin-Steglitz,Karl-Marx-Straße 82,12169,52.514132,13.239552,,0,0,0,0,0,2.0,55,1285.007712,309.24,8,https://www.immowelt.de/expose/berlin-steglitz-395,Westend,Westend
immowelt_ultimate_20_00396,"Repräsentative 6,5-Zimmer-Zwischenetage in Berlin-Prenzlauer Berg",Wilmersdorfer Straße 185,10435,52.372763,13.237836,,1,1,0,0,1,6.5,198,6497.400655,380.65,12,https://www.immowelt.de/expose/berlin-prenzlauer-berg-396,Stahnsdorf,Stahnsdorf
immowelt_ultimate_20_00397,"Ruhige 2,5-Zimmer-Wohnung mit Terrasse in Berlin-Steglitz",Kurfürstendamm 74,12167,52.683935,13.732059,,0,1,0,0,0,2.5,75,1431.718271,155.43,7,https://www.immowelt.de/expose/berlin-steglitz-397,,Barnim
immowelt_ultimate_20_00398,Geräumige 7-Zimmer-Loft in Berlin-Charlottenburg,Hermannstraße 55,10585,52.51927,13.389143,Hausverwaltung Berlin,0,1,0,0,0,7.0,164,6115.681983,349.4,31,https://www.immowelt.de/expose/berlin-charlottenburg-398,Dorotheenstadt,Mitte
immowelt_ultimate_20_00399,"Kernsanierte 5,5-Zimmer-Galeriewohnung in Berlin-Lichtenberg",Gneisenaustraße 35,10318,52.545493,13.213778,,1,0,0,1,0,5.5,123,1394.588617,200.87,8,https://www.immowelt.de/expose/berlin-lichtenberg-399,Hakenfelde,Spandau
immowelt_ultimate_20_00400,Schöne 2-Zimmer-Souterrainwohnung in Berlin-Dahlem,Thielallee 239,14195,52.541367,13.249476,,0,1,0,0,1,2.0,60,1354.531831,37.2,35,https://www.immowelt.de/expose/berlin-dahlem-400,Siemensstadt,Spandau
immowelt_ultimate_20_00401,Attraktive 1-Zimmer-Dachgeschoss in Berlin-Pankow,Hackescher Markt 26,13156,52.698873,13.110439,Prenzlauer Berg Living,1,0,0,0,1,1.0,24,717.74012,252.2,29,https://www.immowelt.de/expose/berlin-pankow-401,,Oberhavel
immowelt_ultimate_20_00402,Gemütliche 7-Zimmer-Maisonette in Berlin-Lichtenberg,Residenzstraße 204,10319,52.641104,13.254629,,1,1,0,0,0,7.0,168,2201.54257,272.06,19,https://www.immowelt.de/expose/berlin-lichtenberg-402,,Oberhavel
immowelt_ultimate_20_00403,Sanierte 4-Zimmer-Erdgeschoss in Berlin-Pankow,Helmholtzplatz 138,13156,52.598861,13.632215,Premium Wohnen Berlin,1,1,0,1,0,4.0,76,1872.658885,274.34,8,https://www.immowelt.de/expose/berlin-pankow-403,,Barnim
immowelt_ultimate_20_00404,"Attraktive 1,5-Zimmer-Dachgeschoss in Berlin-Mitte",Bergmannstraße 284,10115,52.49616,13.342635,Spree Properties,0,1,0,0,0,1.5,45,2958.189135,155.13,31,https://www.immowelt.de/expose/berlin-mitte-404,Schöneberg,Schöneberg
