{"name": "Aida", "latitude": 52.5068638, "longitude": 13.3228585, "cuisine_type": "italian;pizza", "address": null, "contact_info": null, "source": "OpenStreetMap", "retrieved_at": "2025-08-13T09:12:09.854346+00:00"}
{"name": "Madame Ngo", "latitude": 52.5062119, "longitude": 13.3180811, "cuisine_type": "asian", "address": null, "contact_info": null, "source": "OpenStreetMap", "retrieved_at": "2025-08-13T09:12:09.854395+00:00"}
{"name": "Nam Thuân", "latitude": 52.5073199, "longitude": 13.3207804, "cuisine_type": "vietnamese", "address": null, "contact_info": null, "source": "OpenStreetMap", "retrieved_at": "2025-08-13T09:12:09.854401+00:00"}
{"name": "La Rose", "latitude": 52.5063184, "longitude": 13.2846256, "cuisine_type": "italian", "address": null, "contact_info": null, "source": "OpenStreetMap", "retrieved_at": "2025-08-13T09:12:09.854405+00:00"}
{"name": "Eiscafe Eisberg", "latitude": 52.5388551, "longitude": 13.3960965, "cuisine_type": null, "address": null, "contact_info": "+49 30 46456678", "source": "OpenStreetMap", "retrieved_at": "2025-08-13T09:12:09.854409+00:00"}
{"name": "Tibet Haus", "latitude": 52.4907103, "longitude": 13.3939814, "cuisine_type": "tibetan", "address": null, "contact_info": "+49 30 6948948", "source": "OpenStreetMap", "retrieved_at": "2025-08-13T09:12:09.854412+00:00"}
{"name": "Coffee Star", "latitude": 52.5476798, "longitude": 13.3563426, "cuisine_type": null, "address": null, "contact_info": null, "source": "OpenStreetMap", "retrieved_at": "2025-08-13T09:12:09.854416+00:00"}
{"name": "Paella", "latitude": 52.5068889, "longitude": 13.2839198, "cuisine_type": "mexican", "address": null, "contact_info": "+49 30 30207745", "source": "OpenStreetMap", "retrieved_at": "2025-08-13T09:12:09.854419+00:00"}
{"name": "Cancún", "latitude": 52.5103223, "longitude": 13.2829535, "cuisine_type": "mexican", "address": null, "contact_info": null, "source": "OpenStreetMap", "retrieved_at": "2025-08-13T09:12:09.854422+00:00"}
{"name": "Schatulle", "latitude": 52.5542713, "longitude": 13.3311277, "cuisine_type": "regional", "address": null, "contact_info": "+49 30 4513071", "source": "OpenStreetMap", "retrieved_at": "2025-08-13T09:12:09.854426+00:00"}
{"name": "Haus der 100 Biere", "latitude": 52.4983826, "longitude": 13.2969979, "cuisine_type": "german", "address": null, "contact_info": null, "source": "OpenStreetMap", "retrieved_at": "2025-08-13T09:12:09.854428+00:00"}
{"name": "Ach!NikO!Ach!", "latitude": 52.4985867, "longitude": 13.2982491, "cuisine_type": "greek", "address": null, "contact_info": null, "source": "OpenStreetMap", "retrieved_at": "2025-08-13T09:12:09.854431+00:00"}
{"name": "Ristorante Salve", "latitude": 52.5009791, "longitude": 13.2976442, "cuisine_type": "pizza", "address": null, "contact_info": "+49 30 31809777", "source": "OpenStreetMap", "retrieved_at": "2025-08-13T09:12:09.854434+00:00"}
{"name": "Starbucks", "latitude": 52.5194029, "longitude": 13.3887381, "cuisine_type": "coffee_shop", "address": null, "contact_info": null, "source": "OpenStreetMap", "retrieved_at": "2025-08-13T09:12:09.854437+00:00"}
{"name": "Starbucks", "latitude": 52.5167295, "longitude": 13.3797732, "cuisine_type": "coffee_shop", "address": null, "contact_info": null, "source": "OpenStreetMap", "retrieved_at": "2025-08-13T09:12:09.854440+00:00"}
{"name": "Brammibal's Donuts", "latitude": 52.507931, "longitude": 13.3737316, "cuisine_type": "donut", "address": null, "contact_info": null, "source": "OpenStreetMap", "retrieved_at": "2025-08-13T09:12:09.854445+00:00"}
{"name": "Espresso House", "latitude": 52.5105871, "longitude": 13.3764297, "cuisine_type": "coffee_shop", "address": null, "contact_info": null, "source": "OpenStreetMap", "retrieved_at": "2025-08-13T09:12:09.854448+00:00"}
{"name": "Simran", "latitude": 52.6622275, "longitude": 13.2851314, "cuisine_type": "indian", "address": null, "contact_info": null, "source": "OpenStreetMap", "retrieved_at": "2025-08-13T09:12:09.854451+00:00"}
{"name": "Nikopolis", "latitude": 52.6625311, "longitude": 13.2851607, "cuisine_type": "greek", "address": null, "contact_info": null, "source": "OpenStreetMap", "retrieved_at": "2025-08-13T09:12:09.854454+00:00"}
{"name": "Märchenhaus", "latitude": 52.6621305, "longitude": 13.2857739, "cuisine_type": "german", "address": null, "contact_info": null, "source": "OpenStreetMap", "retrieved_at": "2025-08-13T09:12:09.854456+00:00"}
{"name": "Dalmacija", "latitude": 52.572519, "longitude": 13.3082697, "cuisine_type": "balkan", "address": null, "contact_info": null, "source": "OpenStreetMap", "retrieved_at": "2025-08-13T09:12:09.854459+00:00"}
{"name": "Schlemmerküche", "latitude": 52.5771153, "longitude": 13.3073153, "cuisine_type": "german", "address": null, "contact_info": null, "source": "OpenStreetMap", "retrieved_at": "2025-08-13T09:12:09.854462+00:00"}
{"name": "Taverna Athos", "latitude": 52.4800304, "longitude": 13.3277157, "cuisine_type": "greek", "address": null, "contact_info": null, "source": "OpenStreetMap", "retrieved_at": "2025-08-13T09:12:09.854464+00:00"}
{"name": "Albert's", "latitude": 52.56382, "longitude": 13.328849, "cuisine_type": null, "address": null, "contact_info": null, "source": "OpenStreetMap", "retrieved_at": "2025-08-13T09:12:09.854467+00:00"}
{"name": "Pizzaria Tamara", "latitude": 52.5701303, "longitude": 13.3098188, "cuisine_type": "italian;pizza", "address": null, "contact_info": null, "source": "OpenStreetMap", "retrieved_at": "2025-08-13T09:12:09.854470+00:00"}
{"name": "BLOCK HOUSE", "latitude": 52.5096736, "longitude": 13.2707607, "cuisine_type": "steak_house", "address": null, "contact_info": null, "source": "OpenStreetMap", "retrieved_at": "2025-08-13T09:12:09.854473+00:00"}
{"name": "Café & Reisebüro - Eishandwerk", "latitude": 52.5089075, "longitude": 13.2708507, "cuisine_type": null, "address": null, "contact_info": null, "source": "OpenStreetMap", "retrieved_at": "2025-08-13T09:12:09.854476+00:00"}
{"name": "JOE'S Restaurant & Wirtshaus", "latitude": 52.509874, "longitude": 13.2708833, "cuisine_type": "german", "address": null, "contact_info": null, "source": "OpenStreetMap", "retrieved_at": "2025-08-13T09:12:09.854480+00:00"}
{"name": "Lindenwirtin", "latitude": 52.5106205, "longitude": 13.2716607, "cuisine_type": "regional", "address": null, "contact_info": null, "source": "OpenStreetMap", "retrieved_at": "2025-08-13T09:12:09.854483+00:00"}
{"name": "Cancun", "latitude": 52.5044686, "longitude": 13.3827465, "cuisine_type": null, "address": null, "contact_info": null, "source": "OpenStreetMap", "retrieved_at": "2025-08-13T09:12:09.854486+00:00"}
{"name": "Espresso House", "latitude": 52.5082693, "longitude": 13.3770044, "cuisine_type": "coffee_shop", "address": null, "contact_info": null, "source": "OpenStreetMap", "retrieved_at": "2025-08-13T09:12:09.854489+00:00"}
{"name": "Bocca di Bacco", "latitude": 52.5151119, "longitude": 13.3889084, "cuisine_type": "italian", "address": null, "contact_info": "+49 30 20672828", "source": "OpenStreetMap", "retrieved_at": "2025-08-13T09:12:09.854491+00:00"}
{"name": "Restaurant Borchardt", "latitude": 52.5150034, "longitude": 13.3903882, "cuisine_type": null, "address": null, "contact_info": "+49 30 81886262", "source": "OpenStreetMap", "retrieved_at": "2025-08-13T09:12:09.854494+00:00"}
{"name": "Heritage", "latitude": 52.514689, "longitude": 13.3909281, "cuisine_type": null, "address": null, "contact_info": null, "source": "OpenStreetMap", "retrieved_at": "2025-08-13T09:12:09.854497+00:00"}
{"name": "Lutter & Wegner", "latitude": 52.5132123, "longitude": 13.3911782, "cuisine_type": "german", "address": null, "contact_info": null, "source": "OpenStreetMap", "retrieved_at": "2025-08-13T09:12:09.854500+00:00"}
{"name": "Victor & Victoria", "latitude": 52.5124049, "longitude": 13.3913074, "cuisine_type": null, "address": null, "contact_info": null, "source": "OpenStreetMap", "retrieved_at": "2025-08-13T09:12:09.854503+00:00"}
{"name": "Bellboy Berlin", "latitude": 52.512033, "longitude": 13.3919416, "cuisine_type": null, "address": null, "contact_info": null, "source": "OpenStreetMap", "retrieved_at": "2025-08-13T09:12:09.854506+00:00"}
{"name": "Fellini", "latitude": 52.5120539, "longitude": 13.3922763, "cuisine_type": null, "address": null, "contact_info": null, "source": "OpenStreetMap", "retrieved_at": "2025-08-13T09:12:09.854509+00:00"}
{"name": "Newton Bar", "latitude": 52.5129305, "longitude": 13.3912298, "cuisine_type": null, "address": null, "contact_info": null, "source": "OpenStreetMap", "retrieved_at": "2025-08-13T09:12:09.854511+00:00"}
{"name": "Espresso House", "latitude": 52.5307598, "longitude": 13.3831456, "cuisine_type": "coffee_shop", "address": null, "contact_info": "+49 30 24628826", "source": "OpenStreetMap", "retrieved_at": "2025-08-13T09:12:09.854514+00:00"}
{"name": "Starbucks", "latitude": 52.5110724, "longitude": 13.3900182, "cuisine_type": "coffee_shop", "address": null, "contact_info": "+49 30 206 086711", "source": "OpenStreetMap", "retrieved_at": "2025-08-13T09:12:09.854517+00:00"}
{"name": "Einstein Kaffee", "latitude": 52.5113571, "longitude": 13.3894708, "cuisine_type": "coffee_shop", "address": null, "contact_info": null, "source": "OpenStreetMap", "retrieved_at": "2025-08-13T09:12:09.854522+00:00"}
{"name": "Maximilians", "latitude": 52.5113441, "longitude": 13.3891811, "cuisine_type": "bavarian", "address": null, "contact_info": "+49 30 20450559", "source": "OpenStreetMap", "retrieved_at": "2025-08-13T09:12:09.854525+00:00"}
{"name": "Izumi Sushi Bar", "latitude": 52.511292, "longitude": 13.3887116, "cuisine_type": "japanese", "address": null, "contact_info": null, "source": "OpenStreetMap", "retrieved_at": "2025-08-13T09:12:09.854527+00:00"}
{"name": "Beast Berlin", "latitude": 52.52429, "longitude": 13.4118534, "cuisine_type": "steak_house", "address": null, "contact_info": "+49 30 25817696", "source": "OpenStreetMap", "retrieved_at": "2025-08-13T09:12:09.854530+00:00"}
{"name": "Aapka - Restaurant Alexanderplatz", "latitude": 52.5235991, "longitude": 13.4109696, "cuisine_type": "indian", "address": null, "contact_info": "+49 30 85077788", "source": "OpenStreetMap", "retrieved_at": "2025-08-13T09:12:09.854533+00:00"}
{"name": "Der Alte Fritz", "latitude": 52.5214304, "longitude": 13.4092065, "cuisine_type": "german", "address": null, "contact_info": null, "source": "OpenStreetMap", "retrieved_at": "2025-08-13T09:12:09.854536+00:00"}
{"name": "Carambar", "latitude": 52.5203514, "longitude": 13.4122196, "cuisine_type": null, "address": null, "contact_info": null, "source": "OpenStreetMap", "retrieved_at": "2025-08-13T09:12:09.854539+00:00"}
{"name": "Matzbach", "latitude": 52.5202106, "longitude": 13.4118079, "cuisine_type": null, "address": null, "contact_info": null, "source": "OpenStreetMap", "retrieved_at": "2025-08-13T09:12:09.854542+00:00"}
{"name": "Segafredo", "latitude": 52.5195321, "longitude": 13.4103508, "cuisine_type": "coffee_shop", "address": null, "contact_info": null, "source": "OpenStreetMap", "retrieved_at": "2025-08-13T09:12:09.854544+00:00"}
{"name": "Azem", "latitude": 52.5180123, "longitude": 13.4071626, "cuisine_type": "turkish", "address": null, "contact_info": null, "source": "OpenStreetMap", "retrieved_at": "2025-08-13T09:12:09.854547+00:00"}
{"name": "Mutter Hoppe", "latitude": 52.5175872, "longitude": 13.4058989, "cuisine_type": "german", "address": null, "contact_info": "+49 30 24720603", "source": "OpenStreetMap", "retrieved_at": "2025-08-13T09:12:09.854550+00:00"}
{"name": "Julchen Hoppe", "latitude": 52.5172681, "longitude": 13.4050245, "cuisine_type": "regional", "address": null, "contact_info": "+49-30-97005787", "source": "OpenStreetMap", "retrieved_at": "2025-08-13T09:12:09.854553+00:00"}
{"name": "Shezan", "latitude": 52.512146, "longitude": 13.4081288, "cuisine_type": "indian", "address": null, "contact_info": "+49 30 24600950", "source": "OpenStreetMap", "retrieved_at": "2025-08-13T09:12:09.854556+00:00"}
{"name": "Trattoria Monticchiello", "latitude": 52.5827216, "longitude": 13.2901148, "cuisine_type": "italian", "address": null, "contact_info": "+49 30 36427699", "source": "OpenStreetMap", "retrieved_at": "2025-08-13T09:12:09.854559+00:00"}
{"name": "No Limit Shishabar", "latitude": 52.5655612, "longitude": 13.3209279, "cuisine_type": null, "address": null, "contact_info": null, "source": "OpenStreetMap", "retrieved_at": "2025-08-13T09:12:09.854561+00:00"}
{"name": "Caffè Kamee", "latitude": 52.4296874, "longitude": 13.530639, "cuisine_type": null, "address": null, "contact_info": null, "source": "OpenStreetMap", "retrieved_at": "2025-08-13T09:12:09.854564+00:00"}
{"name": "Oase Adlershof", "latitude": 52.4293751, "longitude": 13.5301027, "cuisine_type": null, "address": null, "contact_info": "+49 30 93939-7760", "source": "OpenStreetMap", "retrieved_at": "2025-08-13T09:12:09.854568+00:00"}
{"name": "Pula-Grill", "latitude": 52.5701846, "longitude": 13.3206599, "cuisine_type": "balkan", "address": null, "contact_info": null, "source": "OpenStreetMap", "retrieved_at": "2025-08-13T09:12:09.854571+00:00"}
{"name": "Paris-Moskau", "latitude": 52.5225899, "longitude": 13.3644784, "cuisine_type": "regional", "address": null, "contact_info": "+49 30 3942081", "source": "OpenStreetMap", "retrieved_at": "2025-08-13T09:12:09.854574+00:00"}
{"name": "en passant", "latitude": 52.5442253, "longitude": 13.4128822, "cuisine_type": null, "address": null, "contact_info": null, "source": "OpenStreetMap", "retrieved_at": "2025-08-13T09:12:09.854577+00:00"}
{"name": "Strandlust", "latitude": 52.3762307, "longitude": 13.657224, "cuisine_type": "fish", "address": null, "contact_info": null, "source": "OpenStreetMap", "retrieved_at": "2025-08-13T09:12:09.854580+00:00"}
{"name": "Can", "latitude": 52.5646418, "longitude": 13.327947, "cuisine_type": null, "address": null, "contact_info": null, "source": "OpenStreetMap", "retrieved_at": "2025-08-13T09:12:09.854582+00:00"}
{"name": "Chalet Suisse", "latitude": 52.461902, "longitude": 13.269189, "cuisine_type": "suisse", "address": null, "contact_info": null, "source": "OpenStreetMap", "retrieved_at": "2025-08-13T09:12:09.854585+00:00"}
{"name": "Jasper's", "latitude": 52.536584, "longitude": 13.40069, "cuisine_type": "austrian;german", "address": null, "contact_info": "+49 30 81798172", "source": "OpenStreetMap", "retrieved_at": "2025-08-13T09:12:09.854588+00:00"}
{"name": "Maestral", "latitude": 52.5893726, "longitude": 13.3257329, "cuisine_type": null, "address": null, "contact_info": null, "source": "OpenStreetMap", "retrieved_at": "2025-08-13T09:12:09.854591+00:00"}
{"name": "Bier-Stub'n", "latitude": 52.5723826, "longitude": 13.3594023, "cuisine_type": null, "address": null, "contact_info": null, "source": "OpenStreetMap", "retrieved_at": "2025-08-13T09:12:09.854594+00:00"}
{"name": "Irmak Grillhaus", "latitude": 52.5674603, "longitude": 13.3627545, "cuisine_type": null, "address": null, "contact_info": null, "source": "OpenStreetMap", "retrieved_at": "2025-08-13T09:12:09.854597+00:00"}
{"name": "Zur kleinen Remise", "latitude": 52.5189237, "longitude": 13.5553974, "cuisine_type": "german", "address": null, "contact_info": "+49 30 4721620", "source": "OpenStreetMap", "retrieved_at": "2025-08-13T09:12:09.854600+00:00"}
{"name": "Herkules I", "latitude": 52.5202629, "longitude": 13.5556526, "cuisine_type": "greek", "address": null, "contact_info": null, "source": "OpenStreetMap", "retrieved_at": "2025-08-13T09:12:09.854602+00:00"}
{"name": "Schollenkrug", "latitude": 52.6006677, "longitude": 13.3030043, "cuisine_type": "noodles;pasta;deli;german;barbecue;tapas;local", "address": null, "contact_info": null, "source": "OpenStreetMap", "retrieved_at": "2025-08-13T09:12:09.854605+00:00"}
{"name": "The Leaf", "latitude": 52.5640793, "longitude": 13.3644914, "cuisine_type": null, "address": null, "contact_info": null, "source": "OpenStreetMap", "retrieved_at": "2025-08-13T09:12:09.854608+00:00"}
{"name": "Z-Bar", "latitude": 52.5295259, "longitude": 13.3956385, "cuisine_type": null, "address": null, "contact_info": "+49 30 28389121", "source": "OpenStreetMap", "retrieved_at": "2025-08-13T09:12:09.854611+00:00"}
{"name": "I Due Forni", "latitude": 52.5308311, "longitude": 13.412464, "cuisine_type": "italian", "address": null, "contact_info": "+49 30 44017333", "source": "OpenStreetMap", "retrieved_at": "2025-08-13T09:12:09.854614+00:00"}
{"name": "Mad Meals", "latitude": 52.5406178, "longitude": 13.414039, "cuisine_type": "mexican", "address": null, "contact_info": null, "source": "OpenStreetMap", "retrieved_at": "2025-08-13T09:12:09.854616+00:00"}
{"name": "SowohlAlsAuch", "latitude": 52.5382237, "longitude": 13.4204986, "cuisine_type": "german;coffee_shop", "address": null, "contact_info": null, "source": "OpenStreetMap", "retrieved_at": "2025-08-13T09:12:09.854619+00:00"}
{"name": "Akemi", "latitude": 52.5376526, "longitude": 13.4212143, "cuisine_type": "asian", "address": null, "contact_info": null, "source": "OpenStreetMap", "retrieved_at": "2025-08-13T09:12:09.854622+00:00"}
{"name": "Coronita", "latitude": 52.5621555, "longitude": 13.093852, "cuisine_type": "mexican", "address": null, "contact_info": "+49 3322 1215701", "source": "OpenStreetMap", "retrieved_at": "2025-08-13T09:12:09.854625+00:00"}
{"name": "Anjoy", "latitude": 52.5361423, "longitude": 13.4205337, "cuisine_type": "vietnamese", "address": null, "contact_info": null, "source": "OpenStreetMap", "retrieved_at": "2025-08-13T09:12:09.854628+00:00"}
{"name": "Bella Venezia", "latitude": 52.5607348, "longitude": 13.0923708, "cuisine_type": "indian;pizza", "address": null, "contact_info": "+49 3322 215109", "source": "OpenStreetMap", "retrieved_at": "2025-08-13T09:12:09.854632+00:00"}
{"name": "Seepalast", "latitude": 52.4417119, "longitude": 13.6872536, "cuisine_type": "asian", "address": null, "contact_info": null, "source": "OpenStreetMap", "retrieved_at": "2025-08-13T09:12:09.854635+00:00"}
{"name": "DoubleEye", "latitude": 52.4879922, "longitude": 13.3540483, "cuisine_type": "coffee_shop", "address": null, "contact_info": "+49 179 4566960", "source": "OpenStreetMap", "retrieved_at": "2025-08-13T09:12:09.854638+00:00"}
{"name": "Yogi-Haus", "latitude": 52.486278, "longitude": 13.3506678, "cuisine_type": "indian", "address": null, "contact_info": null, "source": "OpenStreetMap", "retrieved_at": "2025-08-13T09:12:09.854641+00:00"}
{"name": "La Residencia", "latitude": 52.5031309, "longitude": 13.3271435, "cuisine_type": null, "address": null, "contact_info": null, "source": "OpenStreetMap", "retrieved_at": "2025-08-13T09:12:09.854644+00:00"}
{"name": "Bristol Grill", "latitude": 52.5033238, "longitude": 13.3272963, "cuisine_type": null, "address": null, "contact_info": null, "source": "OpenStreetMap", "retrieved_at": "2025-08-13T09:12:09.854647+00:00"}
{"name": "Le Faubourg", "latitude": 52.5026926, "longitude": 13.3318821, "cuisine_type": "french", "address": null, "contact_info": null, "source": "OpenStreetMap", "retrieved_at": "2025-08-13T09:12:09.854649+00:00"}
{"name": "Floh", "latitude": 52.4880029, "longitude": 13.2634284, "cuisine_type": "regional;german", "address": null, "contact_info": "+49 30 8929356", "source": "OpenStreetMap", "retrieved_at": "2025-08-13T09:12:09.854652+00:00"}
{"name": "Trattoria Gioachino", "latitude": 52.4878837, "longitude": 13.2628406, "cuisine_type": "italian", "address": null, "contact_info": null, "source": "OpenStreetMap", "retrieved_at": "2025-08-13T09:12:09.854656+00:00"}
{"name": "Fook Lam Mun", "latitude": 52.4206302, "longitude": 13.165528, "cuisine_type": null, "address": null, "contact_info": null, "source": "OpenStreetMap", "retrieved_at": "2025-08-13T09:12:09.854659+00:00"}
{"name": "Blockhaus Nikolskoe", "latitude": 52.4244424, "longitude": 13.1163106, "cuisine_type": "german", "address": null, "contact_info": "+49 30 805 2914", "source": "OpenStreetMap", "retrieved_at": "2025-08-13T09:12:09.854663+00:00"}
{"name": "Agua TexMex", "latitude": 52.5462582, "longitude": 13.2119152, "cuisine_type": "mexican", "address": null, "contact_info": "+49 030 54842743", "source": "OpenStreetMap", "retrieved_at": "2025-08-13T09:12:09.854666+00:00"}
{"name": "Restaurant Hasenheide", "latitude": 52.4877929, "longitude": 13.4196583, "cuisine_type": null, "address": null, "contact_info": null, "source": "OpenStreetMap", "retrieved_at": "2025-08-13T09:12:09.854669+00:00"}
{"name": "Eden", "latitude": 52.5219316, "longitude": 13.4047999, "cuisine_type": "asian", "address": null, "contact_info": "+49 30 84711058", "source": "OpenStreetMap", "retrieved_at": "2025-08-13T09:12:09.854671+00:00"}
{"name": "Unvernunft", "latitude": 52.5355167, "longitude": 13.2020525, "cuisine_type": "international", "address": null, "contact_info": null, "source": "OpenStreetMap", "retrieved_at": "2025-08-13T09:12:09.854674+00:00"}
{"name": "Taverna Teloneio", "latitude": 52.5399218, "longitude": 13.207419, "cuisine_type": "greek", "address": null, "contact_info": "+49 30 84526667", "source": "OpenStreetMap", "retrieved_at": "2025-08-13T09:12:09.854677+00:00"}
{"name": "Weisser Elefant", "latitude": 52.4895627, "longitude": 13.3191979, "cuisine_type": null, "address": null, "contact_info": null, "source": "OpenStreetMap", "retrieved_at": "2025-08-13T09:12:09.854680+00:00"}
{"name": "Garcon", "latitude": 52.4894921, "longitude": 13.3196727, "cuisine_type": "french", "address": null, "contact_info": null, "source": "OpenStreetMap", "retrieved_at": "2025-08-13T09:12:09.854683+00:00"}
{"name": "Frederick‘s", "latitude": 52.5098082, "longitude": 13.3743411, "cuisine_type": null, "address": null, "contact_info": null, "source": "OpenStreetMap", "retrieved_at": "2025-08-13T09:12:09.854686+00:00"}
{"name": "Lindenbräu", "latitude": 52.5102921, "longitude": 13.3726675, "cuisine_type": "german", "address": null, "contact_info": "+49 30 25751280", "source": "OpenStreetMap", "retrieved_at": "2025-08-13T09:12:09.854689+00:00"}
{"name": "Dittmanns Drogerie", "latitude": 52.4029635, "longitude": 13.5856652, "cuisine_type": "german", "address": null, "contact_info": null, "source": "OpenStreetMap", "retrieved_at": "2025-08-13T09:12:09.854692+00:00"}
{"name": "Schönbrunn", "latitude": 52.528035, "longitude": 13.4339677, "cuisine_type": null, "address": null, "contact_info": "+4930453056525", "source": "OpenStreetMap", "retrieved_at": "2025-08-13T09:12:09.854694+00:00"}
{"name": "Tropica Grillhaus", "latitude": 52.5152058, "longitude": 13.4687505, "cuisine_type": null, "address": null, "contact_info": null, "source": "OpenStreetMap", "retrieved_at": "2025-08-13T09:12:09.854697+00:00"}
{"name": "Ristorante a Mano", "latitude": 52.5193726, "longitude": 13.4275085, "cuisine_type": "italian", "address": null, "contact_info": null, "source": "OpenStreetMap", "retrieved_at": "2025-08-13T09:12:09.854700+00:00"}
{"name": "Hangmee", "latitude": 52.5129554, "longitude": 13.4576396, "cuisine_type": "asian", "address": null, "contact_info": null, "source": "OpenStreetMap", "retrieved_at": "2025-08-13T09:12:09.854703+00:00"}
{"name": "Gaststätte zur S-Bahn", "latitude": 52.5124404, "longitude": 13.5878692, "cuisine_type": "german", "address": null, "contact_info": null, "source": "OpenStreetMap", "retrieved_at": "2025-08-13T09:12:09.854705+00:00"}
{"name": "Gasthof zum Oberfeld", "latitude": 52.5157169, "longitude": 13.5935903, "cuisine_type": "regional", "address": null, "contact_info": "+49 30 5689460", "source": "OpenStreetMap", "retrieved_at": "2025-08-13T09:12:09.854708+00:00"}
{"name": "Pizza Pasta Gatow", "latitude": 52.5114588, "longitude": 13.1813993, "cuisine_type": "pizza", "address": null, "contact_info": null, "source": "OpenStreetMap", "retrieved_at": "2025-08-13T09:12:09.854711+00:00"}
{"name": "La Posta Trattoria", "latitude": 52.5093453, "longitude": 13.1811526, "cuisine_type": null, "address": null, "contact_info": "+49 30 70237645", "source": "OpenStreetMap", "retrieved_at": "2025-08-13T09:12:09.854714+00:00"}
{"name": "Die Henne - Alt-Berliner Wirtshaus", "latitude": 52.504153, "longitude": 13.4177503, "cuisine_type": "chicken", "address": null, "contact_info": null, "source": "OpenStreetMap", "retrieved_at": "2025-08-13T09:12:09.854717+00:00"}
{"name": "Immertreu", "latitude": 52.5363657, "longitude": 13.425073, "cuisine_type": null, "address": null, "contact_info": null, "source": "OpenStreetMap", "retrieved_at": "2025-08-13T09:12:09.854720+00:00"}
{"name": "Hoa Rong", "latitude": 52.5197141, "longitude": 13.3877509, "cuisine_type": "vietnamese", "address": null, "contact_info": null, "source": "OpenStreetMap", "retrieved_at": "2025-08-13T09:12:09.854723+00:00"}
{"name": "Machiavelli", "latitude": 52.4747998, "longitude": 13.2781793, "cuisine_type": "international", "address": null, "contact_info": null, "source": "OpenStreetMap", "retrieved_at": "2025-08-13T09:12:09.854725+00:00"}
{"name": "Andaz", "latitude": 52.5993861, "longitude": 13.3011493, "cuisine_type": "indian", "address": null, "contact_info": null, "source": "OpenStreetMap", "retrieved_at": "2025-08-13T09:12:09.854728+00:00"}
{"name": "Sida", "latitude": 52.4605144, "longitude": 13.3231312, "cuisine_type": "thai", "address": null, "contact_info": null, "source": "OpenStreetMap", "retrieved_at": "2025-08-13T09:12:09.854731+00:00"}
{"name": "Café Meta", "latitude": 52.545836, "longitude": 13.4061087, "cuisine_type": "german", "address": null, "contact_info": "+49 30 22150775", "source": "OpenStreetMap", "retrieved_at": "2025-08-13T09:12:09.854733+00:00"}
{"name": "Kuno 15", "latitude": 52.5038988, "longitude": 13.2909804, "cuisine_type": "coffee_shop;ice_cream", "address": null, "contact_info": null, "source": "OpenStreetMap", "retrieved_at": "2025-08-13T09:12:09.854736+00:00"}
{"name": "Eiffel", "latitude": 52.4979888, "longitude": 13.2944721, "cuisine_type": "french;mediterranean", "address": null, "contact_info": "+49308911305", "source": "OpenStreetMap", "retrieved_at": "2025-08-13T09:12:09.854739+00:00"}
{"name": "Xantener Eck", "latitude": 52.4988221, "longitude": 13.3076456, "cuisine_type": "german", "address": null, "contact_info": "+49308839014", "source": "OpenStreetMap", "retrieved_at": "2025-08-13T09:12:09.854742+00:00"}
{"name": "Casa di Maria", "latitude": 52.4968112, "longitude": 13.3244465, "cuisine_type": "italian", "address": null, "contact_info": null, "source": "OpenStreetMap", "retrieved_at": "2025-08-13T09:12:09.854745+00:00"}
{"name": "Tiger Karaoke", "latitude": 52.5414032, "longitude": 13.3684921, "cuisine_type": null, "address": null, "contact_info": null, "source": "OpenStreetMap", "retrieved_at": "2025-08-13T09:12:09.854747+00:00"}
{"name": "Shaan", "latitude": 52.4739548, "longitude": 13.4468535, "cuisine_type": "indian", "address": null, "contact_info": null, "source": "OpenStreetMap", "retrieved_at": "2025-08-13T09:12:09.854751+00:00"}
{"name": "Restaurant Louis", "latitude": 52.4743381, "longitude": 13.4452803, "cuisine_type": "austrian", "address": null, "contact_info": null, "source": "OpenStreetMap", "retrieved_at": "2025-08-13T09:12:09.854754+00:00"}
{"name": "Da Ponte", "latitude": 52.5220908, "longitude": 13.3488231, "cuisine_type": "pizza;italian", "address": null, "contact_info": "+49 30 98331150", "source": "OpenStreetMap", "retrieved_at": "2025-08-13T09:12:09.854757+00:00"}
{"name": "Trattoria Fidelia", "latitude": 52.5194762, "longitude": 13.3556992, "cuisine_type": "italian;pizza", "address": null, "contact_info": null, "source": "OpenStreetMap", "retrieved_at": "2025-08-13T09:12:09.854760+00:00"}
{"name": "Zollpackhof", "latitude": 52.5212821, "longitude": 13.3668503, "cuisine_type": "german", "address": null, "contact_info": "+49 30 33099720", "source": "OpenStreetMap", "retrieved_at": "2025-08-13T09:12:09.854763+00:00"}
{"name": "Schleusenkrug", "latitude": 52.5112754, "longitude": 13.335988, "cuisine_type": "german", "address": null, "contact_info": "+49303139909", "source": "OpenStreetMap", "retrieved_at": "2025-08-13T09:12:09.854766+00:00"}
{"name": "Bistro in der Akademie der Künste", "latitude": 52.5183945, "longitude": 13.3464153, "cuisine_type": null, "address": null, "contact_info": null, "source": "OpenStreetMap", "retrieved_at": "2025-08-13T09:12:09.854768+00:00"}
{"name": "Britzer Mühle", "latitude": 52.4322035, "longitude": 13.4346212, "cuisine_type": null, "address": null, "contact_info": "+49 30 6041819", "source": "OpenStreetMap", "retrieved_at": "2025-08-13T09:12:09.854773+00:00"}
{"name": "Schloss Britz", "latitude": 52.4468121, "longitude": 13.4377895, "cuisine_type": null, "address": null, "contact_info": "+49 30 6097 5039", "source": "OpenStreetMap", "retrieved_at": "2025-08-13T09:12:09.854776+00:00"}
{"name": "Rüya Gemüse Kebab", "latitude": 52.5137921, "longitude": 13.3170309, "cuisine_type": "kebab", "address": null, "contact_info": null, "source": "OpenStreetMap", "retrieved_at": "2025-08-13T09:12:09.854779+00:00"}
{"name": "Totto Land", "latitude": 52.4272121, "longitude": 13.2172579, "cuisine_type": "asian", "address": null, "contact_info": null, "source": "OpenStreetMap", "retrieved_at": "2025-08-13T09:12:09.854782+00:00"}
{"name": "Patatas", "latitude": 52.4262934, "longitude": 13.2092834, "cuisine_type": "mexican", "address": null, "contact_info": null, "source": "OpenStreetMap", "retrieved_at": "2025-08-13T09:12:09.854785+00:00"}
{"name": "Restaurant Angkor Wat", "latitude": 52.5201925, "longitude": 13.3558888, "cuisine_type": null, "address": null, "contact_info": "+49303933922", "source": "OpenStreetMap", "retrieved_at": "2025-08-13T09:12:09.854788+00:00"}
{"name": "mokka & juice house", "latitude": 52.4882026, "longitude": 13.3609478, "cuisine_type": null, "address": null, "contact_info": null, "source": "OpenStreetMap", "retrieved_at": "2025-08-13T09:12:09.854790+00:00"}
{"name": "Aspendos", "latitude": 52.4883451, "longitude": 13.3580098, "cuisine_type": "turkish", "address": null, "contact_info": "+49 30 7848570", "source": "OpenStreetMap", "retrieved_at": "2025-08-13T09:12:09.854793+00:00"}
{"name": "Wirtshaus Zur Pfaueninsel", "latitude": 52.4283069, "longitude": 13.1223345, "cuisine_type": null, "address": null, "contact_info": null, "source": "OpenStreetMap", "retrieved_at": "2025-08-13T09:12:09.854796+00:00"}
{"name": "Trattoria Piazza Siciliana", "latitude": 52.4303789, "longitude": 13.2306024, "cuisine_type": "italian", "address": null, "contact_info": null, "source": "OpenStreetMap", "retrieved_at": "2025-08-13T09:12:09.854799+00:00"}
{"name": "eßkultur", "latitude": 52.456348, "longitude": 13.2925424, "cuisine_type": null, "address": null, "contact_info": "+49 30 8301433", "source": "OpenStreetMap", "retrieved_at": "2025-08-13T09:12:09.854802+00:00"}
{"name": "Kante", "latitude": 52.5001321, "longitude": 13.4387908, "cuisine_type": null, "address": null, "contact_info": null, "source": "OpenStreetMap", "retrieved_at": "2025-08-13T09:12:09.854804+00:00"}
{"name": "Bizim Kiez", "latitude": 52.4980559, "longitude": 13.4435002, "cuisine_type": null, "address": null, "contact_info": null, "source": "OpenStreetMap", "retrieved_at": "2025-08-13T09:12:09.854807+00:00"}
{"name": "Restaurant Freischwimmer", "latitude": 52.4973483, "longitude": 13.4507972, "cuisine_type": null, "address": null, "contact_info": "+49 30 61074309", "source": "OpenStreetMap", "retrieved_at": "2025-08-13T09:12:09.854810+00:00"}
{"name": "cielo di berlino", "latitude": 52.4881781, "longitude": 13.370321, "cuisine_type": "italian", "address": null, "contact_info": null, "source": "OpenStreetMap", "retrieved_at": "2025-08-13T09:12:09.854813+00:00"}
{"name": "Café Nostalgie", "latitude": 52.4882652, "longitude": 13.361927, "cuisine_type": null, "address": null, "contact_info": null, "source": "OpenStreetMap", "retrieved_at": "2025-08-13T09:12:09.854816+00:00"}
{"name": "Espresso House", "latitude": 52.525912, "longitude": 13.3869997, "cuisine_type": "coffee_shop", "address": null, "contact_info": null, "source": "OpenStreetMap", "retrieved_at": "2025-08-13T09:12:09.854820+00:00"}
{"name": "Doree 65", "latitude": 52.5400018, "longitude": 13.3527311, "cuisine_type": "pizza;steak", "address": null, "contact_info": null, "source": "OpenStreetMap", "retrieved_at": "2025-08-13T09:12:09.854823+00:00"}
{"name": "Bardolino", "latitude": 52.4339798, "longitude": 13.3592072, "cuisine_type": "italian", "address": null, "contact_info": null, "source": "OpenStreetMap", "retrieved_at": "2025-08-13T09:12:09.854826+00:00"}
{"name": "Restaurant Rhodos", "latitude": 52.4113317, "longitude": 13.5730007, "cuisine_type": "greek", "address": null, "contact_info": null, "source": "OpenStreetMap", "retrieved_at": "2025-08-13T09:12:09.854829+00:00"}
{"name": "Schloss Neuschweinsteiger", "latitude": 52.4689788, "longitude": 13.4354663, "cuisine_type": null, "address": null, "contact_info": null, "source": "OpenStreetMap", "retrieved_at": "2025-08-13T09:12:09.854832+00:00"}
{"name": "Schön 14", "latitude": 52.4645273, "longitude": 13.3298271, "cuisine_type": null, "address": null, "contact_info": null, "source": "OpenStreetMap", "retrieved_at": "2025-08-13T09:12:09.854835+00:00"}
{"name": "Alter Krug", "latitude": 52.4578483, "longitude": 13.2882349, "cuisine_type": "german", "address": null, "contact_info": null, "source": "OpenStreetMap", "retrieved_at": "2025-08-13T09:12:09.854838+00:00"}
{"name": "Mario", "latitude": 52.4750769, "longitude": 13.3234069, "cuisine_type": "italian", "address": null, "contact_info": null, "source": "OpenStreetMap", "retrieved_at": "2025-08-13T09:12:09.854841+00:00"}
{"name": "Mühle Altlandsberg", "latitude": 52.5527793, "longitude": 13.6972202, "cuisine_type": null, "address": null, "contact_info": null, "source": "OpenStreetMap", "retrieved_at": "2025-08-13T09:12:09.854845+00:00"}
{"name": "Kiez-Bäckerei", "latitude": 52.4686515, "longitude": 13.4677356, "cuisine_type": "turkish;italian;regional;pastry", "address": null, "contact_info": null, "source": "OpenStreetMap", "retrieved_at": "2025-08-13T09:12:09.854847+00:00"}
{"name": "Schneeweiß", "latitude": 52.5086453, "longitude": 13.4582032, "cuisine_type": "austrian", "address": null, "contact_info": "+49 30 29049704", "source": "OpenStreetMap", "retrieved_at": "2025-08-13T09:12:09.854850+00:00"}
{"name": "Uebereck", "latitude": 52.5054349, "longitude": 13.4663979, "cuisine_type": "regional", "address": null, "contact_info": null, "source": "OpenStreetMap", "retrieved_at": "2025-08-13T09:12:09.854853+00:00"}
{"name": "Alte Turnhalle Berlin", "latitude": 52.5071989, "longitude": 13.4652987, "cuisine_type": "international", "address": null, "contact_info": null, "source": "OpenStreetMap", "retrieved_at": "2025-08-13T09:12:09.854856+00:00"}
{"name": "Vereinszimmer", "latitude": 52.4900001, "longitude": 13.3825068, "cuisine_type": "italian", "address": null, "contact_info": null, "source": "OpenStreetMap", "retrieved_at": "2025-08-13T09:12:09.854858+00:00"}
{"name": "Osteria Nº 1", "latitude": 52.489775, "longitude": 13.3832177, "cuisine_type": "italian", "address": null, "contact_info": null, "source": "OpenStreetMap", "retrieved_at": "2025-08-13T09:12:09.854863+00:00"}
{"name": "Barcomi's Café & Kaffeerösterei", "latitude": 52.4890118, "longitude": 13.3935082, "cuisine_type": "coffee_shop", "address": null, "contact_info": "+49 30 6948138", "source": "OpenStreetMap", "retrieved_at": "2025-08-13T09:12:09.854865+00:00"}
{"name": "Pagode", "latitude": 52.4893112, "longitude": 13.3933939, "cuisine_type": "asian", "address": null, "contact_info": null, "source": "OpenStreetMap", "retrieved_at": "2025-08-13T09:12:09.854869+00:00"}
{"name": "Bootshaus", "latitude": 52.4586339, "longitude": 13.1126606, "cuisine_type": null, "address": null, "contact_info": null, "source": "OpenStreetMap", "retrieved_at": "2025-08-13T09:12:09.854872+00:00"}
{"name": "Milchgesicht", "latitude": 52.5146574, "longitude": 13.4630543, "cuisine_type": null, "address": null, "contact_info": null, "source": "OpenStreetMap", "retrieved_at": "2025-08-13T09:12:09.854875+00:00"}
{"name": "Chai Ji", "latitude": 52.516543, "longitude": 13.4635392, "cuisine_type": "indian", "address": null, "contact_info": "+49 30 55205071", "source": "OpenStreetMap", "retrieved_at": "2025-08-13T09:12:09.854878+00:00"}
{"name": "Jōnetsu", "latitude": 52.5131538, "longitude": 13.4620486, "cuisine_type": "japanese", "address": null, "contact_info": null, "source": "OpenStreetMap", "retrieved_at": "2025-08-13T09:12:09.854881+00:00"}
{"name": "Eatalian", "latitude": 52.5122684, "longitude": 13.4614486, "cuisine_type": "italian", "address": null, "contact_info": null, "source": "OpenStreetMap", "retrieved_at": "2025-08-13T09:12:09.854884+00:00"}
{"name": "Keyif", "latitude": 52.5120463, "longitude": 13.4613169, "cuisine_type": null, "address": null, "contact_info": null, "source": "OpenStreetMap", "retrieved_at": "2025-08-13T09:12:09.854886+00:00"}
{"name": "Aashish", "latitude": 52.5149418, "longitude": 13.46027, "cuisine_type": "indian", "address": null, "contact_info": null, "source": "OpenStreetMap", "retrieved_at": "2025-08-13T09:12:09.854889+00:00"}
{"name": "mausi.", "latitude": 52.474763, "longitude": 13.4469517, "cuisine_type": null, "address": null, "contact_info": null, "source": "OpenStreetMap", "retrieved_at": "2025-08-13T09:12:09.854892+00:00"}
{"name": "Restaurant Villa Rixdorf", "latitude": 52.4742277, "longitude": 13.4447503, "cuisine_type": null, "address": null, "contact_info": null, "source": "OpenStreetMap", "retrieved_at": "2025-08-13T09:12:09.854895+00:00"}
{"name": "Gambrinus", "latitude": 52.5264453, "longitude": 13.3879477, "cuisine_type": "german", "address": null, "contact_info": null, "source": "OpenStreetMap", "retrieved_at": "2025-08-13T09:12:09.854897+00:00"}
{"name": "Sahoi", "latitude": 52.5264338, "longitude": 13.3877486, "cuisine_type": "sushi", "address": null, "contact_info": null, "source": "OpenStreetMap", "retrieved_at": "2025-08-13T09:12:09.854900+00:00"}
{"name": "Amrit", "latitude": 52.5259421, "longitude": 13.3896272, "cuisine_type": "indian", "address": null, "contact_info": null, "source": "OpenStreetMap", "retrieved_at": "2025-08-13T09:12:09.854903+00:00"}
{"name": "Uferlos", "latitude": 52.5506079, "longitude": 13.3733546, "cuisine_type": "italian", "address": null, "contact_info": "+49 30 46600510", "source": "OpenStreetMap", "retrieved_at": "2025-08-13T09:12:09.854905+00:00"}
{"name": "Mensa FU Lankwitz Malteserstraße", "latitude": 52.425496, "longitude": 13.3573392, "cuisine_type": null, "address": null, "contact_info": "+49 30 93939 - 7512", "source": "OpenStreetMap", "retrieved_at": "2025-08-13T09:12:09.854908+00:00"}
{"name": "Bel Paese", "latitude": 52.6667135, "longitude": 13.2820003, "cuisine_type": "italian", "address": null, "contact_info": null, "source": "OpenStreetMap", "retrieved_at": "2025-08-13T09:12:09.854911+00:00"}
{"name": "Destino", "latitude": 52.6700953, "longitude": 13.2886951, "cuisine_type": "italian", "address": null, "contact_info": null, "source": "OpenStreetMap", "retrieved_at": "2025-08-13T09:12:09.854914+00:00"}
{"name": "Homey", "latitude": 52.5569578, "longitude": 13.3409564, "cuisine_type": "vietnamese;thai;sushi", "address": null, "contact_info": "+49 30 43722727", "source": "OpenStreetMap", "retrieved_at": "2025-08-13T09:12:09.854917+00:00"}
{"name": "Scorpion", "latitude": 52.528823, "longitude": 13.342903, "cuisine_type": "thai", "address": null, "contact_info": null, "source": "OpenStreetMap", "retrieved_at": "2025-08-13T09:12:09.854920+00:00"}
{"name": "Konditorei & Eiscafé Engel", "latitude": 52.5467698, "longitude": 13.5567171, "cuisine_type": null, "address": null, "contact_info": null, "source": "OpenStreetMap", "retrieved_at": "2025-08-13T09:12:09.854922+00:00"}
{"name": "Cafe Finovo", "latitude": 52.4910478, "longitude": 13.3675144, "cuisine_type": "german", "address": null, "contact_info": null, "source": "OpenStreetMap", "retrieved_at": "2025-08-13T09:12:09.854925+00:00"}
{"name": "Tandoori", "latitude": 52.5498822, "longitude": 13.4626939, "cuisine_type": null, "address": null, "contact_info": null, "source": "OpenStreetMap", "retrieved_at": "2025-08-13T09:12:09.854928+00:00"}
{"name": "Il Castello", "latitude": 52.6350391, "longitude": 13.4995197, "cuisine_type": "italian", "address": null, "contact_info": null, "source": "OpenStreetMap", "retrieved_at": "2025-08-13T09:12:09.854930+00:00"}
{"name": "Fräulein Kimchi", "latitude": 52.5453918, "longitude": 13.4524178, "cuisine_type": null, "address": null, "contact_info": null, "source": "OpenStreetMap", "retrieved_at": "2025-08-13T09:12:09.854935+00:00"}
{"name": "Plus Minus Null", "latitude": 52.511776, "longitude": 13.4575389, "cuisine_type": null, "address": null, "contact_info": null, "source": "OpenStreetMap", "retrieved_at": "2025-08-13T09:12:09.854938+00:00"}
{"name": "Habana", "latitude": 52.5118836, "longitude": 13.4567958, "cuisine_type": null, "address": null, "contact_info": null, "source": "OpenStreetMap", "retrieved_at": "2025-08-13T09:12:09.854941+00:00"}
{"name": "Gold 79", "latitude": 52.5141004, "longitude": 13.4730329, "cuisine_type": "vietnamese", "address": null, "contact_info": null, "source": "OpenStreetMap", "retrieved_at": "2025-08-13T09:12:09.854943+00:00"}
{"name": "Hannibal", "latitude": 52.5091398, "longitude": 13.4598832, "cuisine_type": "italian", "address": null, "contact_info": null, "source": "OpenStreetMap", "retrieved_at": "2025-08-13T09:12:09.854946+00:00"}
{"name": "il Ritrovo", "latitude": 52.5095667, "longitude": 13.4580847, "cuisine_type": "italian;pizza", "address": null, "contact_info": "+49 30 29364130", "source": "OpenStreetMap", "retrieved_at": "2025-08-13T09:12:09.854949+00:00"}
{"name": "Caramello", "latitude": 52.5097761, "longitude": 13.457186, "cuisine_type": "ice_cream;coffee_shop", "address": null, "contact_info": null, "source": "OpenStreetMap", "retrieved_at": "2025-08-13T09:12:09.854952+00:00"}
{"name": "Himmelreich", "latitude": 52.5102582, "longitude": 13.4566212, "cuisine_type": null, "address": null, "contact_info": "+49 30 29369292", "source": "OpenStreetMap", "retrieved_at": "2025-08-13T09:12:09.854954+00:00"}
{"name": "Intimes", "latitude": 52.5128318, "longitude": 13.4582338, "cuisine_type": null, "address": null, "contact_info": "+493029664633", "source": "OpenStreetMap", "retrieved_at": "2025-08-13T09:12:09.854957+00:00"}
{"name": "Lemongrass", "latitude": 52.5124786, "longitude": 13.4571679, "cuisine_type": "asian", "address": null, "contact_info": null, "source": "OpenStreetMap", "retrieved_at": "2025-08-13T09:12:09.854960+00:00"}
{"name": "TAT", "latitude": 52.5133893, "longitude": 13.4586453, "cuisine_type": "asian", "address": null, "contact_info": null, "source": "OpenStreetMap", "retrieved_at": "2025-08-13T09:12:09.854963+00:00"}
{"name": "Ysy", "latitude": 52.5158118, "longitude": 13.4591706, "cuisine_type": null, "address": null, "contact_info": null, "source": "OpenStreetMap", "retrieved_at": "2025-08-13T09:12:09.854966+00:00"}
{"name": "Meet Saigon", "latitude": 52.5158783, "longitude": 13.458543, "cuisine_type": "vietnamese", "address": null, "contact_info": null, "source": "OpenStreetMap", "retrieved_at": "2025-08-13T09:12:09.854968+00:00"}
{"name": "Café Tasso", "latitude": 52.5160258, "longitude": 13.4570212, "cuisine_type": null, "address": null, "contact_info": null, "source": "OpenStreetMap", "retrieved_at": "2025-08-13T09:12:09.854971+00:00"}
{"name": "Restaurant zum Sacrower See", "latitude": 52.4303557, "longitude": 13.0983666, "cuisine_type": null, "address": null, "contact_info": null, "source": "OpenStreetMap", "retrieved_at": "2025-08-13T09:12:09.854974+00:00"}
{"name": "Lauschangriff", "latitude": 52.5182491, "longitude": 13.4553049, "cuisine_type": null, "address": null, "contact_info": null, "source": "OpenStreetMap", "retrieved_at": "2025-08-13T09:12:09.854977+00:00"}
{"name": "Seth", "latitude": 52.5172556, "longitude": 13.4608879, "cuisine_type": "pakistani;indian", "address": null, "contact_info": null, "source": "OpenStreetMap", "retrieved_at": "2025-08-13T09:12:09.854980+00:00"}
{"name": "Koy", "latitude": 52.5168019, "longitude": 13.4621382, "cuisine_type": "thai", "address": null, "contact_info": null, "source": "OpenStreetMap", "retrieved_at": "2025-08-13T09:12:09.854983+00:00"}
{"name": "Brunchella", "latitude": 52.5166158, "longitude": 13.4631774, "cuisine_type": null, "address": null, "contact_info": null, "source": "OpenStreetMap", "retrieved_at": "2025-08-13T09:12:09.854985+00:00"}
{"name": "Anastasia", "latitude": 52.5174079, "longitude": 13.4658508, "cuisine_type": "russian", "address": null, "contact_info": null, "source": "OpenStreetMap", "retrieved_at": "2025-08-13T09:12:09.854988+00:00"}
{"name": "Papaleo", "latitude": 52.517967, "longitude": 13.467624, "cuisine_type": "italian", "address": null, "contact_info": null, "source": "OpenStreetMap", "retrieved_at": "2025-08-13T09:12:09.854991+00:00"}
{"name": "Asahi Sushi", "latitude": 52.5153424, "longitude": 13.471852, "cuisine_type": "sushi;vietnamese", "address": null, "contact_info": null, "source": "OpenStreetMap", "retrieved_at": "2025-08-13T09:12:09.854993+00:00"}
{"name": "Yogi Haus", "latitude": 52.5151203, "longitude": 13.4716078, "cuisine_type": "indian", "address": null, "contact_info": null, "source": "OpenStreetMap", "retrieved_at": "2025-08-13T09:12:09.854996+00:00"}
{"name": "Shanghai", "latitude": 52.5138719, "longitude": 13.4709298, "cuisine_type": "chinese", "address": null, "contact_info": "+30 2945655", "source": "OpenStreetMap", "retrieved_at": "2025-08-13T09:12:09.854999+00:00"}
{"name": "Stara Kuća", "latitude": 52.5119508, "longitude": 13.1979481, "cuisine_type": null, "address": null, "contact_info": null, "source": "OpenStreetMap", "retrieved_at": "2025-08-13T09:12:09.855002+00:00"}
{"name": "Lagunen-Eck", "latitude": 52.4318874, "longitude": 13.7133375, "cuisine_type": null, "address": null, "contact_info": null, "source": "OpenStreetMap", "retrieved_at": "2025-08-13T09:12:09.855004+00:00"}
{"name": "Restaurant Athos", "latitude": 52.5129887, "longitude": 13.5012738, "cuisine_type": "greek", "address": null, "contact_info": "+49 30 57799288", "source": "OpenStreetMap", "retrieved_at": "2025-08-13T09:12:09.855007+00:00"}
{"name": "Kurhaus Korsakow", "latitude": 52.5112327, "longitude": 13.4608889, "cuisine_type": null, "address": null, "contact_info": null, "source": "OpenStreetMap", "retrieved_at": "2025-08-13T09:12:09.855010+00:00"}
{"name": "Zeitgeist", "latitude": 52.5111838, "longitude": 13.4613046, "cuisine_type": null, "address": null, "contact_info": null, "source": "OpenStreetMap", "retrieved_at": "2025-08-13T09:12:09.855013+00:00"}
{"name": "Trattoria Cinque", "latitude": 52.5113289, "longitude": 13.4585625, "cuisine_type": "italian", "address": null, "contact_info": null, "source": "OpenStreetMap", "retrieved_at": "2025-08-13T09:12:09.855016+00:00"}
{"name": "Euphoria", "latitude": 52.5116145, "longitude": 13.4567297, "cuisine_type": null, "address": null, "contact_info": null, "source": "OpenStreetMap", "retrieved_at": "2025-08-13T09:12:09.855019+00:00"}
{"name": "li.ke", "latitude": 52.5115943, "longitude": 13.4586892, "cuisine_type": "thai", "address": null, "contact_info": null, "source": "OpenStreetMap", "retrieved_at": "2025-08-13T09:12:09.855024+00:00"}
{"name": "Aklé", "latitude": 52.5103281, "longitude": 13.4545378, "cuisine_type": null, "address": null, "contact_info": null, "source": "OpenStreetMap", "retrieved_at": "2025-08-13T09:12:09.855026+00:00"}
{"name": "Zeus Pizza & Pide", "latitude": 52.5124065, "longitude": 13.459095, "cuisine_type": "turkish;italian;pizza", "address": null, "contact_info": null, "source": "OpenStreetMap", "retrieved_at": "2025-08-13T09:12:09.855029+00:00"}
{"name": "Ristorante Da Toni", "latitude": 52.4982635, "longitude": 13.3190018, "cuisine_type": "italian", "address": null, "contact_info": null, "source": "OpenStreetMap", "retrieved_at": "2025-08-13T09:12:09.855032+00:00"}
{"name": "Hasir", "latitude": 52.5382994, "longitude": 13.2067559, "cuisine_type": "turkish", "address": null, "contact_info": null, "source": "OpenStreetMap", "retrieved_at": "2025-08-13T09:12:09.855035+00:00"}
{"name": "Aroma", "latitude": 52.5063437, "longitude": 13.3155769, "cuisine_type": "chinese", "address": null, "contact_info": null, "source": "OpenStreetMap", "retrieved_at": "2025-08-13T09:12:09.855037+00:00"}
{"name": "Tapas Bar", "latitude": 52.507193, "longitude": 13.3216137, "cuisine_type": "spanish", "address": null, "contact_info": "+49 30 31809170", "source": "OpenStreetMap", "retrieved_at": "2025-08-13T09:12:09.855040+00:00"}
{"name": "Café Lutetia", "latitude": 52.5370841, "longitude": 13.2019954, "cuisine_type": null, "address": null, "contact_info": "+49 30 35306613", "source": "OpenStreetMap", "retrieved_at": "2025-08-13T09:12:09.855043+00:00"}
{"name": "Charlotte", "latitude": 52.5372124, "longitude": 13.2022687, "cuisine_type": null, "address": null, "contact_info": null, "source": "OpenStreetMap", "retrieved_at": "2025-08-13T09:12:09.855046+00:00"}
{"name": "Lalibela", "latitude": 52.4953274, "longitude": 13.4303555, "cuisine_type": null, "address": null, "contact_info": null, "source": "OpenStreetMap", "retrieved_at": "2025-08-13T09:12:09.855049+00:00"}
{"name": "Cocochu", "latitude": 52.4940969, "longitude": 13.4286005, "cuisine_type": "vietnamese", "address": null, "contact_info": null, "source": "OpenStreetMap", "retrieved_at": "2025-08-13T09:12:09.855052+00:00"}
{"name": "Olivio", "latitude": 52.4919428, "longitude": 13.4211845, "cuisine_type": "italian", "address": null, "contact_info": null, "source": "OpenStreetMap", "retrieved_at": "2025-08-13T09:12:09.855055+00:00"}
{"name": "La La", "latitude": 52.4929941, "longitude": 13.4143954, "cuisine_type": null, "address": null, "contact_info": null, "source": "OpenStreetMap", "retrieved_at": "2025-08-13T09:12:09.855057+00:00"}
{"name": "Melissa", "latitude": 52.4989849, "longitude": 13.4642845, "cuisine_type": "kebab", "address": null, "contact_info": "+49-30-29006638", "source": "OpenStreetMap", "retrieved_at": "2025-08-13T09:12:09.855060+00:00"}
{"name": "la copa", "latitude": 52.393882, "longitude": 13.0922617, "cuisine_type": "spanish", "address": null, "contact_info": null, "source": "OpenStreetMap", "retrieved_at": "2025-08-13T09:12:09.855063+00:00"}
{"name": "Das kleine Eiswerk", "latitude": 52.4820047, "longitude": 13.6015579, "cuisine_type": "ice_cream", "address": null, "contact_info": null, "source": "OpenStreetMap", "retrieved_at": "2025-08-13T09:12:09.855066+00:00"}
{"name": "Athena Roma", "latitude": 52.5609827, "longitude": 13.4237284, "cuisine_type": null, "address": null, "contact_info": null, "source": "OpenStreetMap", "retrieved_at": "2025-08-13T09:12:09.855069+00:00"}
{"name": "Chay Long", "latitude": 52.4925901, "longitude": 13.4171934, "cuisine_type": "asian", "address": null, "contact_info": null, "source": "OpenStreetMap", "retrieved_at": "2025-08-13T09:12:09.855071+00:00"}
{"name": "Zillestube Trattoria", "latitude": 52.3937705, "longitude": 13.0928183, "cuisine_type": "italian;pizza", "address": null, "contact_info": "+49 331 740 0666", "source": "OpenStreetMap", "retrieved_at": "2025-08-13T09:12:09.855076+00:00"}
{"name": "Ristorante Fidele", "latitude": 52.390785, "longitude": 13.0945635, "cuisine_type": "italian", "address": null, "contact_info": "+49 331 704 8744", "source": "OpenStreetMap", "retrieved_at": "2025-08-13T09:12:09.855079+00:00"}
{"name": "Pars", "latitude": 52.5074506, "longitude": 13.3213947, "cuisine_type": null, "address": null, "contact_info": null, "source": "OpenStreetMap", "retrieved_at": "2025-08-13T09:12:09.855082+00:00"}
{"name": "Gaststätte G7", "latitude": 52.5203123, "longitude": 13.1877687, "cuisine_type": "german", "address": null, "contact_info": "+49 30 35503107", "source": "OpenStreetMap", "retrieved_at": "2025-08-13T09:12:09.855085+00:00"}
{"name": "Trattoria Da Pia", "latitude": 52.542687, "longitude": 13.4382723, "cuisine_type": "italian", "address": null, "contact_info": null, "source": "OpenStreetMap", "retrieved_at": "2025-08-13T09:12:09.855089+00:00"}
{"name": "booze bar berlin", "latitude": 52.5127422, "longitude": 13.458706, "cuisine_type": null, "address": null, "contact_info": "+49 30 29046910", "source": "OpenStreetMap", "retrieved_at": "2025-08-13T09:12:09.855092+00:00"}
{"name": "The Hummus Club", "latitude": 52.5124653, "longitude": 13.4588561, "cuisine_type": "falafel;lebanese", "address": null, "contact_info": null, "source": "OpenStreetMap", "retrieved_at": "2025-08-13T09:12:09.855095+00:00"}
{"name": "Burger Jam", "latitude": 52.5124787, "longitude": 13.4587818, "cuisine_type": "sausage", "address": null, "contact_info": "+49 30 48813614", "source": "OpenStreetMap", "retrieved_at": "2025-08-13T09:12:09.855097+00:00"}
{"name": "Anglerheim", "latitude": 52.3652497, "longitude": 13.694349, "cuisine_type": "german", "address": null, "contact_info": null, "source": "OpenStreetMap", "retrieved_at": "2025-08-13T09:12:09.855100+00:00"}
{"name": "Zoena", "latitude": 52.4978961, "longitude": 13.3230488, "cuisine_type": "austrian", "address": null, "contact_info": "+49 30 88776683", "source": "OpenStreetMap", "retrieved_at": "2025-08-13T09:12:09.855103+00:00"}
{"name": "Sweet2go", "latitude": 52.4979575, "longitude": 13.3228653, "cuisine_type": "ice_cream;cake", "address": null, "contact_info": null, "source": "OpenStreetMap", "retrieved_at": "2025-08-13T09:12:09.855106+00:00"}
{"name": "Asiana Village", "latitude": 52.5953151, "longitude": 13.3353055, "cuisine_type": "asian", "address": null, "contact_info": null, "source": "OpenStreetMap", "retrieved_at": "2025-08-13T09:12:09.855109+00:00"}
{"name": "Müggelsee-Terrassen Rübezahl", "latitude": 52.4268637, "longitude": 13.6290994, "cuisine_type": null, "address": null, "contact_info": null, "source": "OpenStreetMap", "retrieved_at": "2025-08-13T09:12:09.855111+00:00"}
{"name": "Die Buhne", "latitude": 52.6093581, "longitude": 13.2001608, "cuisine_type": null, "address": null, "contact_info": null, "source": "OpenStreetMap", "retrieved_at": "2025-08-13T09:12:09.855116+00:00"}
{"name": "Pascarella", "latitude": 52.5076989, "longitude": 13.3180576, "cuisine_type": "italian", "address": null, "contact_info": null, "source": "OpenStreetMap", "retrieved_at": "2025-08-13T09:12:09.855120+00:00"}
{"name": "George's Steakhouse", "latitude": 52.4977937, "longitude": 13.3246353, "cuisine_type": "steak_house", "address": null, "contact_info": null, "source": "OpenStreetMap", "retrieved_at": "2025-08-13T09:12:09.855123+00:00"}
{"name": "Berlin Burrito Company", "latitude": 52.506665, "longitude": 13.3098529, "cuisine_type": "mexican", "address": null, "contact_info": null, "source": "OpenStreetMap", "retrieved_at": "2025-08-13T09:12:09.855126+00:00"}
{"name": "Quasimodo", "latitude": 52.5059347, "longitude": 13.3283712, "cuisine_type": null, "address": null, "contact_info": "+49 30 31804560", "source": "OpenStreetMap", "retrieved_at": "2025-08-13T09:12:09.855128+00:00"}
{"name": "Da Mingiu", "latitude": 52.5924426, "longitude": 13.3263936, "cuisine_type": "italian", "address": null, "contact_info": null, "source": "OpenStreetMap", "retrieved_at": "2025-08-13T09:12:09.855131+00:00"}
{"name": "Jäger & Lustig", "latitude": 52.5134101, "longitude": 13.4480647, "cuisine_type": "regional", "address": null, "contact_info": "+49 30 29009912", "source": "OpenStreetMap", "retrieved_at": "2025-08-13T09:12:09.855134+00:00"}
{"name": "Kaiser-Pavillon", "latitude": 52.3571773, "longitude": 13.6314189, "cuisine_type": "chinese", "address": null, "contact_info": null, "source": "OpenStreetMap", "retrieved_at": "2025-08-13T09:12:09.855137+00:00"}
{"name": "Olympia", "latitude": 52.3529582, "longitude": 13.6329622, "cuisine_type": "greek", "address": null, "contact_info": null, "source": "OpenStreetMap", "retrieved_at": "2025-08-13T09:12:09.855140+00:00"}
{"name": "Anh Tai", "latitude": 52.3856074, "longitude": 13.1081947, "cuisine_type": "chinese;sushi;thai", "address": null, "contact_info": "+49 331 740 0372", "source": "OpenStreetMap", "retrieved_at": "2025-08-13T09:12:09.855142+00:00"}
{"name": "Kashmir Haus", "latitude": 52.3899925, "longitude": 13.1052059, "cuisine_type": "mexican", "address": null, "contact_info": "+49 331 704 8842", "source": "OpenStreetMap", "retrieved_at": "2025-08-13T09:12:09.855145+00:00"}
{"name": "Steakhouse MENDOZA", "latitude": 52.3900857, "longitude": 13.0977479, "cuisine_type": "mexican;steak_house", "address": null, "contact_info": "+49 331 271 4714", "source": "OpenStreetMap", "retrieved_at": "2025-08-13T09:12:09.855148+00:00"}
{"name": "Vela's Restaurant", "latitude": 52.4027799, "longitude": 13.2635624, "cuisine_type": "seasonal regional dishes & selected meals with indian touch", "address": null, "contact_info": null, "source": "OpenStreetMap", "retrieved_at": "2025-08-13T09:12:09.855151+00:00"}
{"name": "Plancha II", "latitude": 52.5417561, "longitude": 13.1993753, "cuisine_type": null, "address": null, "contact_info": null, "source": "OpenStreetMap", "retrieved_at": "2025-08-13T09:12:09.855154+00:00"}
{"name": "Schützen-Wirtin", "latitude": 52.4147548, "longitude": 13.1769686, "cuisine_type": "regional", "address": null, "contact_info": "+49 30 37438807", "source": "OpenStreetMap", "retrieved_at": "2025-08-13T09:12:09.855157+00:00"}
{"name": "Sommercafé Kladow", "latitude": 52.4445732, "longitude": 13.1306758, "cuisine_type": "coffee_shop;cake;regional", "address": null, "contact_info": null, "source": "OpenStreetMap", "retrieved_at": "2025-08-13T09:12:09.855160+00:00"}
{"name": "QBA", "latitude": 52.5259949, "longitude": 13.3894424, "cuisine_type": "cuban", "address": null, "contact_info": "+493028040505", "source": "OpenStreetMap", "retrieved_at": "2025-08-13T09:12:09.855163+00:00"}
{"name": "M & B Cafelounge", "latitude": 52.55915, "longitude": 13.0900936, "cuisine_type": null, "address": null, "contact_info": null, "source": "OpenStreetMap", "retrieved_at": "2025-08-13T09:12:09.855165+00:00"}
{"name": "The Coffee Shop", "latitude": 52.5152592, "longitude": 13.3983179, "cuisine_type": "coffee_shop", "address": null, "contact_info": null, "source": "OpenStreetMap", "retrieved_at": "2025-08-13T09:12:09.855168+00:00"}
{"name": "Café im Alten Museum", "latitude": 52.5191167, "longitude": 13.3985266, "cuisine_type": null, "address": null, "contact_info": null, "source": "OpenStreetMap", "retrieved_at": "2025-08-13T09:12:09.855171+00:00"}
{"name": "Il Casolare", "latitude": 52.4949133, "longitude": 13.4155131, "cuisine_type": "italian;pizza", "address": null, "contact_info": "+49 30 69506610", "source": "OpenStreetMap", "retrieved_at": "2025-08-13T09:12:09.855173+00:00"}
{"name": "Konsum", "latitude": 52.3918392, "longitude": 13.0953075, "cuisine_type": null, "address": null, "contact_info": "+49 331 743 7080", "source": "OpenStreetMap", "retrieved_at": "2025-08-13T09:12:09.855176+00:00"}
{"name": "Bar im Wasserturm", "latitude": 52.547659, "longitude": 13.4887104, "cuisine_type": null, "address": null, "contact_info": "+49 178 5389745", "source": "OpenStreetMap", "retrieved_at": "2025-08-13T09:12:09.855179+00:00"}
{"name": "Tales Untold", "latitude": 52.5123446, "longitude": 13.4479958, "cuisine_type": null, "address": null, "contact_info": null, "source": "OpenStreetMap", "retrieved_at": "2025-08-13T09:12:09.855182+00:00"}
{"name": "Tudo", "latitude": 52.5213767, "longitude": 13.4096608, "cuisine_type": "bubble_tea", "address": null, "contact_info": null, "source": "OpenStreetMap", "retrieved_at": "2025-08-13T09:12:09.855185+00:00"}
{"name": "Kiez Kaffee Kraft", "latitude": 52.5511873, "longitude": 13.4040715, "cuisine_type": "coffee_shop", "address": null, "contact_info": "+49 30 22806124", "source": "OpenStreetMap", "retrieved_at": "2025-08-13T09:12:09.855188+00:00"}
{"name": "Rossini III", "latitude": 52.4955607, "longitude": 13.6113563, "cuisine_type": "german;italian;mexican", "address": null, "contact_info": null, "source": "OpenStreetMap", "retrieved_at": "2025-08-13T09:12:09.855191+00:00"}
{"name": "Marjan Grill", "latitude": 52.5200654, "longitude": 13.3469194, "cuisine_type": "croatian", "address": null, "contact_info": "+49 30 3914976", "source": "OpenStreetMap", "retrieved_at": "2025-08-13T09:12:09.855193+00:00"}
{"name": "Tick-Tack", "latitude": 52.3884332, "longitude": 13.1901035, "cuisine_type": "french;german", "address": null, "contact_info": null, "source": "OpenStreetMap", "retrieved_at": "2025-08-13T09:12:09.855196+00:00"}
{"name": "Overcomer Bubble Tea", "latitude": 52.4513354, "longitude": 13.2825941, "cuisine_type": null, "address": null, "contact_info": null, "source": "OpenStreetMap", "retrieved_at": "2025-08-13T09:12:09.855199+00:00"}
{"name": "Zum Blockhaus", "latitude": 52.6047783, "longitude": 13.1974958, "cuisine_type": "regional", "address": null, "contact_info": null, "source": "OpenStreetMap", "retrieved_at": "2025-08-13T09:12:09.855201+00:00"}
{"name": "Billardsalon Köh", "latitude": 52.5252025, "longitude": 13.4018544, "cuisine_type": null, "address": null, "contact_info": null, "source": "OpenStreetMap", "retrieved_at": "2025-08-13T09:12:09.855206+00:00"}
{"name": "Fourty Years", "latitude": 52.4923209, "longitude": 13.4182784, "cuisine_type": null, "address": null, "contact_info": null, "source": "OpenStreetMap", "retrieved_at": "2025-08-13T09:12:09.855209+00:00"}
{"name": "Schönes Café", "latitude": 52.4923642, "longitude": 13.418062, "cuisine_type": null, "address": null, "contact_info": null, "source": "OpenStreetMap", "retrieved_at": "2025-08-13T09:12:09.855212+00:00"}
{"name": "datscha", "latitude": 52.4938768, "longitude": 13.4186675, "cuisine_type": "russian", "address": null, "contact_info": null, "source": "OpenStreetMap", "retrieved_at": "2025-08-13T09:12:09.855214+00:00"}
{"name": "Narr-Bar", "latitude": 52.4931596, "longitude": 13.4203993, "cuisine_type": null, "address": null, "contact_info": "+49-30-6929600", "source": "OpenStreetMap", "retrieved_at": "2025-08-13T09:12:09.855217+00:00"}
{"name": "Bahar Restaurant", "latitude": 52.4814663, "longitude": 13.3483784, "cuisine_type": "afghan;persian", "address": null, "contact_info": null, "source": "OpenStreetMap", "retrieved_at": "2025-08-13T09:12:09.855220+00:00"}
{"name": "Ristorante Pantalone", "latitude": 52.6331209, "longitude": 13.2886358, "cuisine_type": "italian", "address": null, "contact_info": null, "source": "OpenStreetMap", "retrieved_at": "2025-08-13T09:12:09.855223+00:00"}
{"name": "Ristorante Da Guiliano", "latitude": 52.5881097, "longitude": 13.2855979, "cuisine_type": "italian", "address": null, "contact_info": null, "source": "OpenStreetMap", "retrieved_at": "2025-08-13T09:12:09.855226+00:00"}
{"name": "Hax`nhaus\nTegernseer Tönnchen", "latitude": 52.5897918, "longitude": 13.2822617, "cuisine_type": "german", "address": null, "contact_info": null, "source": "OpenStreetMap", "retrieved_at": "2025-08-13T09:12:09.855229+00:00"}
{"name": "Restorante Pescara", "latitude": 52.5442796, "longitude": 13.2040241, "cuisine_type": "italian", "address": null, "contact_info": null, "source": "OpenStreetMap", "retrieved_at": "2025-08-13T09:12:09.855231+00:00"}
{"name": "Omonia Treff", "latitude": 52.544422, "longitude": 13.2043698, "cuisine_type": "greek", "address": null, "contact_info": null, "source": "OpenStreetMap", "retrieved_at": "2025-08-13T09:12:09.855234+00:00"}
{"name": "Yes Haus", "latitude": 52.6196845, "longitude": 13.3134918, "cuisine_type": "thai", "address": null, "contact_info": "+49 30 39716012", "source": "OpenStreetMap", "retrieved_at": "2025-08-13T09:12:09.855237+00:00"}
{"name": "Zum Kühlen Grunde", "latitude": 52.6178576, "longitude": 13.3270593, "cuisine_type": null, "address": null, "contact_info": null, "source": "OpenStreetMap", "retrieved_at": "2025-08-13T09:12:09.855240+00:00"}
{"name": "Gasthof Alter Dorfkrug Lübars", "latitude": 52.6201531, "longitude": 13.3563271, "cuisine_type": null, "address": null, "contact_info": null, "source": "OpenStreetMap", "retrieved_at": "2025-08-13T09:12:09.855242+00:00"}
{"name": "Graffiti", "latitude": 52.5003573, "longitude": 13.3075025, "cuisine_type": "international;ice_cream", "address": null, "contact_info": "+49 30 88001764", "source": "OpenStreetMap", "retrieved_at": "2025-08-13T09:12:09.855245+00:00"}
{"name": "Café Bilderbuch", "latitude": 52.4866549, "longitude": 13.3551643, "cuisine_type": "breakfast;coffee_shop", "address": null, "contact_info": "+49 30 78706057", "source": "OpenStreetMap", "retrieved_at": "2025-08-13T09:12:09.855248+00:00"}
{"name": "Sotto", "latitude": 52.5428561, "longitude": 13.3764121, "cuisine_type": "italian;noodles;pizza", "address": null, "contact_info": null, "source": "OpenStreetMap", "retrieved_at": "2025-08-13T09:12:09.855251+00:00"}
{"name": "Julius", "latitude": 52.544969, "longitude": 13.3682112, "cuisine_type": "coffee_shop", "address": null, "contact_info": null, "source": "OpenStreetMap", "retrieved_at": "2025-08-13T09:12:09.855254+00:00"}
{"name": "Rocco", "latitude": 52.5103534, "longitude": 13.291892, "cuisine_type": "international", "address": null, "contact_info": "+49 30 30209515", "source": "OpenStreetMap", "retrieved_at": "2025-08-13T09:12:09.855257+00:00"}
{"name": "Metropol", "latitude": 52.5254302, "longitude": 13.4455523, "cuisine_type": null, "address": null, "contact_info": null, "source": "OpenStreetMap", "retrieved_at": "2025-08-13T09:12:09.855260+00:00"}
{"name": "Il Giardino", "latitude": 52.4666443, "longitude": 13.3249631, "cuisine_type": "italian", "address": null, "contact_info": null, "source": "OpenStreetMap", "retrieved_at": "2025-08-13T09:12:09.855262+00:00"}
{"name": "Ristorante Italiano", "latitude": 52.5278248, "longitude": 13.4517323, "cuisine_type": "italian", "address": null, "contact_info": null, "source": "OpenStreetMap", "retrieved_at": "2025-08-13T09:12:09.855265+00:00"}
{"name": "Viet Bowl", "latitude": 52.5232113, "longitude": 13.4533349, "cuisine_type": "vietnamese", "address": null, "contact_info": null, "source": "OpenStreetMap", "retrieved_at": "2025-08-13T09:12:09.855268+00:00"}
{"name": "Ja Dilo", "latitude": 52.5223054, "longitude": 13.4509232, "cuisine_type": "cake", "address": null, "contact_info": null, "source": "OpenStreetMap", "retrieved_at": "2025-08-13T09:12:09.855271+00:00"}
{"name": "Lemongrass", "latitude": 52.5352762, "longitude": 13.3993689, "cuisine_type": "asian", "address": null, "contact_info": "+49 30 34623307", "source": "OpenStreetMap", "retrieved_at": "2025-08-13T09:12:09.855273+00:00"}
{"name": "caffe e cioccolata", "latitude": 52.5351623, "longitude": 13.3986537, "cuisine_type": null, "address": null, "contact_info": null, "source": "OpenStreetMap", "retrieved_at": "2025-08-13T09:12:09.855276+00:00"}
{"name": "La Lúcuma", "latitude": 52.536814, "longitude": 13.402935, "cuisine_type": null, "address": null, "contact_info": "+49 30 54713326", "source": "OpenStreetMap", "retrieved_at": "2025-08-13T09:12:09.855279+00:00"}
{"name": "Cup Arkona", "latitude": 52.5373544, "longitude": 13.4007116, "cuisine_type": null, "address": null, "contact_info": "+49 30 40301133", "source": "OpenStreetMap", "retrieved_at": "2025-08-13T09:12:09.855282+00:00"}
{"name": "Restaurant Meteora", "latitude": 52.5557801, "longitude": 13.4342268, "cuisine_type": "greek", "address": null, "contact_info": null, "source": "OpenStreetMap", "retrieved_at": "2025-08-13T09:12:09.855286+00:00"}
{"name": "Lakeside", "latitude": 52.5884273, "longitude": 13.2747189, "cuisine_type": "german", "address": null, "contact_info": "+49 30 4338001", "source": "OpenStreetMap", "retrieved_at": "2025-08-13T09:12:09.855289+00:00"}
{"name": "Cafe Fräulein Dietrich", "latitude": 52.5373736, "longitude": 13.4040229, "cuisine_type": null, "address": null, "contact_info": null, "source": "OpenStreetMap", "retrieved_at": "2025-08-13T09:12:09.855292+00:00"}
{"name": "Fedora", "latitude": 52.5472409, "longitude": 13.3580798, "cuisine_type": "ice_cream", "address": null, "contact_info": null, "source": "OpenStreetMap", "retrieved_at": "2025-08-13T09:12:09.855297+00:00"}
{"name": "Krua Thai", "latitude": 52.5458705, "longitude": 13.3578292, "cuisine_type": "thai", "address": null, "contact_info": null, "source": "OpenStreetMap", "retrieved_at": "2025-08-13T09:12:09.855299+00:00"}
{"name": "Machiavelli", "latitude": 52.5213052, "longitude": 13.385266, "cuisine_type": "italian", "address": null, "contact_info": "+49 30 28046401", "source": "OpenStreetMap", "retrieved_at": "2025-08-13T09:12:09.855302+00:00"}
{"name": "BLOCK HOUSE", "latitude": 52.5177087, "longitude": 13.440444, "cuisine_type": "steak_house", "address": null, "contact_info": "+49 30 4224773", "source": "OpenStreetMap", "retrieved_at": "2025-08-13T09:12:09.855305+00:00"}
{"name": "Gerdan's Café", "latitude": 52.4310052, "longitude": 13.5319872, "cuisine_type": "regional", "address": null, "contact_info": null, "source": "OpenStreetMap", "retrieved_at": "2025-08-13T09:12:09.855308+00:00"}
{"name": "Green Curve", "latitude": 52.4296331, "longitude": 13.5374711, "cuisine_type": "regional", "address": null, "contact_info": null, "source": "OpenStreetMap", "retrieved_at": "2025-08-13T09:12:09.855311+00:00"}
{"name": "Nawab", "latitude": 52.5201134, "longitude": 13.449987, "cuisine_type": "indian", "address": null, "contact_info": null, "source": "OpenStreetMap", "retrieved_at": "2025-08-13T09:12:09.855314+00:00"}
{"name": "Pomodorino", "latitude": 52.5222924, "longitude": 13.4497069, "cuisine_type": "pizza;italian", "address": null, "contact_info": null, "source": "OpenStreetMap", "retrieved_at": "2025-08-13T09:12:09.855318+00:00"}
{"name": "Hee Lam Mun", "latitude": 52.4599593, "longitude": 13.3121913, "cuisine_type": "chinese", "address": null, "contact_info": null, "source": "OpenStreetMap", "retrieved_at": "2025-08-13T09:12:09.855320+00:00"}
{"name": "Viale dei Tigli", "latitude": 52.5148686, "longitude": 13.3811135, "cuisine_type": "italian", "address": null, "contact_info": "+49 30 2297405", "source": "OpenStreetMap", "retrieved_at": "2025-08-13T09:12:09.855323+00:00"}
{"name": "Deck 5", "latitude": 52.5493859, "longitude": 13.4164647, "cuisine_type": null, "address": null, "contact_info": null, "source": "OpenStreetMap", "retrieved_at": "2025-08-13T09:12:09.855326+00:00"}
{"name": "Ristorante Avellino", "latitude": 52.5689318, "longitude": 13.4089817, "cuisine_type": "italian", "address": null, "contact_info": null, "source": "OpenStreetMap", "retrieved_at": "2025-08-13T09:12:09.855329+00:00"}
{"name": "Espresso House", "latitude": 52.5498572, "longitude": 13.4132889, "cuisine_type": "coffee_shop", "address": null, "contact_info": null, "source": "OpenStreetMap", "retrieved_at": "2025-08-13T09:12:09.855332+00:00"}
{"name": "Erdton Zen", "latitude": 52.5217, "longitude": 13.4352292, "cuisine_type": null, "address": null, "contact_info": null, "source": "OpenStreetMap", "retrieved_at": "2025-08-13T09:12:09.855335+00:00"}
{"name": "Qadmous", "latitude": 52.5296371, "longitude": 13.4363335, "cuisine_type": "oriental;lebanese;arabic", "address": null, "contact_info": null, "source": "OpenStreetMap", "retrieved_at": "2025-08-13T09:12:09.855337+00:00"}
{"name": "Gasthaus zur Bowlingbahn", "latitude": 52.3509077, "longitude": 13.4264659, "cuisine_type": null, "address": null, "contact_info": null, "source": "OpenStreetMap", "retrieved_at": "2025-08-13T09:12:09.855340+00:00"}
{"name": "Lang Van II", "latitude": 52.5163455, "longitude": 13.4455639, "cuisine_type": null, "address": null, "contact_info": null, "source": "OpenStreetMap", "retrieved_at": "2025-08-13T09:12:09.855343+00:00"}
{"name": "Nauta", "latitude": 52.534207, "longitude": 13.405011, "cuisine_type": "peruvian;japanese;nikkei", "address": null, "contact_info": "+49 30 48492651", "source": "OpenStreetMap", "retrieved_at": "2025-08-13T09:12:09.855346+00:00"}
{"name": "Aapka", "latitude": 52.5339909, "longitude": 13.4048341, "cuisine_type": "indian", "address": null, "contact_info": "+49 30 44010494", "source": "OpenStreetMap", "retrieved_at": "2025-08-13T09:12:09.855349+00:00"}
{"name": "macke prinz", "latitude": 52.534462, "longitude": 13.404733, "cuisine_type": null, "address": null, "contact_info": null, "source": "OpenStreetMap", "retrieved_at": "2025-08-13T09:12:09.855352+00:00"}
{"name": "Dubrovnik-Grill", "latitude": 52.5767714, "longitude": 13.2936581, "cuisine_type": null, "address": null, "contact_info": null, "source": "OpenStreetMap", "retrieved_at": "2025-08-13T09:12:09.855355+00:00"}
{"name": "Cantina", "latitude": 52.5326585, "longitude": 13.4528749, "cuisine_type": null, "address": null, "contact_info": null, "source": "OpenStreetMap", "retrieved_at": "2025-08-13T09:12:09.855357+00:00"}
{"name": "W Der Imbiss", "latitude": 52.5342862, "longitude": 13.4050916, "cuisine_type": "indian;mexican;italian", "address": null, "contact_info": null, "source": "OpenStreetMap", "retrieved_at": "2025-08-13T09:12:09.855360+00:00"}
{"name": "Al Parco", "latitude": 52.5298272, "longitude": 13.4447868, "cuisine_type": "italian", "address": null, "contact_info": null, "source": "OpenStreetMap", "retrieved_at": "2025-08-13T09:12:09.855363+00:00"}
{"name": "Sportsbar", "latitude": 52.5963736, "longitude": 13.3461978, "cuisine_type": null, "address": null, "contact_info": null, "source": "OpenStreetMap", "retrieved_at": "2025-08-13T09:12:09.855365+00:00"}
{"name": "Blaue Adria", "latitude": 52.5286027, "longitude": 13.4491113, "cuisine_type": "croatian", "address": null, "contact_info": null, "source": "OpenStreetMap", "retrieved_at": "2025-08-13T09:12:09.855368+00:00"}
{"name": "Café Viktoria", "latitude": 52.4562032, "longitude": 13.307115, "cuisine_type": null, "address": null, "contact_info": "+49 175 1197248", "source": "OpenStreetMap", "retrieved_at": "2025-08-13T09:12:09.855371+00:00"}
{"name": "Happy Buddha", "latitude": 52.4137071, "longitude": 13.3637958, "cuisine_type": "chinese", "address": null, "contact_info": null, "source": "OpenStreetMap", "retrieved_at": "2025-08-13T09:12:09.855373+00:00"}
{"name": "Colombina", "latitude": 52.4134914, "longitude": 13.3624551, "cuisine_type": "italian;pasta;pizza", "address": null, "contact_info": null, "source": "OpenStreetMap", "retrieved_at": "2025-08-13T09:12:09.855376+00:00"}
{"name": "Adrijana Grill", "latitude": 52.4131836, "longitude": 13.3634937, "cuisine_type": "croatian", "address": null, "contact_info": null, "source": "OpenStreetMap", "retrieved_at": "2025-08-13T09:12:09.855379+00:00"}
{"name": "Eiscafe Europa", "latitude": 52.4133405, "longitude": 13.3629671, "cuisine_type": "ice_cream;coffee_shop", "address": null, "contact_info": null, "source": "OpenStreetMap", "retrieved_at": "2025-08-13T09:12:09.855381+00:00"}
{"name": "La Luna", "latitude": 52.4141666, "longitude": 13.3635792, "cuisine_type": "italian", "address": null, "contact_info": null, "source": "OpenStreetMap", "retrieved_at": "2025-08-13T09:12:09.855385+00:00"}
{"name": "Salon Babette", "latitude": 52.5195057, "longitude": 13.4234314, "cuisine_type": null, "address": null, "contact_info": null, "source": "OpenStreetMap", "retrieved_at": "2025-08-13T09:12:09.855388+00:00"}
{"name": "Palace", "latitude": 52.5192592, "longitude": 13.2986637, "cuisine_type": "lebanese", "address": null, "contact_info": null, "source": "OpenStreetMap", "retrieved_at": "2025-08-13T09:12:09.855391+00:00"}
{"name": "La Bigoudène", "latitude": 52.534363, "longitude": 13.403029, "cuisine_type": "crepe;french", "address": null, "contact_info": null, "source": "OpenStreetMap", "retrieved_at": "2025-08-13T09:12:09.855394+00:00"}
{"name": "Lotus Cafe", "latitude": 52.5175686, "longitude": 13.4238976, "cuisine_type": null, "address": null, "contact_info": null, "source": "OpenStreetMap", "retrieved_at": "2025-08-13T09:12:09.855397+00:00"}
{"name": "Atame", "latitude": 52.5235718, "longitude": 13.4068594, "cuisine_type": "spanish", "address": null, "contact_info": null, "source": "OpenStreetMap", "retrieved_at": "2025-08-13T09:12:09.855400+00:00"}
{"name": "Hangi Sushi", "latitude": 52.534069, "longitude": 13.404568, "cuisine_type": "asian", "address": null, "contact_info": null, "source": "OpenStreetMap", "retrieved_at": "2025-08-13T09:12:09.855402+00:00"}
{"name": "La Focacceria", "latitude": 52.5336497, "longitude": 13.4034671, "cuisine_type": "italian", "address": null, "contact_info": "+493044032771", "source": "OpenStreetMap", "retrieved_at": "2025-08-13T09:12:09.855405+00:00"}
{"name": "Thai Sushi & More", "latitude": 52.533767, "longitude": 13.405399, "cuisine_type": "thai", "address": null, "contact_info": null, "source": "OpenStreetMap", "retrieved_at": "2025-08-13T09:12:09.855408+00:00"}
{"name": "St. Oberholz", "latitude": 52.5295304, "longitude": 13.4017825, "cuisine_type": "coffee_shop", "address": null, "contact_info": "+49 30 24085586", "source": "OpenStreetMap", "retrieved_at": "2025-08-13T09:12:09.855411+00:00"}
{"name": "Satyam", "latitude": 52.5089244, "longitude": 13.3220054, "cuisine_type": "indian", "address": null, "contact_info": "+49 30 31806111", "source": "OpenStreetMap", "retrieved_at": "2025-08-13T09:12:09.855415+00:00"}
{"name": "Moghul", "latitude": 52.4870643, "longitude": 13.3552616, "cuisine_type": "indian", "address": null, "contact_info": null, "source": "OpenStreetMap", "retrieved_at": "2025-08-13T09:12:09.855418+00:00"}
{"name": "papaya", "latitude": 52.4885454, "longitude": 13.4073498, "cuisine_type": "thai", "address": null, "contact_info": "+49 3057794199", "source": "OpenStreetMap", "retrieved_at": "2025-08-13T09:12:09.855421+00:00"}
{"name": "Süß war gestern", "latitude": 52.5086027, "longitude": 13.4610994, "cuisine_type": null, "address": null, "contact_info": null, "source": "OpenStreetMap", "retrieved_at": "2025-08-13T09:12:09.855424+00:00"}
{"name": "Ständige Vertretung", "latitude": 52.5212101, "longitude": 13.3853311, "cuisine_type": "german", "address": null, "contact_info": "+49 30 2823965", "source": "OpenStreetMap", "retrieved_at": "2025-08-13T09:12:09.855427+00:00"}
{"name": "Adonia", "latitude": 52.5215872, "longitude": 13.3850713, "cuisine_type": null, "address": null, "contact_info": null, "source": "OpenStreetMap", "retrieved_at": "2025-08-13T09:12:09.855430+00:00"}
{"name": "Volver", "latitude": 52.5223526, "longitude": 13.379881, "cuisine_type": "spanish", "address": null, "contact_info": "+493027572164", "source": "OpenStreetMap", "retrieved_at": "2025-08-13T09:12:09.855433+00:00"}
{"name": "Vincent Piano Bar", "latitude": 52.5215879, "longitude": 13.38609, "cuisine_type": null, "address": null, "contact_info": "+49 30 27582305", "source": "OpenStreetMap", "retrieved_at": "2025-08-13T09:12:09.855435+00:00"}
{"name": "Vaporetto", "latitude": 52.5210049, "longitude": 13.3850412, "cuisine_type": "italian", "address": null, "contact_info": "+49 30 27594623", "source": "OpenStreetMap", "retrieved_at": "2025-08-13T09:12:09.855438+00:00"}
{"name": "Zimt & Zucker", "latitude": 52.5206164, "longitude": 13.384282, "cuisine_type": null, "address": null, "contact_info": "+49 30 81010858", "source": "OpenStreetMap", "retrieved_at": "2025-08-13T09:12:09.855441+00:00"}
{"name": "Anand", "latitude": 52.5212138, "longitude": 13.3849693, "cuisine_type": "indian", "address": null, "contact_info": null, "source": "OpenStreetMap", "retrieved_at": "2025-08-13T09:12:09.855444+00:00"}
{"name": "Vapiano", "latitude": 52.5101889, "longitude": 13.376349, "cuisine_type": "italian", "address": null, "contact_info": null, "source": "OpenStreetMap", "retrieved_at": "2025-08-13T09:12:09.855447+00:00"}
{"name": "Cinque", "latitude": 52.5228146, "longitude": 13.3824135, "cuisine_type": "italian", "address": null, "contact_info": null, "source": "OpenStreetMap", "retrieved_at": "2025-08-13T09:12:09.855450+00:00"}
{"name": "Café Albrecht", "latitude": 52.5230929, "longitude": 13.3837544, "cuisine_type": "german", "address": null, "contact_info": "+49 30 27576701", "source": "OpenStreetMap", "retrieved_at": "2025-08-13T09:12:09.855452+00:00"}
{"name": "Dehlers", "latitude": 52.5236266, "longitude": 13.3853444, "cuisine_type": null, "address": null, "contact_info": null, "source": "OpenStreetMap", "retrieved_at": "2025-08-13T09:12:09.855455+00:00"}
{"name": "Van-Long", "latitude": 52.5238004, "longitude": 13.3865223, "cuisine_type": "thai;vietnamese", "address": null, "contact_info": null, "source": "OpenStreetMap", "retrieved_at": "2025-08-13T09:12:09.855458+00:00"}
{"name": "Akito", "latitude": 52.5238713, "longitude": 13.3868725, "cuisine_type": "japanese", "address": null, "contact_info": null, "source": "OpenStreetMap", "retrieved_at": "2025-08-13T09:12:09.855461+00:00"}
{"name": "Roma", "latitude": 52.5250993, "longitude": 13.3871462, "cuisine_type": "italian", "address": null, "contact_info": "+49 30 28878785", "source": "OpenStreetMap", "retrieved_at": "2025-08-13T09:12:09.855464+00:00"}
{"name": "Espresso Ambulanz", "latitude": 52.5260119, "longitude": 13.3880152, "cuisine_type": "coffee_shop", "address": null, "contact_info": "+49 30 97893808", "source": "OpenStreetMap", "retrieved_at": "2025-08-13T09:12:09.855467+00:00"}
{"name": "Sausalitos", "latitude": 52.5261784, "longitude": 13.3886693, "cuisine_type": "mexican", "address": null, "contact_info": "+49 30 403665200", "source": "OpenStreetMap", "retrieved_at": "2025-08-13T09:12:09.855469+00:00"}
{"name": "Bombay", "latitude": 52.5231491, "longitude": 13.3884968, "cuisine_type": "indian", "address": null, "contact_info": null, "source": "OpenStreetMap", "retrieved_at": "2025-08-13T09:12:09.855472+00:00"}
{"name": "Peter Pane", "latitude": 52.5208138, "longitude": 13.3884622, "cuisine_type": "burger", "address": null, "contact_info": "+49 30 20679063", "source": "OpenStreetMap", "retrieved_at": "2025-08-13T09:12:09.855479+00:00"}
{"name": "Wolke", "latitude": 52.4650127, "longitude": 13.3441689, "cuisine_type": "german;turkish", "address": null, "contact_info": null, "source": "OpenStreetMap", "retrieved_at": "2025-08-13T09:12:09.855482+00:00"}
{"name": "Unknown", "latitude": 52.4838008, "longitude": 13.4225619, "cuisine_type": null, "address": null, "contact_info": null, "source": "OpenStreetMap", "retrieved_at": "2025-08-13T09:12:09.855485+00:00"}
{"name": "Saigon Kitchen 1985", "latitude": 52.4297742, "longitude": 13.3333174, "cuisine_type": "vietnamese", "address": null, "contact_info": null, "source": "OpenStreetMap", "retrieved_at": "2025-08-13T09:12:09.855488+00:00"}
{"name": "La Montanara", "latitude": 52.4390321, "longitude": 13.3440299, "cuisine_type": "italian", "address": null, "contact_info": null, "source": "OpenStreetMap", "retrieved_at": "2025-08-13T09:12:09.855491+00:00"}
{"name": "Zoki's", "latitude": 52.4396315, "longitude": 13.3422947, "cuisine_type": null, "address": null, "contact_info": null, "source": "OpenStreetMap", "retrieved_at": "2025-08-13T09:12:09.855494+00:00"}
{"name": "Monsieur Toche", "latitude": 52.5223826, "longitude": 13.384463, "cuisine_type": "german", "address": null, "contact_info": "+493028879450", "source": "OpenStreetMap", "retrieved_at": "2025-08-13T09:12:09.855497+00:00"}
{"name": "Aux Delices Normands", "latitude": 52.4483263, "longitude": 13.276018, "cuisine_type": null, "address": null, "contact_info": null, "source": "OpenStreetMap", "retrieved_at": "2025-08-13T09:12:09.855501+00:00"}
{"name": "Feuerstein", "latitude": 52.5331919, "longitude": 13.4008848, "cuisine_type": null, "address": null, "contact_info": "+49-30-4482667", "source": "OpenStreetMap", "retrieved_at": "2025-08-13T09:12:09.855504+00:00"}
{"name": "Café Fleury", "latitude": 52.5312177, "longitude": 13.4022416, "cuisine_type": "breakfast;cake;french", "address": null, "contact_info": null, "source": "OpenStreetMap", "retrieved_at": "2025-08-13T09:12:09.855507+00:00"}
{"name": "Kalimera", "latitude": 52.3535179, "longitude": 13.3078815, "cuisine_type": "greek", "address": null, "contact_info": null, "source": "OpenStreetMap", "retrieved_at": "2025-08-13T09:12:09.855509+00:00"}
{"name": "Lokal", "latitude": 52.5278753, "longitude": 13.394901, "cuisine_type": "german", "address": null, "contact_info": null, "source": "OpenStreetMap", "retrieved_at": "2025-08-13T09:12:09.855512+00:00"}
{"name": "Bötzow Privat", "latitude": 52.5274962, "longitude": 13.3926644, "cuisine_type": null, "address": null, "contact_info": "+49 30 28095390", "source": "OpenStreetMap", "retrieved_at": "2025-08-13T09:12:09.855515+00:00"}
{"name": "Brechts", "latitude": 52.521472, "longitude": 13.385871, "cuisine_type": "german;steak_house", "address": null, "contact_info": null, "source": "OpenStreetMap", "retrieved_at": "2025-08-13T09:12:09.855518+00:00"}
{"name": "Ganymed", "latitude": 52.521721, "longitude": 13.3863157, "cuisine_type": "french", "address": null, "contact_info": "+493028599046", "source": "OpenStreetMap", "retrieved_at": "2025-08-13T09:12:09.855522+00:00"}
{"name": "Bonjour Vietnam", "latitude": 52.5161429, "longitude": 13.3899146, "cuisine_type": "japanese;vietnamese", "address": null, "contact_info": null, "source": "OpenStreetMap", "retrieved_at": "2025-08-13T09:12:09.855525+00:00"}
{"name": "Cafe & Konditorei", "latitude": 52.5423416, "longitude": 13.5634074, "cuisine_type": "regional", "address": null, "contact_info": null, "source": "OpenStreetMap", "retrieved_at": "2025-08-13T09:12:09.855528+00:00"}
{"name": "Sohnemann", "latitude": 52.5142681, "longitude": 13.4595488, "cuisine_type": null, "address": null, "contact_info": "+49-163 5980195", "source": "OpenStreetMap", "retrieved_at": "2025-08-13T09:12:09.855531+00:00"}
{"name": "3 minutes sur mer", "latitude": 52.5291046, "longitude": 13.3954604, "cuisine_type": "french", "address": null, "contact_info": "+49 30 67302052", "source": "OpenStreetMap", "retrieved_at": "2025-08-13T09:12:09.855533+00:00"}
{"name": "Napoljonska", "latitude": 52.5349278, "longitude": 13.4057256, "cuisine_type": "ice_cream", "address": null, "contact_info": "+493031170965", "source": "OpenStreetMap", "retrieved_at": "2025-08-13T09:12:09.855536+00:00"}
{"name": "Landhaus Botanischer Garten", "latitude": 52.4517727, "longitude": 13.309887, "cuisine_type": "german", "address": null, "contact_info": null, "source": "OpenStreetMap", "retrieved_at": "2025-08-13T09:12:09.855539+00:00"}
{"name": "Piaggio", "latitude": 52.4576996, "longitude": 13.2907097, "cuisine_type": "italian", "address": null, "contact_info": "+49-30-83202266", "source": "OpenStreetMap", "retrieved_at": "2025-08-13T09:12:09.855542+00:00"}
{"name": "Nett", "latitude": 52.4673215, "longitude": 13.3217196, "cuisine_type": "vietnamese", "address": null, "contact_info": null, "source": "OpenStreetMap", "retrieved_at": "2025-08-13T09:12:09.855545+00:00"}
{"name": "Havanna Bar", "latitude": 52.4816878, "longitude": 13.5257159, "cuisine_type": null, "address": null, "contact_info": null, "source": "OpenStreetMap", "retrieved_at": "2025-08-13T09:12:09.855548+00:00"}
{"name": "Macedonia", "latitude": 52.443374, "longitude": 13.2951737, "cuisine_type": "international", "address": null, "contact_info": "+49 30 833 9633", "source": "OpenStreetMap", "retrieved_at": "2025-08-13T09:12:09.855551+00:00"}
{"name": "Pino", "latitude": 52.4726746, "longitude": 13.3217637, "cuisine_type": "italian", "address": null, "contact_info": null, "source": "OpenStreetMap", "retrieved_at": "2025-08-13T09:12:09.855554+00:00"}
{"name": "Ice Angels", "latitude": 52.5412048, "longitude": 13.5705532, "cuisine_type": "ice_cream", "address": null, "contact_info": null, "source": "OpenStreetMap", "retrieved_at": "2025-08-13T09:12:09.855557+00:00"}
{"name": "Cafe Surf Inn", "latitude": 52.4246828, "longitude": 13.330777, "cuisine_type": "mexican", "address": null, "contact_info": null, "source": "OpenStreetMap", "retrieved_at": "2025-08-13T09:12:09.855560+00:00"}
{"name": "bei Maria", "latitude": 52.5331417, "longitude": 13.4018075, "cuisine_type": null, "address": null, "contact_info": "+493081618779", "source": "OpenStreetMap", "retrieved_at": "2025-08-13T09:12:09.855562+00:00"}
{"name": "Friedhard's", "latitude": 52.4280707, "longitude": 13.3247457, "cuisine_type": "german", "address": null, "contact_info": null, "source": "OpenStreetMap", "retrieved_at": "2025-08-13T09:12:09.855565+00:00"}
{"name": "Genç", "latitude": 52.4290088, "longitude": 13.3234863, "cuisine_type": null, "address": null, "contact_info": null, "source": "OpenStreetMap", "retrieved_at": "2025-08-13T09:12:09.855568+00:00"}
{"name": "Caffé Maura", "latitude": 52.4428752, "longitude": 13.3113788, "cuisine_type": null, "address": null, "contact_info": null, "source": "OpenStreetMap", "retrieved_at": "2025-08-13T09:12:09.855572+00:00"}
{"name": "Tillmann's Café Krone", "latitude": 52.4383177, "longitude": 13.2327133, "cuisine_type": "coffee_shop;cake", "address": null, "contact_info": "+49 30 8027053", "source": "OpenStreetMap", "retrieved_at": "2025-08-13T09:12:09.855575+00:00"}
{"name": "Opera Italiana", "latitude": 52.5192482, "longitude": 13.2984365, "cuisine_type": "italian", "address": null, "contact_info": "+49 30 34703626", "source": "OpenStreetMap", "retrieved_at": "2025-08-13T09:12:09.855578+00:00"}
{"name": "La Trattoria Toscana", "latitude": 52.5140217, "longitude": 13.2973968, "cuisine_type": "italian", "address": null, "contact_info": null, "source": "OpenStreetMap", "retrieved_at": "2025-08-13T09:12:09.855581+00:00"}
{"name": "Restaurant Gourmet Sud", "latitude": 52.4458169, "longitude": 13.2428177, "cuisine_type": "french", "address": null, "contact_info": null, "source": "OpenStreetMap", "retrieved_at": "2025-08-13T09:12:09.855583+00:00"}
{"name": "Café Monaco", "latitude": 52.49307, "longitude": 13.367236, "cuisine_type": null, "address": null, "contact_info": null, "source": "OpenStreetMap", "retrieved_at": "2025-08-13T09:12:09.855586+00:00"}
{"name": "Plan", "latitude": 52.5006932, "longitude": 13.4316156, "cuisine_type": null, "address": null, "contact_info": null, "source": "OpenStreetMap", "retrieved_at": "2025-08-13T09:12:09.855589+00:00"}
{"name": "Bistro", "latitude": 52.4710833, "longitude": 13.5652273, "cuisine_type": null, "address": null, "contact_info": null, "source": "OpenStreetMap", "retrieved_at": "2025-08-13T09:12:09.855592+00:00"}
{"name": "MÊLI", "latitude": 52.4682137, "longitude": 13.5142493, "cuisine_type": "asian;sushi", "address": null, "contact_info": "+49 30 91513000", "source": "OpenStreetMap", "retrieved_at": "2025-08-13T09:12:09.855595+00:00"}
{"name": "Stella del Köp", "latitude": 52.4557061, "longitude": 13.552511, "cuisine_type": "italian", "address": null, "contact_info": null, "source": "OpenStreetMap", "retrieved_at": "2025-08-13T09:12:09.855598+00:00"}
{"name": "Standard Pizza", "latitude": 52.5328438, "longitude": 13.4086146, "cuisine_type": "pizza", "address": null, "contact_info": "+49 30 48625614", "source": "OpenStreetMap", "retrieved_at": "2025-08-13T09:12:09.855601+00:00"}
{"name": "Zen Garden", "latitude": 52.427003, "longitude": 13.2180894, "cuisine_type": "asian;sushi", "address": null, "contact_info": "+49 30 75650305", "source": "OpenStreetMap", "retrieved_at": "2025-08-13T09:12:09.855603+00:00"}
{"name": "Parkcafé Pusteblume", "latitude": 52.4802048, "longitude": 13.3365051, "cuisine_type": null, "address": null, "contact_info": "+49 30 85730308", "source": "OpenStreetMap", "retrieved_at": "2025-08-13T09:12:09.855606+00:00"}
{"name": "Restaurant Lindeneck", "latitude": 52.3906611, "longitude": 13.2194532, "cuisine_type": null, "address": null, "contact_info": null, "source": "OpenStreetMap", "retrieved_at": "2025-08-13T09:12:09.855609+00:00"}
{"name": "Felicia", "latitude": 52.4788003, "longitude": 13.42333, "cuisine_type": null, "address": null, "contact_info": null, "source": "OpenStreetMap", "retrieved_at": "2025-08-13T09:12:09.855612+00:00"}
{"name": "Golden Garden", "latitude": 52.4171466, "longitude": 13.3244761, "cuisine_type": "chinese", "address": null, "contact_info": null, "source": "OpenStreetMap", "retrieved_at": "2025-08-13T09:12:09.855615+00:00"}
{"name": "λ", "latitude": 52.5127816, "longitude": 13.4573118, "cuisine_type": null, "address": null, "contact_info": null, "source": "OpenStreetMap", "retrieved_at": "2025-08-13T09:12:09.855618+00:00"}
{"name": "Lino Restaurant & Sushi Bar", "latitude": 52.3729394, "longitude": 13.6023915, "cuisine_type": "asian", "address": null, "contact_info": "+49 33762 466854", "source": "OpenStreetMap", "retrieved_at": "2025-08-13T09:12:09.855620+00:00"}
{"name": "Asia Restaurant Sonne", "latitude": 52.5066568, "longitude": 13.2845552, "cuisine_type": "asian", "address": null, "contact_info": "+49 30 20889588", "source": "OpenStreetMap", "retrieved_at": "2025-08-13T09:12:09.855623+00:00"}
{"name": "Thomas-Eck", "latitude": 52.5079886, "longitude": 13.3092361, "cuisine_type": "german", "address": null, "contact_info": "+49 30 3128742", "source": "OpenStreetMap", "retrieved_at": "2025-08-13T09:12:09.855626+00:00"}
{"name": "Wernesgrüner B", "latitude": 52.4864913, "longitude": 13.5265088, "cuisine_type": null, "address": null, "contact_info": null, "source": "OpenStreetMap", "retrieved_at": "2025-08-13T09:12:09.855629+00:00"}
{"name": "Steakhaus Barbecue", "latitude": 52.4866452, "longitude": 13.5272764, "cuisine_type": "steak_house", "address": null, "contact_info": null, "source": "OpenStreetMap", "retrieved_at": "2025-08-13T09:12:09.855632+00:00"}
{"name": "TreBo", "latitude": 52.4857307, "longitude": 13.526982, "cuisine_type": null, "address": null, "contact_info": null, "source": "OpenStreetMap", "retrieved_at": "2025-08-13T09:12:09.855635+00:00"}
{"name": "Ulteamate", "latitude": 52.5065004, "longitude": 13.3133688, "cuisine_type": "bubble_tea", "address": null, "contact_info": null, "source": "OpenStreetMap", "retrieved_at": "2025-08-13T09:12:09.855637+00:00"}
{"name": "Ristorante Pizzeria Dino", "latitude": 52.507721, "longitude": 13.3113863, "cuisine_type": "italian", "address": null, "contact_info": "+49 30 3123739", "source": "OpenStreetMap", "retrieved_at": "2025-08-13T09:12:09.855640+00:00"}
{"name": "Gasthof zur Linde", "latitude": 52.6537272, "longitude": 13.4343369, "cuisine_type": "german", "address": null, "contact_info": null, "source": "OpenStreetMap", "retrieved_at": "2025-08-13T09:12:09.855643+00:00"}
{"name": "Don Giovanni", "latitude": 52.5230939, "longitude": 13.3597499, "cuisine_type": "italian", "address": null, "contact_info": "+49 30 39835610", "source": "OpenStreetMap", "retrieved_at": "2025-08-13T09:12:09.855646+00:00"}
{"name": "Die Schule", "latitude": 52.5370279, "longitude": 13.4084251, "cuisine_type": "german", "address": null, "contact_info": null, "source": "OpenStreetMap", "retrieved_at": "2025-08-13T09:12:09.855649+00:00"}
{"name": "Cafe Lisboa", "latitude": 52.5090275, "longitude": 13.3077924, "cuisine_type": "portuguese", "address": null, "contact_info": "+49 30 31018869", "source": "OpenStreetMap", "retrieved_at": "2025-08-13T09:12:09.855651+00:00"}
{"name": "Homera", "latitude": 52.5080285, "longitude": 13.3054849, "cuisine_type": null, "address": null, "contact_info": null, "source": "OpenStreetMap", "retrieved_at": "2025-08-13T09:12:09.855654+00:00"}
{"name": "Le midi", "latitude": 52.5470948, "longitude": 13.4153599, "cuisine_type": "french;corsican", "address": null, "contact_info": null, "source": "OpenStreetMap", "retrieved_at": "2025-08-13T09:12:09.855657+00:00"}
{"name": "Knödelwirtschaft Nord", "latitude": 52.5474445, "longitude": 13.4143029, "cuisine_type": "regional;austrian", "address": null, "contact_info": "+49 30 30642829", "source": "OpenStreetMap", "retrieved_at": "2025-08-13T09:12:09.855661+00:00"}
{"name": "Van Hoa", "latitude": 52.5476774, "longitude": 13.4147301, "cuisine_type": "vietnamese", "address": null, "contact_info": "+49 30 40574197", "source": "OpenStreetMap", "retrieved_at": "2025-08-13T09:12:09.855664+00:00"}
{"name": "Rosati", "latitude": 52.5113714, "longitude": 13.3078414, "cuisine_type": "italian", "address": null, "contact_info": "+49303128368", "source": "OpenStreetMap", "retrieved_at": "2025-08-13T09:12:09.855667+00:00"}
{"name": "Café Kali", "latitude": 52.5102468, "longitude": 13.3075842, "cuisine_type": null, "address": null, "contact_info": null, "source": "OpenStreetMap", "retrieved_at": "2025-08-13T09:12:09.855670+00:00"}
{"name": "Tele-Internet", "latitude": 52.5300692, "longitude": 13.3409964, "cuisine_type": null, "address": null, "contact_info": null, "source": "OpenStreetMap", "retrieved_at": "2025-08-13T09:12:09.855676+00:00"}
{"name": "Sadhu", "latitude": 52.5452831, "longitude": 13.4214478, "cuisine_type": "indian", "address": null, "contact_info": "+49 176 32872717", "source": "OpenStreetMap", "retrieved_at": "2025-08-13T09:12:09.855679+00:00"}
{"name": "Frau Mittenmang", "latitude": 52.550285, "longitude": 13.4193202, "cuisine_type": "german", "address": null, "contact_info": null, "source": "OpenStreetMap", "retrieved_at": "2025-08-13T09:12:09.855681+00:00"}
{"name": "Das Versteck", "latitude": 52.3609223, "longitude": 13.3323647, "cuisine_type": null, "address": null, "contact_info": null, "source": "OpenStreetMap", "retrieved_at": "2025-08-13T09:12:09.855684+00:00"}
{"name": "Papà Pane di Sorrento", "latitude": 52.53209, "longitude": 13.396302, "cuisine_type": "italian", "address": null, "contact_info": null, "source": "OpenStreetMap", "retrieved_at": "2025-08-13T09:12:09.855687+00:00"}
{"name": "Asman", "latitude": 52.5315752, "longitude": 13.3965969, "cuisine_type": "indian", "address": null, "contact_info": null, "source": "OpenStreetMap", "retrieved_at": "2025-08-13T09:12:09.855690+00:00"}
{"name": "Treffpunkt Berlin", "latitude": 52.5178945, "longitude": 13.3882827, "cuisine_type": "regional", "address": null, "contact_info": null, "source": "OpenStreetMap", "retrieved_at": "2025-08-13T09:12:09.855693+00:00"}
{"name": "Bar Voyage", "latitude": 52.4979752, "longitude": 13.3562993, "cuisine_type": null, "address": null, "contact_info": null, "source": "OpenStreetMap", "retrieved_at": "2025-08-13T09:12:09.855696+00:00"}
{"name": "44 Brekkie", "latitude": 52.5093265, "longitude": 13.4579704, "cuisine_type": "breakfast", "address": null, "contact_info": null, "source": "OpenStreetMap", "retrieved_at": "2025-08-13T09:12:09.855698+00:00"}
{"name": "Boccadoro", "latitude": 52.4239489, "longitude": 13.3306356, "cuisine_type": "italian", "address": null, "contact_info": null, "source": "OpenStreetMap", "retrieved_at": "2025-08-13T09:12:09.855701+00:00"}
{"name": "Alimentari", "latitude": 52.5339232, "longitude": 13.4020087, "cuisine_type": "italian", "address": null, "contact_info": null, "source": "OpenStreetMap", "retrieved_at": "2025-08-13T09:12:09.855704+00:00"}
{"name": "Monster Ronson's Ichiban Karaoke", "latitude": 52.5051922, "longitude": 13.448422, "cuisine_type": null, "address": null, "contact_info": null, "source": "OpenStreetMap", "retrieved_at": "2025-08-13T09:12:09.855707+00:00"}
{"name": "eleven", "latitude": 52.5095598, "longitude": 13.3797813, "cuisine_type": null, "address": null, "contact_info": null, "source": "OpenStreetMap", "retrieved_at": "2025-08-13T09:12:09.855710+00:00"}
{"name": "Italofritzen", "latitude": 52.5226168, "longitude": 13.3882443, "cuisine_type": "pizza;italian", "address": null, "contact_info": "+49 30 40520594", "source": "OpenStreetMap", "retrieved_at": "2025-08-13T09:12:09.855714+00:00"}
{"name": "Tugra", "latitude": 52.4987072, "longitude": 13.2987243, "cuisine_type": null, "address": null, "contact_info": null, "source": "OpenStreetMap", "retrieved_at": "2025-08-13T09:12:09.855717+00:00"}
{"name": "Siena", "latitude": 52.5931545, "longitude": 13.3819714, "cuisine_type": "italian", "address": null, "contact_info": null, "source": "OpenStreetMap", "retrieved_at": "2025-08-13T09:12:09.855721+00:00"}
